stop_id,stop_code,stop_name,stop_desc,stop_lat,stop_lon,zone_id
1297,30001,Karavella Bus Station,KarBusSta,34.778616320876,32.4221249543794,1297
1299,30003,Waterpark,Waterpark,34.7412455534606,32.4410875863875,1299
1301,30005,Georg. Griva Digeni Ave. - Ypol. N. Papageorgiou,GeGDi-YNPa,34.7730323424325,32.4254970529272,1301
1302,30006,Archaeological Museum 1,ArchaMuseu,34.771406554842,32.4306992191937,1302
1303,30007,Fire Station 1,FireStati,34.7695891522913,32.435465367438,1303
1304,30008,A` High School - Ag. Theodoros 1,AHSc-ATh,34.7672189940113,32.4436226157175,1304
1305,30009,Archiep. Makariou C` Ave. - Ellados,ArMaC-El,34.7641888377087,32.4475330556782,1305
1306,30010,Archiep. Makariou C` Ave. - Olympiados,ArMaC-Ol,34.7617774012893,32.4506960835969,1306
1307,30011,Archiep. Makariou C` Ave. - Al. Panagouli,ArMaC-APa,34.7589023723357,32.4570853205206,1307
1308,30012,Archiep. Makariou C` Ave. - Ag. Sergiou 1,ArMaC-ASe,34.756191246285,32.4618669001097,1308
1309,30013,Archiep. Makariou C` Ave. - Filias,ArMaC-Fi,34.7528419525787,32.4651117343522,1309
1310,30014,American Academy 1,AmeriAcade,34.7453419748184,32.4740200977946,1310
1311,30015,1st Stop Acheleia,1stStoAch,34.740112978729,32.4806186330465,1311
1312,30016,Ag. Georgios Church - Acheleia 1,AgGeCh-Ac,34.7386787516233,32.4847677782398,1312
1313,30017,3rd Stop Acheleia,3rdStoAch,34.7349074057902,32.4950701441028,1313
1314,30018,Archiep. Makariou C` Ave. - Anexartisias 1,ArMaC-An,34.7287723221796,32.5120266264025,1314
1315,30019,Salaminos - Archiep. Makariou C` Ave. 1,Sa-ArMaC,34.7291192273234,32.5130840887172,1315
1316,30020,Timi Elementary School 1,TimEleSch,34.7303709658286,32.5149117878844,1316
1317,30021,Salaminos - Ioanni Makrygianni 1,Sa-IoMa,34.7331048820549,32.5152999726968,1317
1318,30022,Salaminos - Stadiou,Sal-Sta,34.7349609774868,32.5171788943611,1318
1319,30023,Salaminos - Keryneias 1,Sal-Ker,34.7331148962404,32.5178231779738,1319
1320,30024,G. Griva Digeni Ave. - Kon. Kanari,GGDi-KKa,34.7322162117326,32.5186039377931,1320
1321,30025,Agias Marinas - 1st Stop,AgMa-1sSt,34.739144194864,32.5307658866717,1321
1322,30026,Agia Marina Church 1,AgiMarChu,34.740216031928,32.5327807970096,1322
1323,30027,Eleftherias Ave. - Pentadaktylou,ElAv-Pe,34.7165527384955,32.5325862985293,1323
1324,30028,Mandria Cultural Centre,ManCulCen,34.7156245904966,32.5304182563232,1324
1325,30029,Gypsou - Kalopsidas,Gyp-Kal,34.7181818137022,32.5317689581394,1325
1326,30030,Agia Marina Church 2,AgiMarChu,34.740197661607,32.532693507137,1326
1327,30031,Agias Marinas - 2nd Stop,AgMa-2nSt,34.7391530861332,32.5307330643382,1327
1328,30032,Georgiou Griva Digeni Ave. - Rodosthenous,GeGDi-Ro,34.7314012649221,32.5177566695643,1328
1329,30033,Salaminos - Keryneias 2,Sal-Ker,34.733286056116,32.5177784908808,1329
1330,30034,Salaminos - Morfou,Sal-Mor,34.7347114767513,32.5156619887918,1330
1331,30035,Salaminos - Ioanni Makrygianni 2,Sa-IoMa,34.7328174078788,32.5155747306038,1331
1333,30038,Timi Elementary School 2,TimEleSch,34.7300554396768,32.5149354769929,1333
1334,30039,Salaminos - Archiep. Makariou C` Ave. 2,Sa-ArMaC,34.7289111257545,32.512910546455,1334
1335,30040,Archiep. Makariou C` Ave. - Anexartisias 2,ArMaC-An,34.7286638056832,32.5119508057315,1335
1336,30041,4th Stop Acheleia,4thStoAch,34.7345136680278,32.4958044062628,1336
1337,30042,Ag. Georgios Church - Acheleia 2,AgGeCh-Ac,34.7382228312019,32.4857100615028,1337
1338,30043,2nd Stop Acheleia,2ndStoAch,34.7402995485645,32.4799620168692,1338
1339,30044,American Academy 2,AmeriAcade,34.7449272669711,32.4740445759668,1339
1340,30045,Elea Golf Club,EleGolClu,34.7475868776227,32.4718208475347,1340
1341,30046,Archiep. Makariou C` Ave. - Ag. Sergiou 2,ArMaC-ASe,34.7496650436112,32.4686174095776,1341
1342,30047,Archiep. Makariou C` Ave. - G. Vasileiadi,ArMaC-GVa,34.753011603243,32.4647282371788,1342
1343,30048,Archiep. Makariou C` Ave. - Ag. Sergiou 2,ArMaC-ASe,34.7564595946437,32.4613734773989,1343
1344,30049,Archiep. Makariou C` Ave. - Markou Drakou,ArMaC-MaDr,34.7577215568147,32.4592237027772,1344
1345,30050,Archiep. Makariou C` Ave. - Ippokratous,ArMaC-Ip,34.7586955567914,32.4572177929723,1345
1346,30051,Archiep. Makariou C` Ave. - Arsinois,ArMaC-Ar,34.7595984592426,32.4554526898932,1346
1347,30052,Archiep. Makariou C` Ave. - Korytsas,ArMaC-Ko,34.7605031851966,32.4520922254356,1347
1348,30053,Archiep. Makariou C` Ave. - Kosta Karnavalou,ArMaC-KKa,34.7620282607071,32.450333831363,1348
1349,30054,Archiep. Makariou C` Ave. - Kyr. Partasidi,ArMaC-KPa,34.7637497118435,32.4481369780267,1349
1350,30055,A` High School - Ag. Theodoros 2,AHSc-ATh,34.7667249358952,32.4440411799213,1350
1351,30056,Afroditi Sports Centre,AfrSpoCen,34.7681620868809,32.4388736263597,1351
1352,30057,Fire Station 2,FireStati,34.7691594592919,32.4361458242732,1352
1353,30058,Archaeological Museum 2,ArchaMuseu,34.7713774580685,32.430262290771,1353
1354,30059,Georg. Griva Digeni Ave. - Panikou Pastidi,GeGDi-PaPa,34.7727190556443,32.4259910012814,1354
1355,30060,Pafos City Hall,PafCitHal,34.7736844116156,32.4241811128168,1355
1357,30063,Panagia Cheyseleousa Church - Koili,PaChCh-Ko,34.8602676188841,32.4547572339766,1357
1358,30064,Agios Georgios Pegeias,AgiGeoPeg,34.9023839896716,32.319761758522,1358
1359,30065,Agiou Georgiou Ave. - 1st Stop,AGe-1S,34.8767677531893,32.3548999457731,1359
1360,30066,Agiou Georgiou Ave. - 9th Stop,AGe-9S,34.8938897381093,32.3344424717231,1360
1361,30067,Agiou Georgiou Ave. - 8th Stop,AGe-8S,34.8879912429058,32.3391957689971,1361
1363,30069,Polis Chrysochous Bus Station,PoChBuSt,35.0332381728798,32.4252716391202,1363
1364,30070,Ellados Ave. - Panikou Dimitriou,ElAv-PaDi,34.7883106338134,32.4337201189126,1364
1366,30072,Ellados Ave. - Onoufriou Kliridi,ElAv-OnKl,34.7822936881398,32.4274657647083,1366
1368,30074,Theas Afroditis Ave. - 2nd Stop,TAf-2S,34.737295359023,32.4390277555044,1368
1369,30075,Poseidonos Ave. - 10th Stop,PoAv-10St,34.7404829632574,32.4341231201536,1369
1370,30076,Poseidonos Ave. - 8th Stop,PoAv-8tSt,34.7435052732565,32.4305520377274,1370
1371,30077,Poseidonos Ave. - 6th Stop,PoAv-6tSt,34.7466083223661,32.426914587123,1371
1372,30078,Neapolis University 2,NeapoUnive,34.7498037060993,32.4275808135072,1372
1373,30079,Giannou Kranidioti - Taxiarchon Ave.,GiKr-TaAv,34.7625736537758,32.4355131312486,1373
1374,30080,Taxiarchon Ave. - Agiou Irakleidiou,TaAv-AgIr,34.7610031447959,32.4332619653697,1374
1375,30081,Taxiarchon Ave. - Georgiou Ioannidi,TaAv-GeIo,34.7591949816993,32.428411984311,1375
1376,30082,Georgiou Ioannidi - Nikou Nikolaidi,GeIo-NiNi,34.7621925853296,32.4292108481237,1376
1377,30083,Nikou Nikolaidi - Sotiraki Markidi,NiNi-SoMa,34.7641778778132,32.4275908759958,1377
1378,30084,Sotiraki Markidi - Priamou,SoMa-Pr,34.7621046613335,32.4239446483569,1378
1379,30085,Priamou - Mpelapais,Pri-Mpe,34.7640778567438,32.4216908568716,1379
1380,30086,Priamou - Mpelapais,Pri-Mpe,34.7655632238573,32.4211559803846,1380
1381,30087,Priamou - Agapinoros,Pri-Aga,34.7674336798098,32.4200610817206,1381
1382,30088,Agapinoros - Iliados 1,Aga-Ili,34.7659767330688,32.4189894511658,1382
1383,30089,Agion Anargyron - Ifaistou,AgAn-If,34.7635824030481,32.4142529093797,1383
1388,30094,Annabelle Hotel 1,AnnabHotel,34.7561585690932,32.4175285664989,1388
1389,30095,Poseidonos Ave. - 1st Stop,PoAv-1sSt,34.7538167248285,32.4199924088154,1389
1390,30096,Poseidonos Ave. - 3rd Stop,PoAv-3rSt,34.7524242349487,32.4210947149952,1390
1391,30097,Poseidonos Ave. - 5th Stop,PoAv-5tSt,34.7494882035672,32.4237809794508,1391
1392,30098,Neapolis University 1,NeapoUnive,34.7492075329655,32.4273664210965,1392
1393,30099,Poseidonos Ave. - 7th Stop,PoAv-7tSt,34.7449853134053,32.4288703977653,1393
1394,30100,Poseidonos Ave. - 9th Stop,PoAv-9tSt,34.7433272232012,32.4310448624992,1394
1395,30101,Poseidonos Ave. - 11th Stop,PoAv-11St,34.7416143276334,32.4330775987073,1395
1396,30102,Theas Afroditis Ave. - 1st Stop,TAf-1S,34.7384249014927,32.4375781705336,1396
1397,30103,Agios Neofytos Monastery,AgiNeoMon,34.8457039337022,32.4466825933203,1397
1398,30104,Igoum. Leontiou Ave. - Peristerion,IgLeAv-Pe,34.8396020737639,32.4394611111701,1398
1399,30105,Igoum. Leontiou Ave. - Miltiadi Stylianou Ave.,IgLe-MiSt,34.8387547876678,32.4356388668018,1399
1402,30108,Miltiadi Stylianou Ave. - Agiou Stefanou,MiSt-ASt,34.8313637380328,32.4286245632915,1402
1403,30109,Nikolaou Ellina - 8th Stop,NiEl-8tSt,34.8177290977725,32.4228688572483,1403
1404,30110,Nikolaou Ellina - 6th Stop,NiEl-6tSt,34.8162143545229,32.4229122230125,1404
1405,30111,Nikolaou Ellina - 4th Stop,NiEl-4tSt,34.8138264399454,32.4232787548389,1405
1406,30112,Nikolaou Ellina - 2nd Stop,NiEl-2nSt,34.8122035919628,32.4233447303689,1406
1407,30113,Nikolaou Ellina - Dimitriou Zinieri,NiEl-DiZi,34.8092274800421,32.4232779972536,1407
1408,30114,Agia Paraskevi Church 2,AgiParChu,34.8071411152493,32.4244842202391,1408
1409,30115,Empa Elementary School 2,EmpEleSch,34.8053927980252,32.4247150273336,1409
1410,30116,Nikolaou Ellina - Ioanni Solomou,NiEl-IoSo,34.8034128936573,32.4236464735314,1410
1411,30117,Christou Kkeli Ave. - Aigialousis,ChKkAv-Ai,34.7973166525564,32.4197753815174,1411
1412,30118,Christou Kkeli Ave. - Iakovou Patatsou,ChK-IaPa,34.7983149415075,32.4173306066389,1412
1413,30119,Archiep. Makariou C` Ave. - Morfou,ArMaC-Mo,34.7973332148982,32.4156977705868,1413
1414,30120,Agios Nektarios Church 2,AgiNekChu,34.7948472119548,32.4181748498655,1414
1415,30121,Archiep. Makariou C` Ave. - Markou Mpotsari,ArMaC-MaMp,34.7924041085425,32.4202033097834,1415
1416,30122,Akamantidos - Kyriakou Kolokasi,Ak-KyKo,34.7860117043455,32.4223247715417,1416
1417,30123,Nikolaou Ellina - Kifeos,NiEl-Ki,34.7818424410461,32.4216652743302,1417
1418,30124,Municipal Market,MunicMarke,34.7780851611252,32.4185220603598,1418
1419,30125,Agia Sofia Church,AgiSofChu,34.7795782318935,32.4196045123866,1419
1420,30126,Nikolaou Ellina - Fellachoglou,NiEl-Fe,34.7815261083344,32.4215144685154,1420
1421,30127,Akamantidos - Elenis Kouloumou,Ak-ElKo,34.7850898641537,32.4218939983843,1421
1422,30128,Archiep. Makariou C` Ave. - Ioan. Kapodistria,ArMaC-IKa,34.792951193443,32.4195764108171,1422
1423,30129,Agios Nektarios Church 1,AgiNekChu,34.7950349544689,32.4178346601492,1423
1424,30130,Archiep. Makariou C` Ave. - Nik. Chatzioikonomou,ArMaC-NCh,34.7962012335346,32.4165802744962,1424
1425,30131,Christou Kkeli Ave. - Andrea Ellina,ChK-AnEl,34.7983863992611,32.4171879909892,1425
1426,30132,Christou Kkeli Ave. - Zolias,ChKkAv-Zo,34.7974695293554,32.4196868573255,1426
1427,30133,Empas Ave. - Ioanni Makrygianni,EmAv-IoMa,34.798403121905,32.4225881649193,1427
1428,30134,Nikolaou Ellina - Agiou Neofytou,NiEl-AgNe,34.8027721492319,32.4235416101613,1428
1429,30135,Empa Elementary School 1,EmpEleSch,34.8053929013844,32.4247368919966,1429
1430,30136,Agia Paraskevi Church 1,AgiParChu,34.8071411152493,32.4244842202391,1430
1431,30137,Nikolaou Ellina - Evag. Pallikaridi,NiEl-EvPa,34.8093532035815,32.4231677892295,1431
1432,30138,Nikolaou Ellina - 1st Stop,NiEl-1sSt,34.8122126092256,32.4233446675475,1432
1433,30139,Nikolaou Ellina - 3rd Stop,NiEl-3rSt,34.8148616622482,32.4228997872357,1433
1434,30140,Nikolaou Ellina - 5th Stop,NiEl-5tSt,34.8177739247165,32.4228138730008,1434
1435,30141,Miltiadi Stylianou Ave. - Agiou Andronikou,MiSt-AAn,34.8312553256628,32.4285815677533,1435
1436,30142,M.Stylianou 4,M.Styliano,34.8356885792279,32.4317116432854,1436
1437,30143,Igoum. Leontiou Ave. - Mouttalion,IgLeAv-Mo,34.8396361260086,32.4390233912776,1437
1438,30144,Mesa Choro Village Centre,MeChViCe,34.8091676877419,32.4613915516629,1438
1439,30150,Mesogis Avenue - Georgiou Tsioupi,MeAv-GeTs,34.8157159314405,32.4516285467492,1439
1440,30151,Mesogis Ave. - Panikou Chatzipanagi,MeAv-PaCh,34.8126566007797,32.4511021327807,1440
1441,30154,Mesogis Ave. - Grigori Afxentiou,MeAv-GrAf,34.8041982487347,32.4451671765174,1441
1442,30155,Mesogis Ave. - Agiou Dimitriou,MeAv-AgDi,34.799474512754,32.4415475654362,1442
1443,30156,Mesogis Ave. - Agias Anastasias,MeAv-AgAn,34.7968683821903,32.4395755924128,1443
1444,30157,Mesogis Ave. - Andrea Lardou,MeAv-AnLa,34.7953820831052,32.4379678055821,1444
1445,30158,Ellados Ave. - Olgas Xinaridou,ElAv-OlXi,34.7823110544337,32.4273235593229,1445
1447,30160,Dasoudi Park,DasouPark,34.789801336744,32.4343220448345,1447
1448,30161,Aphrodite`s Baths,AphroBaths,35.0563481350348,32.3466589047967,1448
1449,30162,Mesogis Ave. - Panagioti Toumazou,MesAv-PaTo,34.795172058822,32.4374008005802,1449
1450,30163,Mesogis Ave. - Viktorias,MesAve-Vik,34.7977631588805,32.4400177369083,1450
1451,30164,Mesogis Ave. - Foti Pitta,MesAve-FoP,34.7998172708492,32.4415671179024,1451
1452,30165,Mesogi Industrial Area - 1st Stop,MeInA-1S,34.8056177513665,32.4459885516962,1452
1453,30171,Trimithousa Community Board,TriComBoa,34.8170343491878,32.446065214591,1453
1455,30173,Agiou Neofytou Ave. - Papasavva,AgNeAv-Pa,34.8152948986165,32.454255500568,1455
1456,30174,Kosta Karnavalou - Dimostheni Georgiou,KoKa-DiGe,34.8143084982969,32.4575093697614,1456
1457,30175,Dimostheni Georgiou - 1st Stop,DiGe-1sSt,34.8110725757226,32.4598484721769,1457
1458,30176,5th Stop Neo Chorio Pafou,5tStNeChPa,35.0278517725078,32.3649514112114,1458
1459,30177,C.T.O. Offices,C.T.OOffic,34.7746227725429,32.4204916463545,1459
1460,30178,Apostolou Pavlou Ave. - Anapafseos,ApPaAv-An,34.7727565051574,32.4186796541143,1460
1461,30179,Apostolou Pavlou Ave. - Niovis,ApPaAv-Ni,34.7695393927569,32.4172487953047,1461
1462,30180,Kings Avenue Mall 2,KinAveMal,34.7660767498971,32.4153936033586,1462
1464,30182,Theas Afroditis Ave. - 3rd Stop,TAf-3S,34.7413664635358,32.443861534233,1464
1465,30183,Ierokipion Ave. - 1st Stop,IeAv-1sSt,34.7466426309659,32.4460220894897,1465
1466,30184,Geroskipou High School 1,GerHigSch,34.7551187720507,32.4518983462542,1466
1467,30185,Ippokratous - Kozanis,Ipp-Koz,34.7559942364575,32.4560882198715,1467
1468,30187,Dimokratias Ave. - Agiou Ioannou,DiAv-AgIo,34.7859093528205,32.4409613456044,1468
1469,30188,Pafos General Hospital 1,PafGenHos,34.7886669339612,32.4445060792828,1469
1470,30189,Dimokratias Ave. - Mariou,DiAv-Ma,34.7863155843641,32.4410569762503,1470
1471,30190,Elefth. Venizelou Ave. - Eirinis,ElVeAv-Ei,34.7829859298893,32.4405875986818,1471
1472,30191,Elefth. Venizelou Ave. - Chanion,ElVeAv-Ch,34.7820931747888,32.4386262930758,1472
1473,30192,Citizen Service Centre 2,CitSerCen,34.7814046999228,32.4359969396581,1473
1474,30193,Elefth. Venizelou Ave. - Dim. Liperti,ElVe-DLi,34.7805994004,32.4315322859269,1474
1475,30194,S.E.K. Pafos 2,S.E.KPafos,34.7806936899669,32.4285588329808,1475
1476,30195,Elefth. Venizelou Ave. - Christod. Tsielepou,ElVe-ChTs,34.7808368584499,32.426404743787,1476
1477,30196,Evag. Pallikaridi Ave. - Petraki Giallourou,EPa-PeGi,34.7800741463408,32.4252952292824,1477
1478,30197,Pegeia Square 1,PegeiSquar,34.8839143721537,32.3818624702814,1478
1479,30198,Pegeia Police Station 2,PegPolSta,34.880225146336,32.3798766615432,1479
1480,30199,Michalaki Kyprianou Ave. - Agias Theklis,MiKy-ATh,34.8780796923541,32.3800131403225,1480
1481,30200,Pegeia Municipal Stadium 2,PegMunSta,34.8746573555007,32.3790868972352,1481
1482,30201,Michalaki Kyprianou Ave. - Spyrou Kyprianou,MiKy-SpKy,34.8711812435881,32.3782267818152,1482
1483,30202,Michalaki Kyprianou Ave. - Louvia,MiKyAv-Lo,34.8656447412443,32.3782684576026,1483
1484,30203,Michalaki Kyprianou Ave. - Aigialousis 2,MiKyAv-Ai,34.8566496449063,32.3808850322801,1484
1485,30204,Michalaki Kyprianou Ave. - Agiou Georgiou Ave.,MiKy-AGe,34.8536566818648,32.3810496621429,1485
1489,30208,Christou Kkeli Ave. - Kassima,ChKkAv-Ka,34.8275532476887,32.3976593623315,1489
1490,30209,Christou Kkeli Ave. - Gianni Oikonomidi,ChK-GiOi,34.8241459746372,32.401588018596,1490
1491,30210,Christou Kkeli Ave. - Pavlou Liasidi,ChK-PaLi,34.8221817272482,32.403745464246,1491
1492,30211,Christou Kkeli Ave. - Iras,ChKkAv-Ir,34.8214379666613,32.4065501319348,1492
1493,30212,Christou Kkeli Ave. - Nikola Giannikou 2,ChK-NiGi,34.8204681261826,32.4092360819779,1493
1494,30213,Christou Kkeli Ave. - Eleftherias,ChKkAv-El,34.8197840276131,32.4113513403174,1494
1495,30214,Archiepiskopou Makariou C` Ave. - 4th Stop,ArMaC-4S,34.8128728015609,32.4105695375939,1495
1496,30215,Archiepiskopou Makariou C` Ave. - 2nd Stop,ArMaC-2S,34.8106358368039,32.4104433330269,1496
1497,30216,Agiou Stefanou - Ellados Ave.,AgSt-ElAv,34.8080560568162,32.4102867772024,1497
1498,30217,Agiou Stefanou - Agiou Stylianou,AgSt-AgSt,34.805866295169,32.4105975591238,1498
1499,30218,Evag. Pallikaridi - Athinon,EvPa-At,34.8040283707661,32.4090800929157,1499
1500,30219,Evag. Pallikaridi - Andrea Charalampous,EvPa-AnCh,34.8020986580945,32.4072353830325,1500
1501,30220,Papakosta Leonidou - Dimitriou Christodoulou,PaLe-DiCh,34.8001525814447,32.407588205402,1501
1503,30222,Eleftherias Ave. - Georg. Tapakoudi,ElAv-GeTa,34.7960786496524,32.4098582944206,1503
1504,30223,Chlorakas Elementary School - Ag. Nikolaos 2,ChElSc-ANi,34.7940796991376,32.4123320543775,1504
1505,30224,Eleftherias Ave. - Theodorou Petrou,ElAv-ThPe,34.7936091628844,32.4138657505931,1505
1506,30225,Eleftherias Ave. - Othonos,ElAv-Ot,34.7931497761041,32.4158475245898,1506
1507,30226,Eleftherias Ave. - 1 Apriliou,ElAv-1Ap,34.7919841015925,32.4191131579273,1507
1508,30227,Eleftherias Ave. - Evagora Pallikaridi,ElAv-EvPa,34.7931126050889,32.4156182344053,1508
1509,30229,Chlorakas Elementary School - Ag. Nikolaos 1,ChElSc-ANi,34.7942754917947,32.4117950357158,1509
1512,30232,Papakosta Leonidou - Alexandrou Papasavva,PaLe-AlPa,34.8001970823266,32.407467635124,1512
1513,30234,Evag. Pallikaridi - Athinon,EvPa-At,34.8037010411957,32.4085248737661,1513
1514,30235,Agiou Stefanou - Fkonis,AgSt-Fk,34.8061725110436,32.4105188496293,1514
1515,30237,Archiepiskopou Makariou C` Ave. - 1st Stop,ArMaC-1S,34.8109776444291,32.4102659638679,1515
1516,30238,Archiepiskopou Makariou C Ave. - 3rd Stop,ArMaC-3S,34.8129266931549,32.4105254191092,1516
1517,30239,Christou Kkeli Ave. - Agiou Kononos,ChK-AKo,34.8198016388453,32.4112637383559,1517
1518,30240,Christou Kkeli Ave. - Nikola Giannikou 1,ChK-NiGi,34.8204855234744,32.4091047416835,1518
1519,30241,Christou Kkeli Ave. - Georgiou Michail,ChK-GeMi,34.8210714054855,32.4071979111931,1519
1520,30242,Christou Kkeli Ave. - Nik. Karagianni,ChK-NKa,34.8236239981323,32.4017995605363,1520
1521,30243,Christou Kkeli Ave. - Mosfilion,ChKkAv-Mo,34.8275435265754,32.3975172703295,1521
1525,30247,Michalaki Kyprianou Ave. - Aigialousis 1,MiKyAv-Ai,34.8564425294173,32.3809412810817,1525
1526,30248,Michalaki Kyprianou Ave. - Psalidion,MiKyAv-Ps,34.8650690443282,32.3785463042553,1526
1527,30249,Michalaki Kyprianou Ave. - Filippou Diogenous,MiKy-FiDi,34.8715409203606,32.3780271286234,1527
1528,30250,Pegeia Municipal Stadium 1,PegMunSta,34.8743940711726,32.3787387396948,1528
1529,30251,Michalaki Kyprianou Ave. - Apost. Louka,MiKy-ApL,34.8783045616608,32.3799020287596,1529
1530,30252,Pegeia Police Station 1,PegPolSta,34.8802517510748,32.3797889212039,1530
1531,30254,Elefth. Venizelou Ave. - Vas. Konstantinou A`,ElVe-VKoA,34.7809552162391,32.4266443728081,1531
1532,30255,S.E.K. Pafos 1,S.E.KPafos,34.7808176740926,32.4280770822437,1532
1533,30256,Elefth. Venizelou Ave. - Georgiou Sourri,ElVe-GeSo,34.7810830285229,32.4327530708617,1533
1534,30257,Kykkos Lyceum,KykkoLyceu,34.7812257641736,32.4343587313171,1534
1535,30258,Citizen Service Centre 1,CitSerCen,34.7815972014321,32.4366732620444,1535
1536,30259,Elefth. Venizelou Ave. - Agias Eirinis,ElVe-AEi,34.7821382614456,32.438625987634,1536
1537,30260,Elefth. Venizelou Ave. - Agias Elenis,ElVe-AEl,34.7831123734508,32.4406304640879,1537
1539,30262,Anavargos Square - Ag. Georgios Church,AnSq-AGeCh,34.7941552299489,32.4517057432216,1539
1540,30263,8 Elementary School - Iordaneio 2,8ElSc-Io,34.7924143853649,32.447618143939,1540
1541,30265,Aristotelous Ave. - Oikonomou Dositheou,ArAv-OiDo,34.7897190286127,32.441886603103,1541
1542,30271,Vas. Konstantinou A` - Georgiou Nikolaou,VKoA-GeNi,34.786186463701,32.4365218289666,1542
1543,30278,Episkopi Pafos Square,EpiPafSqu,34.7955672532157,32.5259645572962,1543
1544,30279,Archiep. Makariou C` - Petrovounou 1,ArMaC-Pe,34.7932995323809,32.4828323106586,1544
1545,30280,Archiep. Makariou C` - Papailia Savva,ArMaC-PaS,34.7927193858311,32.4842460389438,1545
1547,30282,Archiep. Makariou C` - Agias Marinas,ArMaC-AMa,34.7908630449276,32.486684236926,1547
1548,30283,Archiep. Makariou C` - Petrovounou 2,ArMaC-Pe,34.7932363178242,32.4828108431023,1548
1549,30284,Andrea Chatzitheori - 1st Stop,AnCh-1sSt,34.795421773368,32.4814417016512,1549
1550,30285,Andrea Chatzitheori - 3rd Stop,AnCh-3rSt,34.7968239613047,32.4803725575943,1550
1551,30286,Armou Village Centre,ArmVilCen,34.7992659408914,32.4799527543174,1551
1552,30287,Andrea Chatzitheori - 2nd Stop,AnCh-2nSt,34.7950446730286,32.4818266602604,1552
1553,30288,Agiou Dimitrianou - 2nd Stop,AgDi-2nSt,34.7903014292739,32.4692750600092,1553
1554,30289,Aristeidi Tziamali - Nikita Chrysostomou,ArTz-NiCh,34.7886320571498,32.4608146137867,1554
1555,30290,Aristeidi Tziamali - Solomou,ArTz-So,34.7860228919969,32.4601211338414,1555
1556,30291,Agios Iakovos Church 2,AgiIakChu,34.7848538884574,32.4568060304513,1556
1557,30292,Konia Elementary School 2,KonEleSch,34.7854859127544,32.4549656329438,1557
1558,30293,Georgiou Griva Digeni - Archiep. Makariou C` Ave.,GeGDi-ArMa,34.7857797452883,32.4521218686761,1558
1559,30294,Archiep. Makariou C` Ave. - Vasilikon,ArMaC-Va,34.7847589412231,32.4457455085762,1559
1560,30295,Nikolaou Nikolaidi Ave. - Irodou Attikou,NiNi-IrAt,34.7802470641831,32.4333271206837,1560
1561,30296,Nikolaou Nikolaidi Ave. - Irakleous,NiNiAv-Ir,34.7791210185838,32.4316407899729,1561
1562,30297,Nikolaou Nikolaidi Ave. - Ioanni Kapodistria,NiNi-IoKa,34.7773063048461,32.429248857551,1562
1563,30298,Nikolaou Nikolaidi Ave. - Kinyra,NiNiAv-Ki,34.776451082706,32.4276372735884,1563
1564,30300,Nikolaou Nikolaidi Ave. - Charal. Mouskou,NiNi-ChMo,34.7764951415018,32.4274183917525,1564
1565,30301,Nik. Nikolaidi Ave. - Vasileos Georgiou,NNi-VaGe,34.7774872148762,32.4293678308319,1565
1566,30302,Nikolaou Nikolaidi Ave. - Dimitri Liperti,NiNi-DiLi,34.7790842348392,32.4314880331158,1566
1567,30303,Nikolaou Nikolaidi Ave. - Vasili Michailidi,NiNi-VaMi,34.780301066386,32.4333048926453,1567
1568,30304,Georgiou Griva Digeni - Keryneias,GeGrDi-Ke,34.7858694759613,32.4520229041395,1568
1569,30305,Konia Elementary School 1,KonEleSch,34.7854323958405,32.4550971458968,1569
1570,30306,Agios Iakovos Church 1,AgiIakChu,34.7848727034068,32.4569807871539,1570
1571,30307,Aristeidi Tziamali - Agias Annas,ArTz-AgAn,34.7861131140541,32.4601314761141,1571
1572,30308,Aristeidi Tziamali - Archiep. Makariou C` Ave.,ArTz-ArMaC,34.7887944663769,32.4608354178123,1572
1573,30309,Agiou Dimitrianou - 1st Stop,AgDi-1sSt,34.7904941753324,32.4700499086068,1573
1574,30310,Arminou ,Arminou ,34.8620429104563,32.7202659353307,1574
1575,30311,1st Stop Nikokleia,1stStoNik,34.7148778850996,32.5500035327636,1575
1576,30312,2nd Stop Nata 1,2ndStoNat,34.7800319259015,32.5702520031631,1576
1577,30313,Statos - Agios Fotios,St-AgFo,34.8839576750647,32.6211337134259,1577
1579,30315,Choulou Village Centre,ChoVilCen,34.8718663050513,32.5574107315993,1579
1580,30316,Mesogi Industrial Area - 4th Stop,MeInA-4S,34.8108027705444,32.4499445498068,1580
1581,30317,Mesogi Industrial Area - 2nd Stop,MeInA-2S,34.8085410696061,32.4483305428774,1581
1582,30318,1st Stop Lysos 2,1stStoLys,34.9941390029691,32.5117059832351,1582
1583,30319,1st Stop Episkopi Pafou,1sStEpPa,34.7913353912664,32.5206982219049,1583
1584,30321,Eleftherias Ave. - Kato Lakkou,ElAv-KaLa,34.8894875403912,32.4802057026765,1584
1586,30323,Agapinoros - Priamou,Aga-Pri,34.7693229416315,32.4191299202163,1586
1587,30324,Agapinoros - Iliados 2,Aga-Ili,34.7659862717803,32.4190986592019,1587
1588,30325,Poseidonos Ave. - 2nd Stop,PoAv-2nSt,34.7530875685078,32.4202597259428,1588
1592,30329,Agion Anargyron - Apost. Pavlou Ave.,AAn-ApPa,34.7632312005888,32.4143537342769,1592
1593,30330,Agapinoros - Pari,Aga-Par,34.7647118558041,32.4184847302595,1593
1594,30331,Poseidonos Ave. - 4th Stop,PoAv-4tSt,34.7494332722275,32.423606556002,1594
1595,30332,Apostolou Pavlou Ave. - Michail Kyprianou,ApPa-MiKy,34.772203943258,32.4181589703486,1595
1596,30333,Mitr. Nikodimou Mylona - Georgiou Christoforou,MNiMy-GeCh,34.7749310338644,32.418948549044,1596
1598,30335,Timi - Airport Road - 1st Stop,T-AiR-1S,34.7264712873635,32.5161687949069,1598
1599,30336,Timi - Airport Road - 3rd Stop,T-AiR-3S,34.711427542218,32.5111129239462,1599
1600,30337,Timi - Airport Road - 5th Stop,T-AiR-5S,34.7083760689602,32.5035633449959,1600
1601,30338,Timi - Airport Road - 7th Stop,T-AiR-7S,34.7074931199689,32.4971586733163,1601
1602,30339,Timi - Airport Road - 10th Stop,T-AiR-1S,34.7076189146822,32.4970487135434,1602
1603,30340,Timi - Airport Road - 8th Stop,T-AiR-8S,34.707456711141,32.4992664217665,1603
1604,30341,Timi - Airport Road - 6th Stop,T-AiR-6S,34.7086123481371,32.5040096529604,1604
1605,30342,Timi - Airport Road - 4th Stop,T-AiR-4S,34.7123132757592,32.5116100541374,1605
1606,30343,Timi - Airport Road - 1st Stop,T-AiR-1S,34.726669325853,32.5160802620385,1606
1607,30344,Ierokipion Ave. - 2nd Stop,IeAv-2ndS,34.746354471821,32.4461114127069,1607
1608,30345,Annabelle Hotel 2,AnnabHotel,34.7559877622616,32.4176390276514,1608
1652,30398,Mesogi Industrial Area - 3rd Stop,MeInA-3S,34.8109734073654,32.4497903476892,1652
1653,30399,Mesogis Ave. - Michalaki Karaoli,MeAv-MiKa,34.8160313398671,32.4515827204013,1653
1654,30404,1st Stop Koili,1stStoKoi,34.8550650005491,32.456880964412,1654
1655,30405,3rd Stop Koili,3rdStoKoi,34.8557668372353,32.4545243868841,1655
1656,30406,5th Stop Koili,5thStoKoi,34.8602841023463,32.452405032004,1656
1657,30407,Distrato Stroumpi - Kathikas,DiSt-Ka,34.8922398672409,32.4722975867896,1657
1658,30408,Theotokos Church,TheotChurc,34.8844696457864,32.381114179887,1658
1659,30409,Grigori Afxentiou Ave. - Zalakion,GrAfAv-Za,34.8849991741606,32.3788559120339,1659
1665,30415,Akamantos Ave. - Agiou Panteleimonos,AkAv-AgPa,34.8754787263179,32.3635431878039,1665
1666,30416,Akamantos Ave. - Agiopetras,AkAv-Ag,34.8744419377943,32.3601482849234,1666
1667,30420,Agiou Georgiou Ave. - 3rd Stop,AGe-3S,34.8809670080304,32.3492863899239,1667
1668,30421,Agiou Georgiou Ave. - 5th Stop,AGe-5S,34.8833976074531,32.3451636225243,1668
1669,30422,Agiou Georgiou Ave. - 7th Stop,AGe-7S,34.8908167554606,32.3364481065968,1669
1670,30423,Agiou Georgiou Ave. - 11th Stop,AGe-1S,34.8974528457771,32.3330237400012,1670
1671,30424,Agiou Georgiou Ave. - 13th Stop,AGe-1S,34.901451826389,32.3272560527518,1671
1672,30425,Agiou Georgiou Ave. - 17th Stop,AGe-1S,34.9028118558304,32.3221005697219,1672
1673,30426,Agiou Georgiou Ave. - 14th Stop,AGe-1S,34.9016580653657,32.3270464089833,1673
1674,30427,Agiou Georgiou Ave. - 12th Stop,AGe-1S,34.9005409902425,32.3288724270712,1674
1675,30428,Agiou Georgiou Ave. - 10th Stop,AGe-1S,34.8971837773478,32.3332885896569,1675
1676,30429,Agiou Georgiou Ave. - 6th Stop,AGe-6S,34.8831495485435,32.3459863094181,1676
1677,30430,Agiou Georgiou Ave. - 4th Stop,AGe-4S,34.8794264280098,32.3512353425688,1677
1678,30431,Agiou Georgiou Ave. - 2nd Stop,AGe-2S,34.8765723955716,32.3554704590252,1678
1679,30432,Akamantos Ave. - Agiou Georgiou Ave.,Ak-AGe,34.8744574950862,32.3596776677895,1679
1680,30433,Akamantos Ave. - Alamanos,AkAv-Al,34.8760967020824,32.3661863891691,1680
1685,30440,Grigori Afxentiou Ave. - Markou Drakou,GrAf-MaDr,34.8844912330312,32.3800415916662,1685
1686,30441,Pegeia Square 2,PegeiSquar,34.8841589461121,32.3820795005603,1686
1687,30450,Eleftherias Ave. - Charilaou Michail,ElAv-ChMi,34.8898567446617,32.4779817651117,1687
1688,30461,Vas. Stasioikou A` Ave. - Efesou,VStA-Ef,35.0329856467103,32.4252624441259,1688
1690,30463,Akamantos Ave. - 1st Stop,AkAv-1sSt,35.0340611792501,32.4107398281387,1690
1691,30464,Latsi Marina - Parking Place 2,LaMa-PaPl,35.0392809125707,32.3976335722363,1691
1692,30465,Agios Georgios Church 2,AgiGeoChu,35.0291477514104,32.41841588462,1692
1693,30466,Latsi Marina 1,LatsiMarin,35.0409081080837,32.3930277320431,1693
1694,30467,4th Stop Neo Chorio Pafou,4tStNeChPa,35.0373266866186,32.3749535308229,1694
1695,30468,Latsi - Loutra Afroditis Road - 2nd Stop,L-LoAfR-2S,35.0448512972956,32.3602038397623,1695
1696,30469,Anassa Hotel 2,AnassHotel,35.0426582543058,32.3701873663364,1696
1697,30472,Latsi Beach 2,LatsiBeach,35.0409334235562,32.3855172361646,1697
1698,30473,Latsi Marina 2,LatsiMarin,35.0411055467441,32.3928398841411,1698
1699,30474,Latsi Marina - Parking Place 1,LaMa-PaPl,35.0394684159612,32.3972594280966,1699
1700,30477,Marion - Arsinoe Archaeological Museum,Ma-ArArMu,35.0355783841778,32.4262748378922,1700
1701,30478,Vas. Stasioikou A` Ave. - 1st Stop,VStA-1S,35.0295858130422,32.419509027489,1701
1702,30479,3rd Stop Neo Chorio Pafou,3rStNeChPa,35.0373174438625,32.3749097473639,1702
1703,30480,8th Stop Neo Chorio Pafou,8tStNeChPa,35.0246436518078,32.3618959671685,1703
1704,30481,Agios Minas Church,AgMinasChu,35.0256179509724,32.3636971079285,1704
1705,30482,6th Stop Neo Chorio Pafou,6tStNeChPa,35.0298255382583,32.3630396405385,1705
1707,30484,2nd Stop Neo Chorio Pafou,2nStNeChPa,35.0383760813227,32.3773684956474,1707
1709,30490,Mariou Ave. - Salaminos,MaAv-Sa,35.0362170383334,32.4297676828205,1709
1710,30491,Polis Chrysochous Technical School 1,PoChTeSc,35.0383742767623,32.434072370329,1710
1711,30492,Mariou Ave. - 1st Stop,MaAv-1sSt,35.0404937223756,32.4380376612843,1711
1712,30494,Makounta,Makounta,35.051986203647,32.4773798343799,1712
1714,30507,Old Lemesos - Pafos Road - 1st Stop,OLe-PR-1S,34.7233747153902,32.5267592749869,1714
1715,30508,Old Lemesos - Pafos Road - 3rd Stop,OLe-PR-3S,34.7202521982316,32.5355142956288,1715
1716,30509,Old Lemesos - Pafos Road - 5th Stop,OLe-PR-5S,34.7180309322553,32.5418938045008,1716
1717,30510,Old Lemesos - Pafos Road - 7th Stop,OLe-PR-7S,34.7145815546232,32.5503436827246,1717
1718,30511,1st Stop Kouklia,1stStoKou,34.7097782426457,32.57380437448,1718
1719,30512,3rd Stop Kouklia,3rdStoKou,34.7084082918722,32.5766069216297,1719
1720,30513,1st Stop Archimandrita 1,1stStoArc,34.7498284953047,32.6772268649811,1720
1721,30514,1st Stop Archimandrita 2,1stStoArc,34.7498287269243,32.6773142680485,1721
1722,30515,6th Stop Kouklia,6thStoKou,34.7080098457893,32.5761284740003,1722
1723,30516,4th Stop Kouklia,4thStoKou,34.7097332309228,32.5738264457087,1723
1724,30517,2nd Stop Kouklia,2ndStoKou,34.7087515159226,32.5716037914574,1724
1725,30518,Old Lemesos - Pafos Road - 8th Stop,OLe-PR-8S,34.7156643184407,32.5480771869042,1725
1726,30519,Old Lemesos - Pafos Road - 6th Stop,OLe-PR-6S,34.7179496509145,32.5418614890538,1726
1727,30520,Old Lemesos - Pafos Road - 4th Stop,OLe-PR-4S,34.7199115700273,32.5360513537008,1727
1728,30521,Old Lemesos - Pafos Road - 2nd Stop,OLe-PR-2S,34.7232491484696,32.5269347413564,1728
1729,30522,1st Stop Nikokleia,1stStoNik,34.7250058161995,32.565174170509,1729
1730,30523,3rd Stop Nikokleia,3rdStoNik,34.7286437675433,32.5739041705657,1730
1731,30524,1st Stop Fasoula Pafou 1,1sStFaPa,34.7607052702548,32.6242545472603,1731
1732,30525,2nd Stop Fasoula Pafou 1,2nStFaPa,34.7612964947106,32.6259018433294,1732
1733,30526,1st Stop Mamonia,1stStoMam,34.7697493118779,32.6358847744959,1733
1734,30527,3rd Stop Agios Georgios Pafou,3rStAgGePa,34.7784946250147,32.6506336461233,1734
1735,30528,5th Stop Agios Georgios Pafou,5tStAgGePa,34.7781431306114,32.6538592469829,1735
1736,30529,1st Stop Prastio Pafou,1sStPrPa,34.7909975869484,32.6923698346011,1736
1737,30530,1st Stop Kedares,1stStoKed,34.8358011896072,32.7362241096536,1737
1738,30531,3rd Stop Kedares,3rdStoKed,34.8385131784085,32.7351545487859,1738
1739,30532,Filousa Kelokedaron,FilouKelok,34.852244605073,32.7424178329267,1739
1740,30533,1st Stop Praitori 1,1stStoPra,34.8479835384097,32.7444437907787,1740
1741,30534,2nd Stop Praitori 1,2ndStoPra,34.8488084641866,32.7465086331167,1741
1744,30538,4th Stop Kedares,4thStoKed,34.8386127051212,32.7353073512941,1744
1745,30539,2nd Stop Kedares,2ndStoKed,34.8362435256002,32.7364414372159,1745
1746,30540,Kidasi 2,Kidasi,34.8074320943993,32.7125568835295,1746
1747,30541,2nd Stop Prastio Pafou,2nStPrPa,34.7908081616303,32.6923486762344,1747
1748,30542,6th Stop Agios Georgios Pafou,6tStAgGePa,34.7779682784098,32.6526249782207,1748
1749,30543,4th Stop Agios Georgios Pafou,4tStAgGePa,34.7783674999883,32.6503281631092,1749
1750,30544,2nd Stop Agios Georgios Pafou,2nStAgGePa,34.7776322598271,32.6486591052998,1750
1751,30545,6th Stop Mamonia,6thStoMam,34.7708527255374,32.6400108068406,1751
1752,30546,4th Stop Mamonia,4thStoMam,34.7707115969705,32.6380334096456,1752
1753,30547,2nd Stop Mamonia,2ndStoMam,34.7696955003631,32.6359833637058,1753
1754,30548,6th Stop Nikokleia,6thStoNik,34.7290781399141,32.5769275349142,1754
1755,30549,4th Stop Nikokleia,4thStoNik,34.7287888893388,32.5741437248286,1755
1756,30550,2nd Stop Nikokleia,2ndStoNik,34.7247440721692,32.5651100081595,1756
1757,30551,Nikokleia - Choletria Road - 1st Stop,Ni-ChR-1S,34.7322841975883,32.5731208674112,1757
1758,30552,1st Stop Choletria,1stStoCho,34.7619660079989,32.5982861231834,1758
1759,30553,3rd Stop Choletria,3rdStoCho,34.7625071698042,32.6010589935626,1759
1760,30554,5th Stop Choletria,5thStoCho,34.7647544061165,32.601616408464,1760
1761,30555,1st Stop Stavrokonnou,1stStoSta,34.7850617771756,32.6183511664563,1761
1762,30556,Stavrokonnou - Kelokedara Road - 2nd Stop,St-KeR-2S,34.7932842056882,32.6476963696643,1762
1763,30557,1st Stop Kelokedara,1stStoKel,34.8081080145647,32.6503884566345,1763
1764,30558,3rd Stop Kelokedara,3rdStoKel,34.811058763919,32.6510757424539,1764
1765,30559,1st Stop Salamiou,1stStoSal,34.8374922670005,32.6886533640849,1765
1766,30560,4th Stop Salamiou,4thStoSal,34.8400817576435,32.6892123595583,1766
1767,30561,Salamiou Sport Field 1,SalSpoFie,34.8416935593252,32.6918313315053,1767
1768,30562,Mesana 2,Mesana,34.8486106754193,32.7066600894271,1768
1769,30563,Salamiou Sport Field 2,SalSpoFie,34.8409447703653,32.6917028719496,1769
1770,30564,3rd Stop Salamiou,3rdStoSal,34.8400816458595,32.689168610329,1770
1771,30565,2nd Stop Salamiou,2ndStoSal,34.8374020915024,32.6886537035917,1771
1772,30566,2nd Stop Kelokedara,2ndStoKel,34.8105186193327,32.6513950904633,1772
1773,30567,4th Stop Kelokedara,4thStoKel,34.8126742742626,32.6547098796762,1773
1774,30568,Stavrokonnou - Kelokedara Road - 1st Stop,St-KeR-1S,34.7932842373276,32.6477073007429,1774
1775,30569,4th Stop Stavrokonnou,4thStoSta,34.7851871675828,32.6209628906135,1775
1776,30570,2nd Stop Stavrokonnou,2ndStoSta,34.7847068324361,32.6173144448389,1776
1777,30571,6th Stop Choletria,6thStoCho,34.7647725127653,32.6016381763374,1777
1778,30572,4th Stop Choletria,4thStoCho,34.7624275859039,32.6015401698544,1778
1779,30573,2nd Stop Choletria,2ndStoCho,34.7620835968913,32.5983948243398,1779
1780,30574,1st Stop Skoulli,1stStoSko,34.9809229157666,32.4512525089997,1780
1781,30575,1st Stop Agios Ioannis Pafou 2,1sStAgIoPa,34.8674746413681,32.6917242400613,1781
1782,30577,Trachypedoula,Trachypedo,34.8005036902177,32.6789644675127,1782
1783,30581,2nd Stop Agia Varvara Pafou 1,2nStAgVaPa,34.7492337570584,32.5098414249371,1783
1784,30582,3rd Stop Agia Varvara Pafou 1,3rStAgVaPa,34.7508596800112,32.5127707925452,1784
1785,30583,Eledio Community Board 1,EleComBoa,34.8090596143535,32.567663251011,1785
1786,30584,1st Stop Amargeti 1,1stStoAma,34.8224335293705,32.583394500534,1786
1787,30585,Amargeti Village Centre,AmaVilCen,34.8241334050484,32.5820955807915,1787
1788,30586,Agia Marina Kelokedaron 1,AgiMarKel,34.8291623734139,32.6139812209324,1788
1789,30587,1st Stop Koilineia 2,1stStoKoi,34.8823875725631,32.6325435140982,1789
1790,30588,1st Stop Galataria 2,1stStoGal,34.8770185224325,32.6313528151706,1790
1791,30589,Pentalia 1,Pentalia,34.8560831059335,32.6207255178657,1791
1792,30590,Axylou 2,Axylou,34.8054996639434,32.5631775327644,1792
1795,30593,Archiep. Makariou C` Ave. - Teratsou,ArMaC-Te,34.8407984637966,32.4689511405419,1795
1796,30594,1st Stop Stroumpi,1stStoStr,34.8769718777316,32.482461998289,1796
1797,30595,Archiep. Makariou C` - Evag. Pallikaridi,ArMaC-EPa,34.88572401791,32.5075878125535,1797
1798,30596,Polemi High School,PolHigSch,34.8891880751171,32.5146478066206,1798
1799,30597,1st Stop Psathi,1stStoPsa,34.8980256994353,32.5285178794268,1799
1800,30598,3rd Stop Psathi,3rdStoPsa,34.8991654681379,32.5317730259857,1800
1801,30599,3rd Stop Agios Dimitrianos,3rStAgDi,34.9069010374602,32.5505018491554,1801
1802,30600,1st Stop Kannaviou,1stStoKan,34.9134646425445,32.5726886488285,1802
1803,30601,3rd Stop Kannaviou,3rdStoKan,34.9159609863451,32.574832353555,1803
1804,30603,1st Stop Asprogia 1,1sStAspr,34.9228654852783,32.6145173436492,1804
1805,30604,1st Stop Miliou 2,1stStoMil,34.934908387279,32.4697687832971,1805
1806,30605,Archiep. Makariou C` - Filippou Nathanail,ArMaC-FiNa,34.919662696962,32.6314468770339,1806
1807,30606,Archiep. Makarios Cultural Centre 1,ArMaCuCe,34.920135359211,32.6297149800756,1807
1808,30607,2nd Stop Panagia,2ndStoPan,34.9210784520937,32.6255504571162,1808
1809,30608,4th Stop Kannaviou,4thStoKan,34.9159888806687,32.5750730530311,1809
1810,30609,2nd Stop Kannaviou,2ndStoKan,34.913908491389,32.5732556003818,1810
1811,30610,2nd Stop Agios Dimitrianos 2,2nStAgDi,34.9059919083856,32.5509446469007,1811
1812,30611,1st Stop Agios Dimitrianos 2,1sStAgDi,34.9045619492612,32.5495404112464,1812
1813,30612,Pafos Airport,PafosAirpo,34.7114810421567,32.4889879499105,1813
1814,30613,Polemi Elementary School,PolEleSch,34.8891879877296,32.5146259194643,1814
1815,30614,Archiep. Makariou C` - Evag. Pallikaridi,ArMaC-EPa,34.8856775569908,32.5072488453747,1815
1816,30615,Archiep. Makariou C` - Mitr. Kleopa Pafou,ArMaC-MKlP,34.88420991593,32.5055723577735,1816
1818,30618,Milia Pafou,MiliaPafou,34.9196280716689,32.5393641505576,1818
1822,30622,2nd Stop Drymou,2ndStoDry,34.9310879204512,32.5113243769579,1822
1823,30623,Simou Elementary School,SimEleSch,34.9406047399548,32.5077089640128,1823
1824,30624,2nd Stop Simou,2ndStoSim,34.9412320059007,32.504518549875,1824
1830,30630,1st Stop Choulou 2,1stStoCho,34.8683967331528,32.5555365125759,1830
1831,30631,1st Stop Lemona 2,1stStoLem,34.8650185357141,32.55646276326,1831
1832,30632,2nd Stop Lemona,2ndStoLem,34.8630846214573,32.557796934313,1832
1833,30633,6th Stop Letymvou,6thStoLet,34.8529162493844,32.5183395255238,1833
1834,30634,4th Stop Letymvou,4thStoLet,34.8548520868414,32.5153308784064,1834
1835,30635,Letymvou Village Centre 2,LetVilCen,34.8567017063806,32.5133290357898,1835
1836,30636,1st Stop Letymvou,1stStoLet,34.8579114886601,32.5091976479585,1836
1837,30637,kallepeia Village Center - Agios Georgios Church,kaViCe-AGe,34.8464153376903,32.5006357005157,1837
1838,30638,1st Stop Kalepeia,1stStoKal,34.8455152897428,32.4988582365173,1838
1839,30641,Archiep. Makariou C` Ave. - Gerolakkou Ave.,ArMaC-Ge,34.8409790005802,32.4689937307068,1839
1840,30642,Akoursos ,Akoursos ,34.8867874255187,32.4214562282575,1840
1841,30645,2nd Stop Psathi,2ndStoPsa,34.8977769898162,32.5294934040637,1841
1842,30647,Androlikou,Androlikou,34.9985234276895,32.3815826293706,1842
1843,30650,Meladeia,Meladeia,34.9902784900371,32.506973454571,1843
1844,30651,Filousa Chrysochous,FilouChrys,34.9742468898792,32.505064754071,1844
1845,30652,6th Stop Peristerona Pafou,6tStPePa,34.990033784464,32.4913718228357,1845
1846,30653,2nd Stop Peristerona Pafou,2nStPePa,34.9884254632465,32.4863196315869,1846
1847,30654,3rd Stop Steni,3rdStoSte,34.9944464405188,32.4751707946873,1847
1848,30655,Museum of Village Life,MuofViLi,34.9965910262036,32.4727353649425,1848
1849,30656,1st Stop Peristerona Pafou,1sStPePa,34.9902791998979,32.4875462211721,1849
1850,30657,3rd Stop Peristerona Pafou,3rStPePa,34.9904024260824,32.488969898956,1850
1851,30660,Eleftherias Ave. - Agias Sofias Square,El-ASoSq,34.8843385983535,32.482328272277,1851
1852,30665,Eleftherias Ave. - 25 Martiou,ElAv-25Ma,34.8903430170384,32.4778254738778,1852
1853,30666,Eleftherias Ave. - Foti Pitta,ElAv-FoPi,34.8879233090515,32.4813318057974,1853
1854,30667,Tsada Square,TsadaSquar,34.8385972093865,32.4749588137102,1854
1855,30668,Grigori Afxentiou Ave. - Agiou Konstantinou,GrAf-AKo,34.8369851881292,32.4754502722784,1855
1856,30669,2nd Stop Kalepeia,2ndStoKal,34.8472346220129,32.4981258878109,1856
1857,30671,Kallepeia Comm. Board - Folk Art Museum,KaCB-FAMu,34.8509787121365,32.4942089550438,1857
1858,30680,Mariou Ave. - 3rd Stop,MaAv-3rSt,35.0519443243067,32.4495606921791,1858
1861,30690,1st Stop Gialia,1stStoGia,35.1026881555698,32.5026876762975,1861
1862,30692,1st Stop Agia Marina Chrysochous,1sStAgMaCh,35.1081923978164,32.5058144734,1862
1863,30693,3rd Stop Agia Marina Chrysochous,3rStAgMaCh,35.1112937351184,32.5078916784197,1863
1864,30694,5th Stop Agia Marina Chrysochous,5tStAgMaCh,35.1153235151472,32.5098976367512,1864
1865,30695,Agia Marina Church 1,AgiMarChu,35.1197553019155,32.5132183425455,1865
1867,30697,2nd Stop Nea Dimmata,2nStNeDi,35.1360442671937,32.5210137033094,1867
1868,30698,1st Stop Pomos,1stStoPom,35.1579314980675,32.5427131213147,1868
1870,30700,8th Stop Pomos,8thStoPom,35.1681343634936,32.5487285563906,1870
1871,30701,1st Stop Pachyammos 1,1stStoPac,35.1711671751453,32.5796577084854,1871
1872,30702,Pomos Cultural Centre,PomCulCen,35.162076430448,32.546730667051,1872
1873,30703,4th Stop Pomos,4thStoPom,35.1598955715471,32.5446675474531,1873
1874,30705,10th Stop Agia Marina Chrysochous,10StAgMaCh,35.1230739705824,32.5155582303574,1874
1875,30706,Agia Marina Church 2,AgiMarChu,35.1201082401399,32.513534507291,1875
1876,30707,6th Stop Agia Marina Chrysochous,6tStAgMaCh,35.1150256899284,32.5098335765322,1876
1877,30708,4th Stop Agia Marina Chrysochous,4tStAgMaCh,35.1110679997176,32.507816221612,1877
1878,30709,2nd Stop Gialia,2ndStoGia,35.1038911867741,32.503602055262,1878
1879,30710,Argaka Seaside Road - 10th Stop,ArSeR-1S,35.0757335721694,32.4806506831628,1879
1880,30711,Argaka Seaside Road - 4thStop,ArSeRo-4t,35.0693893944989,32.4731998577449,1880
1881,30712,Argaka Seaside Road - 2nd Stop,ArSeR-2S,35.0671217791684,32.4701435254988,1881
1882,30713,Mariou Ave. - 4th Stop,MaAv-4tSt,35.0518630225227,32.4495283413292,1882
1883,30714,Mariou Ave. - 2nd Stop,MaAv-2nSt,35.040312774026,32.4379073334417,1883
1884,30715,Polis Chrysochous Technical School 2,PoChTeSc,35.0379487924421,32.4337135057288,1884
1885,30717,2nd Stop Skoulli,2ndStoSko,34.9837070414997,32.4527568676632,1885
1886,30718,4th Stop Giolou,4thStoGio,34.9213954957741,32.4769829172677,1886
1887,30719,2nd Stop Giolou,2ndStoGio,34.9201118835169,32.4741664985861,1887
1888,30722,1st Stop Giolou,1stStoGio,34.9199431699347,32.4726896092335,1888
1889,30723,3rd Stop Giolou,3rdStoGio,34.921403900298,32.4768405387943,1889
1890,30724,1st Stop Goudi,1stStoGou,34.9875249313606,32.4515481195813,1890
1891,30725,4th Stop Chrysochou,4thStoChr,35.0042948807179,32.4392168281161,1891
1892,30726,Ayii Anargyri Spa Resort 1,AyAnSpRe,34.9362591728908,32.4652377169486,1892
1893,30727,2nd Stop Miliou 2,2ndStoMil,34.9392689402551,32.4606956428139,1893
1894,30728,Pano Akourdaleia,PanoAkour,34.943435083875,32.4466839370099,1894
1895,30729,Kato Akourdaleia 1,KatoAkour,34.9525538573664,32.4511459300653,1895
1896,30730,Choli 2,Choli,34.9794025610164,32.4441085241939,1896
1897,30731,Goudi Square 2,GoudiSquar,34.9916262568191,32.4413194117711,1897
1898,30732,5th Stop Chrysochou 2,5thStoChr,35.0029437209996,32.4414835848064,1898
1900,30734,Kouklia Archaeological Site 2,KouArcSit,34.7053858184458,32.5735866707506,1900
1901,30735,Old Lemesos - Pafos Road - 9th Stop 2,OLe-PR-9S,34.7007239699559,32.5736870211811,1901
1902,30736,Old Lemesos - Pafos Road - 13th Stop,OLe-PR-1S,34.673811794653,32.6077065696775,1902
1903,30737,Old Lemesos - Pafos Road - 11th Stop,OLe-PR-1S,34.6861793422567,32.5844494186138,1903
1904,30738,Old Lemesos - Pafos Road - 16th Stop,OLe-PR-1S,34.6757533875034,32.6057653307469,1904
1905,30739,Old Lemesos - Pafos Road - 14th Stop,OLe-PR-1S,34.6861787093738,32.5842638313027,1905
1906,30740,Old Lemesos - Pafos Road - 12th Stop,OLe-PR-1S,34.6949113509229,32.577385354537,1906
1907,30743,Stratigou Alex. Papagou - Andrea Theodosiou,StAPa-AnTh,34.7805052184714,32.4423639813234,1907
1908,30744,Stratigou Alex. Papagou - Karpathou,StAlPa-Ka,34.7784230571842,32.4405965413216,1908
1909,30745,Stratigou Alex. Papagou - Onisilou,StAlPa-On,34.7759210302692,32.4377391512751,1909
1910,30748,Pafos District Courthouse 2,PafDisCou,34.7748898009398,32.4273748382485,1910
1911,30749,7 Elementary School - Agios Kendeas 2,7ElSc-AKe,34.7766990894467,32.4247721878265,1911
1912,30750,Petra tou Romiou ,Petra tou ,34.6653628237004,32.6280907854719,1912
1913,30751,Agioi Anargyroi Church 2,AgiAnaChu,34.761424325451,32.4174150954836,1913
1914,30752,Ikarou - Pyrgotelou,Ika-Pyr,34.7597724978887,32.4189673594908,1914
1915,30753,Iasonos - Nestoros,Ias-Nes,34.7572519404518,32.4217821597267,1915
1916,30754,Iasonos - Apollonos,Ias-Apo,34.757215196541,32.4216403735434,1916
1917,30755,Ikarou - Defkalionos,Ika-Def,34.7599586796567,32.4182995268277,1917
1918,30756,Agioi Anargyroi Church 1,AgiAnaChu,34.7614234888624,32.4172402711978,1918
1919,30757,Kings Avenue Mall 1,KinAveMal,34.7653958302467,32.4144367924237,1919
1920,30758,Apostolou Pavlou Ave. - Charal. Filippidi,ApPa-ChFi,34.7684089834858,32.4165792170559,1920
1921,30759,Apostolou Pavlou Ave. - Kyr. Konstantinou,ApPa-KKo,34.7694763761491,32.417271094156,1921
1922,30760,Evagora Pallikaridi - Charalambou Mouskou 1,EvPal-ChMo,34.7764438747649,32.4222931057247,1922
1923,30762,Tera,Tera,34.9654171835885,32.4229524120918,1923
1924,30763,Kritou Tera,KritoTera,34.9561876468358,32.4219437478678,1924
1925,30764,Agios Epifanios Church 2,AgiEpiChu,34.9626345805549,32.3977240401473,1925
1927,30766,1st Stop Drouseia 1,1stStoDro,34.9605212289606,32.3988786401393,1927
1928,30767,2nd Stop Drouseia 2,2ndStoDro,34.9578733324039,32.3977041111562,1928
1929,30768,1st Stop Ineia 2,1stStoIne,34.9565434049023,32.3950085222236,1929
1930,30769,Ineia Square 1,IneiaSquar,34.9557426444783,32.3935577108979,1930
1931,30770,Kato Arodes 2,KatoArode,34.9406186283693,32.4022652868445,1931
1932,30771,Pano Arodes 1,PanoArode,34.9361625821116,32.4074879184775,1932
1933,30772,Kathikas Square,KathiSquar,34.9124170533641,32.4256990055517,1933
1934,30773,1st Stop Kathikas 1,1stStoKat,34.9132666274406,32.4261090737599,1934
1935,30774,2nd Stop Theletra,2ndStoThe,34.909478466511,32.4473278200862,1935
1936,30829,Archiep. Makariou C` Ave. - Paliovikla,ArMaC-Pa,35.0674629547657,32.4739470622687,1936
1937,30830,Archiep. Makariou C` Ave. - Souliou,ArMaC-So,35.0685658849443,32.4808825433185,1937
1938,30831,Archiep. Makariou C` Ave. - 28 Oktovriou,ArMaC-2Ok,35.0668357452389,32.4875178548699,1938
1939,30832,Apost. Petros and Pavlos Church,ApPeanPaCh,35.0672954363328,32.491759420749,1939
1940,30833,Steliou Kachi - Alexandrou Ypsilanti,StKa-AlYp,35.0663394236773,32.4938710909203,1940
1941,30834,Argaka Elementary School,ArgEleSch,35.065724255578,32.4890931305753,1941
1942,30848,2nd Stop Amargeti,2ndStoAma,34.8199437718237,32.5831336681135,1942
1946,30854,7th Stop Letymvou 1,7thStoLet,34.8563210929066,32.5406690558807,1946
1947,30855,Gerolakkou Ave. - Zinonos 1,GeAv-Ak,34.8334438921123,32.4781521587959,1947
1948,30856,Gerolakkou Ave. - Agiou Konstantinou 2,GeAv-AgKo,34.8350890530977,32.4748826568078,1948
1949,30857,Gerolakkou Avenue - Klimaka 2,GeAv-Kl,34.8361473755332,32.4735525855467,1949
1950,30858,3rd Stop Skoulli,3rdStoSko,34.9841491239898,32.4528087081713,1950
1951,30859,1st Stop Pelathousa 1,1stStoPel,35.0287394473763,32.4752257460254,1951
1952,30860,Panagia Chrysolakourna Monastery,PanChrMon,34.9983461622612,32.4719898992262,1952
1953,30861,2nd Stop Steni,2ndStoSte,35.0002916832331,32.4694130931352,1953
1954,30862,1st Stop Steni,1stStoSte,35.0023640120721,32.4669778073185,1954
1955,30864,Konstantinoupoleos - 1st Stop,Ko-1sSt,35.0304139356557,32.4287007709454,1955
1956,30865,Polis Chrysochous Police Station,PoChPoSt,35.0293089250468,32.4295744917945,1956
1957,30866,Anassa Hotel 1,AnassHotel,35.0425115937806,32.3697279975569,1957
1958,30867,Latsi - Loutra Afroditis Road - 1st Stop,L-LoAfR-1S,35.0445818335208,32.3604033003463,1958
1959,30868,1st Stop Neo Chorio Pafou,1sStNeChPa,35.0382952671989,32.3774348902635,1959
1960,30869,Polis Municipal Beach,PolMunBea,35.0390844157875,32.4016586975734,1960
1961,30870,Akamantos Ave. - 2nd Stop,AkAv-2nSt,35.0346971710619,32.4098691750489,1961
1962,30871,Agios Georgios Church 1,AgiGeoChu,35.0290661786874,32.4183287633213,1962
1964,30873,Eleftherias Ave. - Toxara,ElAv-To,34.8833846333698,32.482771976348,1964
1965,30874,Agios Rafail Church 2,AgiRafChu,35.1710390088406,32.5843255082644,1965
1969,30884,Alexandrou Ypsilanti - Dim. Zinieri,AlYp-DiZi,34.7877483055812,32.4291659999665,1969
1974,30898,Aphrodite Hills,AphroHills,34.6830939284883,32.6085688807181,1974
1975,30907,Pafos District Courthouse 1,PafDisCou,34.7745233269912,32.4280658729993,1975
1976,30908,Christodoulou Sozou - Charal. Kalaitzi,ChSo-ChKa,34.7678072573858,32.4342973049868,1976
1977,30909,Christodoulou Sozou - Peiraios,ChSo-Pe,34.7646156760405,32.436384342992,1977
1978,30910,Priamou - Alamanas,Pri-Ala,34.7674703736275,32.4201919572642,1978
1979,30912,Sotiraki Markidi - Agiou Fotiou,SoMa-AgFo,34.7627469593209,32.4243772691076,1979
1980,30913,Nikou Nikolaidi - Solomou Solomou,NiNi-SoSo,34.7636855687396,32.4283701049403,1980
1981,30914,Georgiou Ioannidi - Angelikis Paschalidou,GeIo-AnPa,34.7621301809083,32.4293642554657,1981
1982,30915,Taxiarchon Ave. - Agiou Panaretou,TaAv-AgPa,34.7595954354033,32.4291959433403,1982
1983,30916,Taxiarchon Ave. - Giannou Kranidioti,TaAv-GiKr,34.7616374092583,32.433913246266,1983
1984,30917,Christodoulou Sozou - Thessalias,ChSo-Th,34.7644531613393,32.4363417384367,1984
1985,30918,Christodoulou Sozou - Trikalon,ChSo-Tr,34.7679507732214,32.4341324094014,1985
1986,30923,Agios Spiridonas Church 1,AgiSpiChu,34.7618279572398,32.4439538153386,1986
1989,30928,Agios Spiridonas Church 2,AgiSpiChu,34.7619557966563,32.4443026212951,1989
1991,31100,Agion Anargyron - Agiou Ilarionos,AgAn-AgIl,34.7614470062175,32.4202777811507,1991
1992,31101,Agion Anargyron - Sotiraki Markidi,AgAn-SoMa,34.7608265783401,32.4206536297348,1992
1993,31102,Agion Anargyron - Melinas Merkouri,AgAn-MeMe,34.75818258315,32.4240702287492,1993
1994,31103,Agion Anargyron - Palaipafou,AgAn-Pa,34.7584861738582,32.4234343834515,1994
1995,31104,Spyrou Kyprianou Ave. - Evropis Ave.,SpKy-Ev,34.7551949661896,32.4253911755299,1995
1996,31105,Spyrou Kyprianou Ave. - Melinas Merkouri,SpKy-MeMe,34.7554722862485,32.4249194318609,1996
1997,31106,Geroskipou Beach 1,GerosBeach,34.7356840661664,32.4475480613471,1997
1998,31107,Geroskipou Beach 2,GerosBeach,34.7360280045527,32.4458416968863,1998
1999,31108,Geroskipou Municipal Stadium 1,GerMunSta,34.7449464921308,32.4418929395083,1999
2000,31109,Geroskipou Municipal Stadium 2,GerMunSta,34.7451363078701,32.441989985651,2000
2001,31110,Stratigou Alex. Papagou - Georg. Karaiskaki,StAPa-GeKa,34.7719086753291,32.4339523975073,2001
2002,31111,Stratigou Alex. Papagou - Kritis,StAlPa-Kr,34.7719002168216,32.434072666316,2002
2003,31112,Stratigou Alex. Papagou - Ampelokipon,StAlPa-Am,34.7743244725779,32.4356954048159,2003
2004,31113,Stratigou Alex. Papagou - Evzonon,StAlPa-Ev,34.7743159110939,32.4357938204752,2004
2011,30233,Evag. Pallikaridi - Andrea Charalampous,EvPa-AnCh,34.8025494674187,32.4072212234686,2011
2012,30228,Eleftherias Ave. - Agiou Nikolaou,ElAv-AgNi,34.7934737984748,32.4138448462649,2012
2013,30236,Agiou Stefanou - Agias Marinas,AgSt-AgMa,34.8081996969442,32.4101545573661,2013
5269,11008,Pissouri Police Station 2,PisPolSta,34.6760011056743,32.698952180794,5269
5270,11009,Apostolou Andreou - 2nd Pissouri 1,ApAn-2nPi,34.6716080072399,32.7020570838771,5270
5271,11010,Apostolou Andreou - 3rd Pissouri 2,ApAn-3rPi,34.6697739161451,32.7006447029015,5271
5272,11011,Pissouri Community Stadium 2,PisComSta,34.6667109588667,32.6982545127373,5272
5549,30002,Paphos Harbour Station,PapHarbSta,34.7565660916918,32.408533407359,5549
5550,30062,Coral Bay,CoralBay,34.8582765056372,32.3606891964891,5550
5551,30090,Apostolou Pavlou Ave. - Agias Solomonis,ApPa-ASo,34.761237439771,32.4123026383695,5551
5552,30091,Apostolou Pavlou Ave. - Pafias Afroditis,ApPa-PaAf,34.7595872171301,32.4123034058985,5552
5553,30205,Agiou Georgiou Ave. - Exakamarou,AgGeAv-Ex,34.8525794097797,32.3819984754014,5553
5554,30206,Potima Bay 2,PotimBay,34.8443988822341,32.3870144658865,5554
5555,30207,Potima Beach 2,PotimBeach,34.8346019742066,32.391625747483,5555
5556,30244,Potima Beach 1,PotimBeach,34.834897790369,32.3912736012458,5556
5557,30245,Potima Bay 1,PotimBay,34.8433273835853,32.3873286654879,5557
5558,30246,Agiou Georgiou Ave. - Kolpou Korallion Ave.,AGe-KoKo,34.8529009680204,32.3813944290777,5558
5559,30326,Apostolou Pavlou Ave. - Kyriakou Nikolaou,ApPa-KyNi,34.7575386492987,32.4119792043889,5559
5560,30327,Apostolou Pavlou Ave. - Ploutarchou,ApPaAv-Pl,34.7607139077368,32.4121970805582,5560
5561,30328,Apostolou Pavlou Ave. - Agiou Lamprianou,ApPa-ALa,34.7617149885542,32.4122227656401,5561
5562,30346,Tafoi Ton Vasileon - Chandrinou,TaToVa-Ch,34.7655673754091,32.4107421102745,5562
5564,30349,Tombs of the Kings 1,ToofthKi,34.7765976565334,32.407385036319,5564
5565,30351,Venus Beach Hotel 1,VenBeaHot,34.7810714691149,32.4057573421658,5565
5566,30353,Tafoi Ton Vasileon - Pinelopis Delta 1,TTVa-PiD,34.7853180197523,32.4056066568535,5566
5567,30354,Agiou Georgiou Ave. - Marathonos Ave. 1,AGe-Ma,34.7887861157639,32.4030131110923,5567
5568,30355,Agiou Georgiou Ave. - Plataion 1,AgGeAv-Pl,34.795522971688,32.401324850441,5568
5569,30356,Agiou Georgiou Ave. - Dimma,AgGeAv-Di,34.7976661720806,32.4007190485059,5569
5570,30357,Agiou Georgiou Ave. - ,AgGeAv-,34.8010224900722,32.3992517226339,5570
5571,30358,Agiou Georgiou Ave. - Georgiou Griva Digeni 1,AGe-GeGDi,34.805457011529,32.3970002130471,5571
5572,30359,Azia Hotel,AziaHotel,34.8080069361062,32.3965880514982,5572
5573,30360,Agiou Georgiou Ave. - Tremithos 1,AgGeAv-Tr,34.8105019950221,32.3960231967523,5573
5574,30361,Agiou Georgiou Ave. - Krasari 1,AgGeAv-Kr,34.8219747933525,32.3928995711895,5574
5575,30362,Agiou Georgiou Ave. - Mosfilion 1,AgGeAv-Mo,34.8251911481529,32.3923182703755,5575
5576,30363,Agiou Georgiou Ave. - Pente Litharion,AGe-PLi,34.8268771991067,32.3922730789018,5576
5577,30364,Agiou Georgiou Ave. - Myloudiou,AgGeAv-My,34.8293292187335,32.3921238347088,5577
5578,30365,Kolpou Korallion Ave. - Agiou Georgiou Ave. 1,KoKo-AGe,34.8536843329906,32.379397659303,5578
5579,30366,Kolpou Korallion Ave. - Lysis,KoKoAv-Ly,34.8535037194916,32.3758219564181,5579
5580,30367,Coral Bay Beach 1,CorBayBea,34.8549339191882,32.3698821052966,5580
5581,30368,Coral Beach Hotel 1,CorBeaHot,34.8568704424549,32.364255397387,5581
5582,30369,Pegeia Olympic Swimming Pool,PeOlSwPo,34.8589696739288,32.3621825763719,5582
5583,30370,Coral Beach Hotel 2,CorBeaHot,34.8573834446953,32.3640654786388,5583
5584,30371,Coral Bay Beach 2,CorBayBea,34.8547120034302,32.3705620261294,5584
5585,30372,Kolpou Korallion Ave. - Trikomou,KoKoAv-Tr,34.8536343351561,32.3766742146693,5585
5586,30373,Kolpou Korallion Ave. - Agiou Georgiou Ave. 2,KoKo-AGe,34.8537835772232,32.3794078530934,5586
5587,30374,Agiou Georgiou Ave. - Mpananies,AgGeAv-Mp,34.8262107462232,32.3924420060286,5587
5588,30375,Agiou Georgiou Ave. - Mosfilion 2,AgGeAv-Mo,34.8246689154845,32.3924751992581,5588
5589,30376,Agiou Georgiou Ave. - Krasari 2,AgGeAv-Kr,34.821661809168,32.3934267389107,5589
5590,30377,Agiou Georgiou Ave. - Tremithos 2,AgGeAv-Tr,34.811071707447,32.3963470424489,5590
5591,30378,Agiou Georgiou Ave. - Georgiou Griva Digeni 2,AGe-GeGDi,34.8052598781162,32.3972530998576,5591
5592,30379,Agiou Georgiou Ave. - Ellados,AgGeAv-El,34.8010952215192,32.3993714481375,5592
5593,30380,Agiou Georgiou Ave. - Nikolaou Pentara,AGe-NiPe,34.7975859855538,32.4009163983342,5593
5594,30381,Agiou Georgiou Ave. - Plataion 2,AgGeAv-Pl,34.7950469385855,32.4017108871367,5594
5595,30382,Agiou Georgiou Ave. - Marathonos Ave. 2,AGe-Ma,34.7890563120282,32.4029455808908,5595
5596,30383,Tafoi Ton Vasileon - Pinelopis Delta 2,TTVa-PiD,34.7863274205851,32.4054901137154,5596
5597,30384,Venus Beach Hotel 2,VenBeaHot,34.781099374451,32.4059320135991,5597
5598,30386,Tafoi Ton Vasileon - Morfou,TaToVa-Mo,34.7767966220426,32.4075038316405,5598
5599,30387,Tombs of the Kings 2,ToofthKi,34.7741885130192,32.4089431881183,5599
5601,30390,Tafoi Ton Vasileon - Angelou Sikelianou,TTVa-AnSi,34.7662613381543,32.4106606857937,5601
7072,11500,Pissouri Beach,PissoBeach,34.6512318217818,32.7229948138307,7072
7073,30061,Stelios Kyriakides Stadium,SteKyrSta,34.7692365888427,32.4411393633762,7073
7075,30616,2nd Stop Stroumpi,2ndStoStr,34.8772072111481,32.4826684256222,7075
7077,30746,Anexartisias Ave. - Eptanisou,AnAv-Ep,34.7743891925316,32.4379899717632,7077
7078,30747,Dimokratias Ave. - Thivon,DiAv-Th,34.7722103112332,32.4426492813995,7078
7079,30849,1st Stop Nea Pentalia,1sStNePe,34.8380419244767,32.6019198922777,7079
7080,30850,2nd Stop Nea Pentalia,2nStNePe,34.8356522416193,32.5964411272045,7080
7081,30899,Neapoleos - Nikolaou Ellina 1,Nea-NikEl,34.7841031466721,32.422993870697,7081
7082,30900,Neapoleos - Georgiou Menelaou,Ne-GeMe,34.785275223908,32.4248547443514,7082
7083,30901,Neapoleos - Lamprou Sepi,Ne-LaSe,34.7862622900273,32.4257332358209,7083
7085,30903,Alexandrou Ypsilanti - Nikou Mounti,AlYp-NiMo,34.7895930826781,32.4322029284291,7085
7086,30904,10 Elem. School - Evagoras Pallikaridis,10ESc-EvPa,34.7906746441238,32.4340209510109,7086
7087,30905,Andrea Dimitriou - Nikou Evagorou,AnDi-NiEv,34.7866099179946,32.4344968586213,7087
7088,30906,Eirinis - Stratigou Alex. Papagou,Ei-StAlPa,34.7815488755779,32.4418432692475,7088
7089,30911,Priamou - Paschali Paschalidi,Pr-PaPa,34.7640424101306,32.4218222308843,7089
7091,31500,Agios Rafail Church 1,AgiRafChu,35.1710208242067,32.5842816747944,7091
7092,31501,7th Stop Pomos,7thStoPom,35.1709336911943,32.5498112374555,7092
7093,31502,10th Stop Pomos,10tStoPom,35.1701568081279,32.5494311715624,7093
7094,31503,5th Stop Pomos,5thStoPom,35.1670494683703,32.5479658832283,7094
7095,31504,6th Stop Pomos,6thStoPom,35.166679283241,32.5478361609082,7095
7096,31505,3rd Stop Pomos,3rdStoPom,35.1601210770196,32.5446882508081,7096
7097,31506,2nd Stop Pomos,2ndStoPom,35.1589639793243,32.5439151281913,7097
7098,31507,4th Stop Nea Dimmata,4tStNeDi,35.1400287391087,32.5230211660393,7098
7099,31508,1st Stop Nea Dimmata,1sStNeDi,35.137345521955,32.5217195832357,7099
7100,31509,12th Stop Agia Marina Chrysochous,12StAgMaCh,35.1305233081378,32.5181154347865,7100
7101,31510,9th Stop Agia Marina Chrysochous,9tStAgMaCh,35.1217974879252,32.5142927044222,7101
7102,31511,8th Stop Agia Marina Chrysochous,8tStAgMaCh,35.1171594478708,32.5112474470894,7102
7103,31512,7th Stop Agia Marina Chrysochous,7tStAgMaCh,35.1172492189783,32.5111481427332,7103
7104,31513,2nd Stop Agia Marina Chrysochous,2nStAgMaCh,35.1081114242299,32.5058588542803,7104
7105,31514,3rd Stop Gialia,3rdStoGia,35.106618881986,32.5047047443402,7105
7106,31515,4th Stop Gialia,4thStoGia,35.1067369986461,32.5049234864221,7106
7107,31529,Stratigou Alex. Papagou - Aliakmonos,StAlPa-Al,34.7786848111255,32.4406494203953,7107
7108,31530,Stratigou Alex. Papagou - Kastellorizou,StAlPa-Ka,34.7762198639985,32.438010345304,7108
7109,31531,Pafos General Hospital 2,PafGenHos,34.7886122812177,32.4443862103678,7109
7110,31533,Agiou Georgiou Ave. - 15th Stop,AGe-1S,34.9025951514871,32.3236675547894,7110
7111,31534,Ippokratous - Tefkrou,Ipp-Tef,34.7582807079318,32.4572095814029,7111
7112,31535,Ippokratous - Agapinoros,Ipp-Aga,34.7558863204897,32.456154484606,7112
7113,31536,Geroskipou High School 2,GerHigSch,34.7549026988576,32.4519762563375,7113
7114,31537,Waterpark Road,WaterRoad,34.7392878459972,32.4369824278927,7114
7115,31538,Kyriakou Partasidi - Christou Keli,KyPa-ChKe,34.7623577655926,32.4474250574995,7115
7116,31539,Geroskipou Art Museum,GerArtMus,34.759926476827,32.4541939641612,7116
7117,31548,1st Stop Nata 2,1stStoNat,34.7814864607523,32.5684629320321,7117
7118,31549,Nata Village Centre - Agios Nicolaos Church 2,NViCe-ANiC,34.7788161037984,32.5706954785515,7118
7119,31550,Eledio Community Board 2,EleComBoa,34.8089887946897,32.5680353513649,7119
7120,31552,1st Stop Eledio,1stStoEle,34.8112085269337,32.5684283091978,7120
7121,31553,4th Stop Koili,4thStoKoi,34.8557056292665,32.4549514260581,7121
7122,31554,2nd Stop Koili,2ndStoKoi,34.8547903946987,32.4579876327284,7122
7123,31555,Koili - Tsada Road,KoiliRoad,34.8425965208612,32.4656473633838,7123
7124,31556,Dimostheni Georgiou - 2nd Stop,DiGe-2nSt,34.8109193298015,32.45986040562,7124
7125,31800,Panagia Community Board,PanComBoa,34.9185173575317,32.6314082059189,7125
7126,31801,Archiep. Makariou C´ - Filippou Nathanail,ArMaC-FiNa,34.9195995421393,32.6314362114345,7126
7127,31802,Archiep. Makarios Cultural Centre 2,ArMaCuCe,34.9200634870849,32.6298028868076,7127
7128,31803,3rd Stop Panagia,3rdStoPan,34.9216042894756,32.6294127808546,7128
7129,31804,1st Stop Panagia,1stStoPan,34.9216027068716,32.62595315893,7129
7130,31805,Asprogia - Panagia Road - 4th Stop,As-PaR-4S,34.9238147603737,32.6239286000125,7130
7131,31806,Asprogia - Panagia Road - 3rd Stop,As-PaR-3S,34.9239406984146,32.6238294889199,7131
7132,31807,Asprogia - Panagia Road - 2nd Stop,As-PaR-2S,34.9281494286918,32.6230438458361,7132
7133,31808,Asprogia - Panagia Road - 1st Stop,As-PaR-1S,34.9284838177963,32.6232831967052,7133
7134,31809,2nd Stop Asprogia 2,2nStAspr,34.9233990709532,32.6150075275546,7134
7135,31810,5th Stop Kannaviou,5thStoKan,34.9188940633432,32.5755178879281,7135
7136,31811,6th Stop Kannaviou,6thStoKan,34.9180121245012,32.5760260225305,7136
7138,31813,Archiep. Makariou C - Nikou Karapataki 1,ArMaC-NKa,34.8870593779867,32.5122527423796,7138
7139,31814,Archiep. Makariou C - Nikou Karapataki 2,ArMaC-NKa,34.8872493993887,32.5124157731707,7139
7140,31815,Archiep. Makariou C - Andrea Thoukydidi,ArMaC-AnTh,34.8853974578573,32.5093406932188,7140
7141,31816,Archiep. Makariou C - Grigori Afxentiou,ArMaC-GrAf,34.8852556084179,32.5054894913817,7141
7142,31817,5th Stop Letymvou,5thStoLet,34.8530694142064,32.5183058157317,7142
7143,31818,3rd Stop Letymvou,3rdStoLet,34.8548346623933,32.5154841305723,7143
7144,31819,Letymvou Village Centre 1,LetVilCen,34.8567920547617,32.5133722618602,7144
7145,31820,Agia Paraskevi Church - Letymvou,AgPaCh-Le,34.8574880824466,32.5115412441541,7145
7146,31821,2nd Stop Letymvou,2ndStoLet,34.8580698537799,32.5104547738719,7146
7147,31822,Gerolakkou Ave. - Zinonos 2,GeAv-Zi,34.8334350155327,32.4781850240958,7147
7149,31830,7 Elementary School - Agios Kendeas 1,7ElSc-AKe,34.7768072972581,32.4247714368252,7149
7151,30392,Archiep. Makariou C´ Ave. - Giannou Kranidioti,ArMaC-GiKr,35.0662984078863,32.4695017699488,7151
7152,30536,1st Stop Theletra,1stStoThe,34.9095052690748,32.4472729080229,7152
7153,30716,Mariou Ave. - Arsinois,MaAv-Ar,35.0358987134488,32.4291888388319,7153
7154,31517,Argaka Seaside Road - 12th Stop,ArSeR-1S,35.0792568954583,32.4843139870411,7154
7155,31518,Argaka Seaside Road - 8th Stop,ArSeR-8S,35.0726166113588,32.4771496240056,7155
7156,31519,Argaka Seaside Road - 6th Stop,ArSeR-6S,35.0708668151461,32.4749562137331,7156
7157,31520,Argaka Seaside Road - 5th Stop,ArSeR-5S,35.0684724809922,32.4717799497226,7157
7158,31521,Argaka Seaside Road - 3rd Stop,ArSeR-3S,35.0674292657489,32.4703499217916,7158
7159,31522,Argaka Seaside Road - 1st Stop,ArSeR-1S,35.0655328151193,32.4676422832203,7159
7160,31523,Mariou Ave. - 1st Stop,MaAv-1sSt,35.0617592261678,32.4625562582517,7160
7161,31524,Mariou Ave. - 1st Stop,MaAv-1sSt,35.0617219919294,32.4622932995225,7161
7162,31557,Kynousa,Kynousa,35.0322911160315,32.5072146105694,7162
7163,31558,Polis Hospital 1,PolisHospi,35.0390879801156,32.4247702020001,7163
7164,31559,Polis Hospital 2,PolisHospi,35.0388724053368,32.4249471321249,7164
7165,31560,Akamantos Ave. - Georgiou Chatzigianni,AkAv-GeCh,35.0313755743707,32.4147824133601,7165
7166,31561,Akamantos Ave. - Afroditis,AkAv-Af,35.0316551518515,32.4147913831721,7166
7167,31562,Latsi Beach 1,LatsiBeach,35.0407977264116,32.3854305407177,7167
7168,31563,7th Stop Neo Chorio Pafou,7tStNeChPa,35.0248503590399,32.3600527808968,7168
7169,31564,2nd Stop Pelathousa,2ndStoPel,35.0274615887923,32.4758258724408,7169
7170,31565,4th Stop Peristerona Pafou,4tStPePa,34.990274987285,32.4886858022742,7170
7171,31566,2nd Stop Lysos 1,2ndStoLys,34.9959500773995,32.5113555272083,7171
7173,31568,4th Stop Lysos,4thStoLys,35.0019498284871,32.5189362459446,7173
7174,31570,1st Stop Agios Georgios Pafou,1sStAgGePa,34.777602933521,32.6478723312018,7174
7175,31571,2nd Stop Agios Ioannis Pafou,2nStAgIoPa,34.8693029450962,32.6908311727379,7175
7176,31572,6th Stop Stavrokonnou,6thStoSta,34.785783070417,32.6241080657924,7176
7177,31573,3rd Stop Stavrokonnou,3rdStoSta,34.7852887407502,32.6217275362373,7177
7178,31575,Konstantinoupoleos - Theodoulou Niti,Ko-ThNi,35.0281341891246,32.4309638994336,7178
7179,31576,Konstantinoupoleos - 2nd  Stop,Ko-2nSt,35.0271454577489,32.4316394421102,7179
7180,31577,1st Stop Chrysochou,1stStoChr,35.0055635818748,32.440578078883,7180
7181,31578,2nd Stop Chrysochou,2ndStoChr,35.0059128194857,32.4400496543755,7181
7182,31579,3rd Stop Chrysochou,3rdStoChr,35.0040791307329,32.4393607682202,7182
7183,31580,1st Agios Nikolaos Pafou 1,1stAgNiPa,34.8633496510177,32.7532143203581,7183
7184,31581,2nd Stop Galataria 2,2ndStoGal,34.8780487640339,32.6320922998951,7184
7185,31582,2nd Stop Koilineia 1,2ndStoKoi,34.8840069327804,32.6312887806011,7185
7207,31832,Georgiou Griva Digeni Ave. - Lemesos - Pafos Hwy,GeGDi-LPH,34.7353612399918,32.5226383248864,7207
7208,31833,Agias Marinas - Lemesos - Pafos Highway 1,AgMar-LPHw,34.7366989767938,32.5257438851013,7208
7209,31834,Agias Marinas - Lemesos - Pafos Highway 2,AgMar-LPHw,34.7366452544019,32.5258425052475,7209
7210,31835,Anarita Elementary School 1,AnarElemSc,34.7412068867458,32.5348508348443,7210
7211,31836,Anarita Elementary School 2,AnarElemSc,34.7411257707114,32.5348622137584,7211
7212,31837,Andrea Tselepou - Vladimirou Irakleous,AndTseVlIr,34.7392396240006,32.5368500348606,7212
7213,31838,Andrea Tselepou - Giannou Kraniditi,AndTseGiKr,34.7391841059254,32.5364789276549,7213
7214,31839,Kosta Karnavalou - Spyrou Kyprianou,KoKarSpKyp,34.736735695632,32.537639589655,7214
7215,31840,Kosta Karnavalou- Andrea Tselepou,KoKarAnTse,34.736852633348,32.5375624722282,7215
7216,31841,Spyrou Kyprianou - Evagora Pallikaridi,SpKypEvPal,34.7357845365152,32.5365088350701,7216
7217,31842,Spyrou Kyprianou - Kosta Karnavalou,SpKypKoKar,34.7357674571862,32.5367601727723,7217
7218,31843,Agios Onisiforos Church 1,AgiosOnisi,34.7355840771988,32.5336042887355,7218
7219,31844,Agios Onisiforos Church 2,AgiosOnisi,34.7354843404983,32.5334628430758,7219
7220,31845,Agiou Onisiforou - Highway Exit 1,AgOnisHwyE,34.7287215237786,32.5312398565901,7220
7221,31846,Agiou Onisiforou - Highway Exit 2,AgOnisHwyE,34.7288745697879,32.5311734565345,7221
7247,30401,Tassou Markou- Kosti Palama,TasMark-Ko,34.8624804164809,32.3576043528314,7247
7248,30402,Tassou Markou- Sea Caves,TasMar-Sea,34.862264468909,32.3576935532755,7248
7249,30403,Tassou Markou- Akamantos Avenue,TasMar-Aka,34.875355236214,32.3675269927753,7249
7250,30417,Tassou Markou- Kolikas,TasMar-Kol,34.8751753499933,32.3676159056177,7250
7563,11607,Apostolou Andreou - 2nd Pissouri 2,ApAn-2nPi,34.6716616604386,32.7018713328347,7563
7564,11610,Apostolou Andreou - 3rd Pissouri 1,ApAn-3rPi,34.6692501324013,32.7003409695005,7564
7616,11611,Pissouri Community Stadium 1,PisComSta,34.6663215162676,32.6975792238834,7616
7617,11609,Pissouri Police Station 1,PisPolSta,34.6758484767347,32.69922562757,7617
7743,31528,Pegeia Public Parking Place,PegPParkPl,34.8838229769859,32.3816224078011,7743
7744,31516,Gialia Village Centre 2,GiaVilCen,35.1010173816192,32.5109159024752,7744
7745,31930,Giolou Elementary School,GiolElemSc,34.9234403212468,32.4764882153443,7745
7746,31929,1st Stop Miliou 1,1stStoMil,34.9349528039182,32.4696151990829,7746
7747,31928,Grigori Afxentiou Ave. - Ifaistou 1,GrAfAv-If,34.8402587910995,32.4734170368357,7747
7748,31852,Agios Georgios Church,AgGeorChu,34.714594460379,32.5322150890845,7748
7749,31854,1st Agios Nikolaos Pafou 2,1stAgNiPa,34.8632507463915,32.7533568422942,7749
7750,31855,2nd Stop Agios Nikolaos Pafou,2nStAgNiPa,34.8615522942691,32.7562720258354,7750
7751,31856,Evagora Pallikaridi - Charalambou Mouskou 2,EvPal-ChMo,34.7763634448883,32.4224466703481,7751
7752,31857,1st Stop Pelathousa 2,1stStoPel,35.0286497037871,32.4753249809355,7752
7753,31858,Old Lemesos - Pafos Road - 9th Stop 1,OLe-PR-9S,34.7007067366251,32.5739164083462,7753
7754,31859,Kouklia Archaeological Site 1,KouArcSit,34.7055665912889,32.573705859095,7754
7756,31861,Kidasi 1,Kidasi,34.8074948560643,32.7124036020317,7756
7757,31862,2nd Stop Praitori 2,2ndStoPra,34.8487904290307,32.7465086884239,7757
7758,31863,1st Stop Praitori 2,1stStoPra,34.8482908939411,32.7448038116297,7758
7759,31864,2nd Stop Fasoula Pafou 2,2nStFaPa,34.7612335728892,32.6259676890305,7759
7760,31865,1st Stop Fasoula Pafou 2,1sStFaPa,34.7606062451991,32.6243096303835,7760
7761,31866,Mesana 1,Mesana,34.8486734816149,32.7065286038844,7761
7762,31867,1st Stop Agios Ioannis Pafou 1,1sStAgIoPa,34.8675553827699,32.6915598229855,7762
7763,31868,1st Stop Nata 1,1stStoNat,34.7816039983032,32.5685497570376,7763
7765,31869,Axylou 1,Axylou,34.8053640879554,32.5630907859144,7765
7766,31870,1st Stop Galataria 1,1stStoGal,34.8770454752095,32.6313198679903,7766
7767,31871,2nd Stop Galataria 1,2ndStoGal,34.8780035443989,32.6320487317365,7767
7768,31872,1st Stop Koilineia 1,1stStoKoi,34.8823784228284,32.63249978286,7768
7769,31873,2nd Stop Koilineia 2,2ndStoKoi,34.8842149971701,32.63150671597,7769
7770,31874,Pentalia 2,Pentalia,34.8560742590407,32.6207802559749,7770
7771,31875,Agia Marina Kelokedaron 1,AgiMarKel,34.8291623734139,32.6139812209324,7771
7772,31876,1st Stop Amargeti 2,1stStoAma,34.822496726518,32.5834160524194,7772
7773,31877,Nata Village Centre - Agios Nicolaos Church 1,NViCe-ANiC,34.7789696713427,32.570771188086,7773
7774,31878,2nd Stop Nata 2,2ndStoNat,34.7799423679462,32.5704273382572,7774
7775,31879,3rd Stop Agia Varvara Pafou 2,3rStAgVaPa,34.7506972778589,32.5127498952449,7775
7776,31880,2nd Stop Agia Varvara Pafou 2,2nStAgVaPa,34.7489803878972,32.5096244157038,7776
7777,31881,1st Stop Nea Pentalia 2,1sStNePe,34.8378341290416,32.6018005847149,7777
7778,31882,1st Stop Agios Dimitrianos 1,1sStAgDi,34.9045884737157,32.5493979697374,7778
7779,31883,2nd Stop Agios Dimitrianos 1,2nStAgDi,34.9059912611842,32.5507695130814,7779
7780,31884,2nd Stop Asprogia 1,2nStAspr,34.9235165393119,32.6150836180097,7780
7781,31886,1st Stop Dryneia 1,1stStoDry,34.9155310299351,32.529140328479,7781
7782,31887,2nd Stop Dryneia 1,2ndStoDry,34.9168878156358,32.5255746369084,7782
7783,31888,1st Stop Drymou 1,1stStoDry,34.9248846743753,32.5137588942582,7783
7784,31889,Lasa 1,Lasa,34.9241819432987,32.52763476759,7784
7785,31890,Fyti 1,Fyti,34.9283695045423,32.5450854478616,7785
7786,31891,Kritou Marottou Village Centre 1,KrMaViCe,34.9259100141326,32.5629016584857,7786
7787,31892,1st Stop Kritou Marottou 1,1sStKrMa,34.9262444576019,32.5606225388894,7787
7788,31893,7th Stop Letymvou 2,7thStoLet,34.8561049653402,32.5407468334685,7788
7789,31895,Gerolakkou Ave. - Agiou Konstantinou 1,GeAv-AgKo,34.8350805550285,32.4750030138766,7789
7790,31896,1st Stop Lemona 1,1stStoLem,34.8652335952884,32.5560896253641,7790
7791,31897,1st Stop Choulou 1,1stStoCho,34.8683873158259,32.5554271522462,7791
7793,31899,2nd Stop Lysos 2,2ndStoLys,34.9959233347596,32.5114323923389,7793
7794,31900,1st Stop Lysos 1,1stStoLys,34.9941115549133,32.5116075262121,7794
7795,31901,1st Stop Drouseia 2,1stStoDro,34.9604938526737,32.398813120652,7795
7796,31902,Ineia Square 2,IneiaSquar,34.9556352606065,32.3937227906582,7796
7797,31903,Pano Arodes 2,PanoArode,34.9361987037247,32.4074986087154,7797
7798,31904,1st Stop Kathikas 2,1stStoKat,34.9131940252199,32.4260110563481,7798
7799,31905,Kato Arodes 1,KatoArode,34.9405280808198,32.4021892898027,7799
7800,31906,1st Stop Ineia 1,1stStoIne,34.9565416586728,32.3946580484642,7800
7801,31907,2nd Stop Drouseia 1,2ndStoDro,34.9586676433596,32.3978625945249,7801
7802,31908,Agios Epifanios Church 1,AgiEpiChu,34.9625076363836,32.39758257351,7802
7803,31909,1st Stop Pachyammos 2,1stStoPac,35.1710855653209,32.5795263503629,7803
7804,31910,5th Stop Chrysochou  1,5thStoChr,35.0028810052829,32.4415716822905,7804
7805,31911,Goudi Square 1,GoudiSquar,34.9916539632926,32.4414616698771,7805
7806,31912,Choli 1,Choli,34.9794932831283,32.4442284248372,7806
7807,31913,2nd Stop Miliou 1,2ndStoMil,34.9393489275086,32.4604323080665,7807
7808,31914,Ayii Anargyri Spa Resort 2,AyAnSpRe,34.9359887068044,32.4652504224492,7808
7809,31915,Kato Akourdaleia 2,KatoAkour,34.9526348627753,32.4511125334336,7809
7810,31916,Gialia Village Centre 1,GiaVilCen,35.1007655262273,32.5110710152417,7810
7811,31917,Neapoleos - Iona Nikolaou,Nea-IoNik,34.7843770829861,32.4237133375043,7811
7812,31918,Alexandrou Ypsilanti - Anti Papadopoulou 1,AlYp-AnPap,34.7867641138677,32.4269758040499,7812
7813,31919,Alexandrou Ypsilanti - Michalaki Christodoulou 1,AlYp-MiChr,34.7887733031862,32.430448736391,7813
7820,31926,Konstantinou Palaiologou - Egnatias,KonPal-Egn,34.7539289802335,32.4460389893923,7820
7821,31927,Konstantinou Palaiologou - Santorinis,KonPal-San,34.7538391045752,32.4461051450159,7821
7822,31546,Eleftherias Ave. - Chatzif. Chatzioikonomou,ElAv-ChCh,34.7971930776471,32.4090851415694,7822
7823,31574,Choletria Elementary School,ChoEleSch,34.7628810299208,32.5995710981396,7823
7826,31885,1st Stop Asprogia 2,1sStAspr,34.9228022248826,32.61447384609,7826
7975,31931,International School of Paphos,IntSchPaph,34.79927607223,32.4494526649347,7975
7980,31940,Tombs of the Kings Bus Station,TKingsBSta,34.7700851526625,32.4107318563524,7980
7992,31941,Municipal Baths Beach,MunBathBea,34.7565259856276,32.4151659186758,7992
7993,31942,Amargeti (Transfer),Amargeti,34.8251561856456,32.5884985558725,7993
8024,31944,Thalassinon Spilion Ave. - Tasou Markou Ave. 1,ThalSp-TMA,34.8617540187865,32.3566582125981,8024
8025,31945,Thalassinon Spilion Ave. - Glykou Nerou 1,ThalSp-GlN,34.8746021112883,32.3445112192876,8025
8026,31946,Sea Caves 1,SeaCaves,34.880805353673,32.3344166585992,8026
8027,31947,Plakion 1,Plakion,34.8960837003204,32.3267525923355,8027
8028,31948,Plakion 2,Plakion,34.8960515099223,32.3274533106221,8028
8029,31949,Sea Caves 2,SeaCaves,34.8811386834447,32.3343592580738,8029
8030,31950,Thalassinon Spilion Ave. - Glykou Nerou 2,ThalSp-GlN,34.8746746604637,32.3445872359967,8030
8031,31951,Thalassinon Spilion Ave. - Tasou Markou Ave. 2,ThalSp-TMA,34.8618085263534,32.3567343688728,8031
