stop_id,stop_code,stop_name,stop_desc,stop_lat,stop_lon,zone_id
1,1,Dionysios Solomos Square,SqrSolomou,35.1707064870553,33.3589205343724,1
2,3,Evagorou Ave.  - Vasileos Pavlou,Evag-Pavl,35.1677905885467,33.3570079918293,2
3,4,Ministry of Finance,MOF,35.1686262204901,33.3549471767997,3
4,5,Embassy of Greece,E. of Gr.,35.1706382690864,33.3545276428611,4
53,59,Kinyra,Kinyra,35.1737260331655,33.3531902737277,53
55,73,Museum - THOK,THOK,35.1727003004999,33.3555139703451,55
82,104,Makario Stadium Bus Station,MstdStatio,35.1484684249371,33.3141074004373,82
84,106,Lykavitou Ave.  - Nikolaou Saripolou,Lyk-Saripo,35.1431929023549,33.3107937887305,84
113,154,Archangelou Michail - Agiou Alexiou,Mich-AlexA,35.1454886437929,33.3225381212525,113
114,155,Archangelou Michail - Lake Magkli,Mich-Magli,35.1409631844903,33.3152421818919,114
115,156,Archangelou Michail - Lefkosias - Troodous HWY,Amic-Lefk,35.131157614699,33.3026146917464,115
146,189,Archangelou Michail - Alexandrou Panagouli,Amich-Apan,35.1318416814806,33.3031111555501,146
310,402,Spyrou Kyprianou Ave. - Mesaorias,Skyp-Mesa,35.1225041003762,33.3324457404298,310
321,420,Archiep. Makariou III Ave. - Amaldas,M-Amaldas,35.1679798300117,33.3600945139754,321
322,421,Archiep. Makariou III Ave. - Theofani Theodotou,M-Theodoto,35.1677813251555,33.3601375632642,322
323,422,Archiep. Makariou III Ave. - Iras,M-Iras,35.1656621977647,33.3631918662444,323
324,423,Archiep. Makariou III Ave. - Mnasiadou,M-Mnasiado,35.1661974886152,33.3620961581633,324
325,424,Archiep. Makariou III Ave. - Naxou,M-Naxou,35.1625065679554,33.366065678288,325
326,425,Archiep. Makariou III Ave. - Dimofontos,M-Dimofont,35.1627608014222,33.3654848553327,326
327,426,Archiep. Makariou III Ave. - Ioanni Kliridi,M-Ikliridi,35.1614277886193,33.3679604258298,327
328,427,Archiep. Makariou III Ave. - Karpenisiou,M-Karpenis,35.1614829573628,33.3676093064794,328
329,428,Archiep. Makariou III Ave. - Filimonos,M-Filimon,35.1608352279163,33.3700769274052,329
330,429,Archiep. Makariou III Ave. - Dimitriou Papanikoli,M-Papanik,35.1607907799319,33.3698681032299,330
331,430,Archiep. Makariou III Ave. - Ethnikis Frouras,M-EthFr,35.1601974441108,33.3722261323552,331
332,432,Technical School Nicosia III,Tech.Schol,35.1568467559872,33.3739566285601,332
333,433,Archiep. Makariou III Ave. - Ethnikis Frouras,M-Kenedi,35.1563864814598,33.3740862769427,333
334,434,Lemesou Ave. - Alpha Bank,L-Al Bank,35.1542545605751,33.3753391341205,334
335,435,Lemesou Ave. - San Sousi,L-SanSousi,35.1531199796396,33.3748288840826,335
336,436,Lemesou Ave. - Melkonian,L-Melkonia,35.1513172204667,33.3746120178924,336
337,437,Police Headquarters,Police HQ,35.1477840726805,33.3741017977825,337
338,438,Traffic Education Park,L-Edu Park,35.1474406118456,33.3743637064748,338
339,441,Lemesou Ave. - Ellispontou,L-Elispon,35.1423644970571,33.3741867753681,339
340,442,Lemesou Ave. - Kalispera,Kalispera,35.1413169604423,33.3746869478481,340
341,445,Kalamon - Kampou,Kal-Kamp,35.1271343844758,33.3683329427313,341
342,446,Kalamon - Meteoron,Kal-Meteor,35.1268639058609,33.3683207493343,342
343,447,Kalamon -Hospital Round About,Kal-HosRB,35.1243067279532,33.3730066444956,343
344,448,Kalamon - Strovolos Industrial Zone,Kal-StrvI,35.1240546553602,33.3728737926889,344
345,449,Lemesou Ave. - Volvo,Volvo,35.1268358517556,33.3745328069755,345
346,450,The Mall of Cyprus - Verginas,TMallVer,35.1296954455061,33.3741617405526,346
348,452,Nicosia General Hospital,Hospital,35.1280430857013,33.3748785823234,348
349,453,Lemesou Ave. - Athalassis,L-Athalasa,35.1201286891813,33.3769165370365,349
350,454,Lemesou Ave. - Kampou,Kampou,35.1197592623922,33.3768270383084,350
351,455,Giannou Kranidioti Ave. - South Roundabout,Kr-KomvosS,35.1165112735836,33.3774046894802,351
352,456,Giannou Kranidioti Ave. - Isaak and Solomou,Isaak SOL,35.1153939421058,33.3771471338357,352
353,457,Ave. Giannou Kranidioti - Alekou Konstantinou,GiKr-AlKo,35.1117868041991,33.3772292751737,353
354,458,Giannou Kranidioti Ave. - Steliou Mavrommati,SMavmati,35.1124096995151,33.3770016991509,354
355,459,Giannou Kranidioti Ave. - Tzitzer,Kr-Tzinzer,35.109188278987,33.3777330418977,355
356,460,Giannou Kranidioti Ave. - Filippou Papakyprianou,FpapKypr,35.1087380401032,33.3775334475191,356
357,461,Giannou Kranidioti Ave. - Agiou Georgiou,Kr-Georg,35.105199097964,33.3788777413029,357
358,462,Giannou Kranidioti Ave. - Archiepiskopou Kyprianou,ArcKypr,35.1056601689848,33.3784958288008,358
359,463,Giannou Kranidioti Ave. - Stavrou Venizelou,Kr-Venizel,35.1028528361754,33.3794484201448,359
360,464,Giannou Kranidioti Ave. - Pentadaktylou,5daktulou,35.1032051206557,33.3792525491623,360
361,465,Giannou Kranidioti Ave. - Dionysiou Solomou,Kr-Solomou,35.1000022326176,33.3798192306527,361
362,466,Giannou Kranidioti Ave. - Eleftheriou Venizelou,El.Venizel,35.1001831243166,33.3796445174537,362
363,467,Ave. Giannou Kranidioti - Michail Karaoli,GiKr-MiKa,35.0963240129696,33.3795607991512,363
364,468,Giannou Kranidioti Ave. - Arkadiou,Arkadiou,35.0970638615189,33.3794215972043,364
369,473,Giannou Kranidioti Ave. - Areos,Kran-Areos,35.0873603566251,33.3797277031331,369
370,474,Giannou Kranidioti Ave. - Grigoriou Papaflessa,GkrPapafle,35.0870180841367,33.3796054440194,370
371,475,Giannou Kranidioti Ave. - Megalou Alexandrou,GKr-M.Alex,35.0834877127224,33.381080977771,371
372,476,Giannou Kranidioti Ave.- North Round About,Kran-RAB N,35.0835695560149,33.3808619626571,372
373,477,Lemesou Ave. - Panou Kranidioti,L-PKrandi,35.0806562338179,33.3811007185203,373
374,478,Lemesou Ave. - Megalou Alexandrou,L-M.Alex,35.0805394937328,33.3809466042865,374
419,552,Spyrou Kyprianou Ave. - Diodos Kifea,Skyp-Kifea,35.1334956519134,33.312260716531,419
420,553,Spyrou Kyprianou Ave. - Avraam Antoniou JUMBO,Skyp-Jumb,35.1297776836906,33.3168454699263,420
421,554,Spyrou Kyprianou Ave. - Pavilion,Skyp-Pav,35.1273232172445,33.3209518418459,421
422,555,Spyrou Kyprianou Ave. - Roundabout Metro,Sypr-Metro,35.125697950573,33.3251490655893,422
423,556,Roundabout Tseriou - Group 4,Tseri komv,35.1212488391426,33.3363915883624,423
424,557,Spyrou Kyprianou Ave. - Hospital American Heard,Am.Heard,35.1223542958336,33.3409288089506,424
425,558,Police Statio Strovolos - Nicosia,StrvPolice,35.1240538023245,33.3457869414422,425
426,559,Spyrou Kyprianou Ave. - Iosif Hadjiosif,Skyp-orf,35.1269311010946,33.3548649578129,426
427,560,Spyrou Kyprianou Ave. - Strovolos Industrial Zone,Skyp-StrvI,35.1279690819096,33.3575914460331,427
428,561,Spyrou Kyprianou Ave. - Agios Therissos,skyp-ATher,35.1289742897005,33.3622166863752,428
429,562,Spyrou Kyprianou Ave. - Vikela,Skyp-StrvI,35.1283788685882,33.3592835109107,429
430,563,Spyrou Kyprianou Ave. - Public Market Strovolou,laiki Stro,35.1269384136388,33.3554466968901,430
431,564,Spyrou Kyprianou Ave. - Water Dev Department Tower,WaterT,35.1238462213217,33.3458519153358,431
432,565,Hospital American Heard,Am.Heard,35.1219946608161,33.340554162072,432
433,566,Theoktisto - Roundabout Tseriou,Theoktist,35.1211327430198,33.3359850420351,433
434,567,Spyrou Kyprianou Ave. - Kythnou,Skyp-Kythn,35.1229516399975,33.3303622926777,434
435,568,Spyrou Kyprianou Ave - Lakatameia Roundabout Metro,Skyp-Lakat,35.1255452189541,33.3249399253155,435
436,569,Spyrou Kyprianou Ave. - Pediaiou,Skyp-RiPed,35.1290184655151,33.3175230352669,436
437,570,Spyrou Kyprianou Ave. - Dimokratias,Skyp_dimo,35.1312902568766,33.3142719197273,437
438,571,Spyrou Kyprianou Ave. - APOEL,Skyp-Apoel,35.1345713982596,33.3112110652074,438
687,879,Apolloneio Hospital,Apolloneio,35.1478491445453,33.3198906545292,687
689,881,Avenue Lefkotheou - Archangelou Michail,lefk-Mich,35.1477776953094,33.3230302033002,689
1031,1359,Spyrou Kyprianou Ave. -  Agios Mamas,Skyp-Amama,35.1276059097574,33.3197565981635,1031
1041,1369,Lykavitou Ave.  - Gravias,Lyk-grav,35.1400290263535,33.3103426673482,1041
1042,1370,Lykavitou Ave.,Lyk-Ave.,35.1466381635678,33.31052145137,1042
1095,1423,Forum Private School 2,ForPriSch,35.0329883151567,33.3847602121679,1095
1096,1424,Forum Private School 1,ForPriSch,35.0327804678402,33.3849017569631,1096
1097,1425,Lemesou Ave. - Evagelistrias,Eva/strias,35.0655130876804,33.384956640825,1097
1098,1426,Lemesou Ave. - Tinou,L-Tinou,35.0656120673599,33.3850229098157,1098
1099,1427,Lemesou Ave. - Florinas Papakosta,L-Florinas,35.0673041071953,33.3831882971163,1099
1100,1428,Lemesou Ave. - Inomenon Ethnon,L-OHE,35.0673938280713,33.3833312955153,1100
1115,1443,Carlsberg,Carlsberg,35.0777703750481,33.3812079580474,1115
1116,1444,Ilioupoli,ilioupoli,35.0775624638716,33.3813715257469,1116
1120,2000,Kryoneri,Kryoneri,35.0245176448541,33.3914620823737,1120
1161,2041,Lemesou Ave. - Alikos,L-Alikos,35.0432867536366,33.387385124348,1161
1162,2042,Lemesou Ave. - Park,Parko,35.0418080075016,33.3873562156809,1162
1163,2043,Lemesou Ave. - Karava,L-Karava,35.0457573878258,33.3874187173141,1163
1164,2044,Lemesou Ave. - Trachona,Trachoma,35.045478380717,33.3872529296734,1164
1165,2045,Lemesou Ave. - Dixan,L-Dixan,35.0543929872711,33.3883477345895,1165
1166,2046,Lemesou Ave. - Daliko,Daliko,35.0516893491798,33.3878634183993,1166
1167,2066,Chalkanoros,Chalkanoro,35.0189912575109,33.4181261285799,1167
1168,2067,Chalkanoros,Chalkanoro,35.0190665634492,33.4172057754721,1168
1169,2068,Chalkanoros,Chalkanoro,35.0175379263044,33.4106543264016,1169
1170,2069,Chalkanoros,Chalkanoro,35.0176106570254,33.4104793146889,1170
1173,2072,Elem. School B Nisou,Elem. Scho,35.0154718494152,33.4001875145213,1173
1174,2073,Elem. School B Nisou,Elem. Scho,35.0156064567151,33.400385462773,1174
1177,2076,Lemesou Ave. ,Lemesou,35.0717296903783,33.3809275967809,1177
1178,2077,Lemesou Ave.- Elefsinow,Lem-Elefsi,35.0723879067464,33.3809416237182,1178
2019,6007,Voulgaroktonou - Arsinois,Voulgarokt,35.1722288311074,33.359443364072,2019
2020,6008,Artemidos,Artemidos,35.1741015620522,33.3603960537528,2020
2021,6009,Nikokleous - Faneromeni,Nik - Fan,35.1737183623535,33.3618988818303,2021
2022,6010,Phaneromeni High School,Pha.School,35.1734329464991,33.36386336865,2022
2023,6011,Dimarcheias Square - Municipal Market,Dimarcheia,35.1735569390634,33.3646106881676,2023
2024,6012,New City Hall - Palia Ilektriki,Palia Ilek,35.1732172443729,33.3666188450817,2024
2025,6013,Ermou,Ermou,35.1757923428901,33.3678713908397,2025
2026,6014,Polyergastiria - Chrysaliniotissa,Poly - Chr,35.1754882930407,33.3700005536677,2026
2027,6015,Famagusta Gate,Fam. Gate,35.1746819838648,33.3712378683537,2027
2028,6016,Nicosia Multipurpose Centre,Nicosia MC,35.1726826655242,33.3704271123335,2028
2029,6017,Archbishopric,Archbishop,35.1720097104614,33.3693368758885,2029
2030,6018,Cyprus Theological School,Cyprus T.S,35.1724583198301,33.3671096156073,2030
2031,6019,Tillirias Square,Tillir Sq,35.1723015247036,33.3652859487615,2031
2034,6022,City Hall - Post Office - Library,City Hall,35.1695611618946,33.3620012559709,2034
2035,6023,Rigainis,Rigainis,35.1707033262845,33.3599857247178,2035
2702,6,Parliament,Parliament,35.171910663836,33.3541927349079,2702
2703,7,Iroon - Agios Andreas Elem. School 1,I-AAnESc,35.1740696044414,33.3497653934537,2703
2704,8,Iroon - Agios Andreas Elem. School 2,I-AAnESc,35.1740873213221,33.3498752887926,2704
2705,9,Ave. Agiou Pavlou - Filiou Zannetou,APa-FiZa,35.1748736687928,33.3460898497201,2705
2706,10,Ave. Agiou Pavlou - Averof,AvAgPa-Av,35.1749637761969,33.3461121957303,2706
2707,11,Ave. Agiou Pavlou - Arkadiou,AvAgPa-Ar,35.1760033515456,33.342020239132,2707
2708,12,Ave. Agiou Pavlou - Andrea Kalvou,APa-AnKa,35.1759933106887,33.3423826098489,2708
2709,13,Ave. Agiou Pavlou - Archiepiskopou Kyprianou,APa-ArKy,35.1769233285292,33.3387293931357,2709
2710,14,Ave. Agiou Pavlou - Rizokarpasou,AvAgPa-Ri,35.1770133451589,33.3387846782642,2710
2711,15,Agios Pavlos Church 1,AgiPavChu,35.1774731534512,33.3355687409808,2711
2712,16,Agios Pavlos Church 2,AgiPavChu,35.1776450851774,33.3353497989552,2712
2713,17,Ave. Agiou Pavlou - Platonos,AvAgPa-Pl,35.1780765761867,33.3325620189875,2713
2714,18,Ave. Agiou Pavlou - Afroditis,AvAgPa-Af,35.1780232878096,33.3322652749377,2714
2715,21,Ave. Agiou Pavlou - Dimokratias Avenue,APa-Di,35.1795836571022,33.3254733375876,2715
2716,22,Ave. Agiou Pavlou - Ektoros,AvAgPa-Ek,35.179472999897,33.3263844588697,2716
2717,23,Agios Dometios Roadblock 1,AgiDomRoa,35.1790929870238,33.3235054911068,2717
2718,24,Agios Dometios Roadblock 2,AgiDomRoa,35.1788767542606,33.3234387387748,2718
2719,25,Ave. Dimokratias - Thetidos,AvDi-Th,35.1749434487893,33.3241260120224,2719
2720,26,Ave. Dimokratias - Ammou,AvDi-Am,35.17421309819,33.3241121312765,2720
2721,27,Ave. Dimokratias - Gravias,AvDi-Gr,35.1713171287685,33.3246606992851,2721
2722,28,Ave. Dimokratias - Ave. Grigori Afxentiou,Di-GrAf,35.1711821968358,33.3245393657053,2722
2723,29,Ave. Kyriakou Matsi - Coca Cola,KyM-CC,35.1687433599936,33.3227397336569,2723
2724,30,Ave. Kyriakou Matsi - Aristeidou,AvKyMa-Ar,35.1687746427559,33.3211475771486,2724
2725,31,Ave. Kyriakou Matsi - Vasilissis Freiderikis,KyM-VaFr,35.1685717509259,33.3194446910405,2725
2726,32,Ave. Kyriakou Matsi - Valesta,AvKyMa-Va,35.1683752847991,33.3187191641901,2726
2727,33,University of Nicosia 1,UniofNic,35.1663131804593,33.3141869821712,2727
2728,34,University of Nicosia 2,UniofNic,35.1662414425995,33.3140329735955,2728
2729,37,Makedonitissas Tomb 2,MakedTomb,35.153712719255,33.308528151779,2729
2730,38,Makedonitissas Tomb 1,MakedTomb,35.1538211478588,33.3084407272103,2730
2731,39,Florinis - Angelou Terzaki,Fl-AnTe,35.1516289870735,33.3052705186485,2731
2732,40,Florinis - Eptanisou,Flo-Ept,35.1517281750342,33.3052708891113,2732
2733,41,Florinis - Andrea Anastasopoulou,Fl-AnAn,35.1509690722956,33.3023366994398,2733
2734,42,Florinis - Zidrou,Flo-Zid,35.1510945989756,33.302622614461,2734
2735,43,Andrea Anastasopoulou - Spyridonos Nompeli,AnAn-SpNo,35.148448138675,33.3007794041465,2735
2736,44,Andrea Anastasopoulou - Stefanou Giannakou,AnAn-StGi,35.1486286985718,33.3006922401911,2736
2737,45,Andrea Anastasopoulou - Agelou Nikolaidi,AnAn-AgNi,35.1460614634583,33.2996179119583,2737
2738,46,Andrea Anastasopoulou - Morfou Avenue,AnAn-MoAv,35.1463049794526,33.2995968479955,2738
2739,47,Parthenonos - Thespidos,Par-The,35.144418679962,33.2966258813329,2739
2740,48,Parthenonos - Aspasias,Par-Asp,35.144436982848,33.2965161679297,2740
2741,49,Isokratous - Empedokleous,Iso-Emp,35.1415448511266,33.2955396511275,2741
2742,50,Isokratous - Kallikratous,Iso-Kal,35.1416447618307,33.2952436168844,2742
2743,51,Isokratous - Irakleitou,Iso-Ira,35.1367195431629,33.2959942206036,2743
2744,52,Isokratous - Ptolemaion,Iso-Pto,35.1366385231445,33.2959390426856,2744
2745,53,Kleisthenous - Isokratous,Kle-Iso,35.135794739413,33.2980545156748,2745
2746,54,Kleisthenous - Eratosthenous,Kle-Era,35.1356952271004,33.2981858746841,2746
2747,55,Kleisthenous - Aristogeitonos,Kle-Ari,35.1380371337145,33.2992262633949,2747
2748,56,Kleisthenous - Myronos,Kle-Myr,35.139136787559,33.2994059235941,2748
2749,57,Kleisthenous - Kratinou,Kle-Kra,35.1433529934989,33.2973026406915,2749
2750,60,Ave. Aigyptou - Omirou Avenue,AvAi-OmAv,35.1723542968642,33.3566545620449,2750
2751,74,Olympic Swimming Pool 1,OlySwiPoo,35.1726530766298,33.3500558341163,2751
2752,75,Olympic Swimming Pool 2,OlySwiPoo,35.172565315443,33.3492208456128,2752
2753,76,Ave. Louki Akrita - Ministry of Agriculture 1,LAk-MioAg,35.1721367004271,33.3477584488817,2753
2754,77,Ave. Louki Akrita - Ministry of Agriculture 2,LAk-MioAg,35.1722093723791,33.3475720695211,2754
2755,78,Navarinou - Delfon,Nav-Del,35.1715054051673,33.3446369864082,2755
2756,79,Navarinou - Nikolaou Katalanou,Na-NiKa,35.1717290169555,33.345274864572,2756
2757,80,Ave. Grigori Afxentiou - Tsertsil,AvGrAf-Ts,35.1711622643216,33.3416265923424,2757
2758,81,Navarinou - Nikolaou Saripolou,Na-NiSa,35.171286084013,33.3424836728933,2758
2759,82,Ave. Grigori Afxentiou - Nikis,AvGrAf-Ni,35.1711019470217,33.3374094254348,2759
2760,83,Ave. Grigori Afxentiou - Tainarou,AvGrAf-Ta,35.1711840785764,33.3370583548019,2760
2761,84,Ave. Grigori Afxentiou - Agios Georgios Church 1,GrAf-AGeCh,35.1713643425009,33.3338305126506,2761
2762,85,Ave. Grigori Afxentiou - Agios Georgios Church 2,GrAf-AGeCh,35.1714819572637,33.3336882325656,2762
2763,86,Ave. Grig. Afxentiou - Ag. Dometios Health Centre,GAf-ADoHeC,35.17214871005,33.3272666665302,2763
2764,87,Ave. Grig. Afxentiou - Ag. Dometios Health Centre,GAf-ADoHeC,35.1723041628536,33.3264656242638,2764
2765,88,Ave. Kyriakou Matsi - Gravias,AvKyMa-Gr,35.1686798745059,33.3262424946991,2765
2766,89,Ave. Kyriakou Matsi - Dimokratias Avenue,KyM-Di,35.1685531625958,33.326417687976,2766
2767,94,Ave.8 Oktovriou - 28 Oktovriou Avenue,AOk-2Ok,35.1651203596231,33.3186186187246,2767
2768,95,Mall of Engomi,MalofEng,35.1631212254142,33.3176006175545,2768
2769,96,Ave.8 Oktovriou - Aftokratoros Ioustinianou,AvOk-AfIo,35.1603182134224,33.3170956168618,2769
2770,97,Ave.8 Oktovriou - Palaion Patron Germanou,AOk-PaPaGe,35.1604177459165,33.3169642416892,2770
2771,98,Ave. 28 Oktovriou - Mesolongiou,Av28Ok-Me,35.1574823652285,33.3153498152509,2771
2772,99,Ave. 28 Oktovriou - Papaflesa,Av28Ok-Pa,35.158013743371,33.3155934214839,2772
2773,100,Ilia Papakyriakou - Pavlou Mela,IlPa-PaMe,35.1554426475214,33.3160556085709,2773
2774,101,Ilia Papakyriakou - Nikolaou Skoufa,IlPa-NiSk,35.1550725464794,33.3162078888731,2774
2775,102,Ilia Papakyriakou - Afroditis,IlPa-Af,35.1520122839623,33.3175245067545,2775
2776,103,Ilia Papakyriakou - Cyprus International Fair,IPa-CyInF,35.15184127593,33.3174030737528,2776
2777,105,Ave. Lykavitou - Ithakis,AvLy-It,35.1430843029422,33.3109470650308,2777
2778,107,Ave. Lykavitou - Prevezis,AvLy-Pr,35.1392827685977,33.3094945841808,2778
2779,109,Stadiou - Alexandrou Panagouli,St-AlPa,35.1401141831134,33.3052165462797,2779
2780,110,Stadiou - Morfou Avenue,St-MoAv,35.1401414555782,33.305128828869,2780
2781,111,Alexandrou Panagouli - Achaion,AlPa-Ac,35.1383720548657,33.305934536534,2781
2787,117,Alexandrou Panagouli - Agiou Antoniou,AlPa-AgAn,35.1369190307228,33.3028445723502,2787
2788,130,Chilonos - Michail Paridi,Ch-MiPa,35.1708040725686,33.3533313787656,2788
2789,131,Chilonos - Nechrou Avenue,Ch-NeAv,35.1708327878509,33.352760464628,2789
2790,132,Ministry of Health 1,MinofHea,35.1693560161352,33.348943572246,2790
2791,133,Ministry of Health 2,MinofHea,35.1692939718771,33.3485699429262,2791
2792,134,"Ministry of Transport Communications and Works 1",MioTrCoaW,35.1688630420403,33.3447576120447,2792
2793,135,"Ministry of Transport Communications and Works 2",MioTrCoaW,35.1689542430701,33.34439561548,2793
2794,136,Delfon - Metochiou,Del-Met,35.1669057000584,33.3417954665418,2794
2795,137,Delfon - Agiou Dometiou,De-AgDo,35.1668971476395,33.3416307160221,2795
2796,138,Agiou Prokopiou - Metochi Kikkou 1,AgPr-MeKi,35.1637542193669,33.3401900998849,2796
2797,139,Agiou Prokopiou - Metochi Kikkou 2,AgPr-MeKi,35.1628635960724,33.3394507018096,2797
2798,144,Nik. Kranidioti - Nicosia Lands and Surveys Office,NKr-NiLaSu,35.1625441930942,33.3310493689919,2798
2799,145,Nikou Kranidioti - Theodosi Pieridi,NiKr-ThPi,35.1606673556869,33.3315139108011,2799
2802,150,Engomi Elementary School B 1,EnElScB,35.1534316617827,33.3296510353618,2802
2803,151,Engomi Elementary School B 2,EnElScB,35.1515338571016,33.327875774336,2803
2804,152,Archagelou Michail - Makedonitissis,ArMi-Ma,35.1491023323447,33.3267242467777,2804
2805,153,Archagelou Michail - Nikola Vasili Chatzigianni,ArMi-NiVaC,35.1491214019724,33.3263400720184,2805
2806,157,Ave. Anthoupoleos - Eptanisou,AvAn-Ep,35.124205350685,33.2953013994849,2806
2807,158,Ave. Anthoupoleos - Porou,AvAn-Po,35.1240975727435,33.2951254064581,2807
2808,159,Eptanisou - Ydras,Ept-Ydr,35.1229284052001,33.2975576601991,2808
2809,160,Eptanisou - Kerkyras,Ept-Ker,35.1225578669003,33.2978965390466,2809
2810,161,Lakatameia Health Centre 1,LakHeaCen,35.1209214096231,33.2996575280144,2810
2811,162,Lakatameia Health Centre 2,LakHeaCen,35.1206700142095,33.2992176157712,2811
2812,165,Lakatameia Elementary School D Agios Neofytos 2,LaElScDANe,35.117260977215,33.2920389106326,2812
2813,166,Lakatameia Elementary School D Agios Neofytos 1,LaElScDANe,35.1173782265966,33.2920283546861,2813
2814,167,Kykladon - Aigaiou,Kyk-Aig,35.1182792295112,33.2885636364596,2814
2815,168,Kykladon - Sikinou,Kyk-Sik,35.1182524914902,33.2884318485388,2815
2816,169,Kykladon - Agiou Georgiou Avenue 1,Ky-AgGeAv,35.1158571589923,33.2870626121114,2816
2817,170,Kykladon - Agiou Georgiou Avenue 2,Ky-AgGeAv,35.1158935653728,33.2869200758048,2817
2818,171,Ave. Agiou Georgiou - Sporadon,AvAgGe-Sp,35.1146270733287,33.2886385513963,2818
2819,172,Ave. Agiou Georgiou - Agiou Marona,AGe-AMa,35.1144646599891,33.2886818744795,2819
2820,173,Ave. Agiou Georgiou - Evoias,AvAgGe-Ev,35.1131070243603,33.2907950255558,2820
2821,174,Ave. Agiou Georgiou - Elpidos,AvAgGe-El,35.1126192813728,33.2911334778741,2821
2822,175,Ave. Eleftherias - Andrianis,AvEl-An,35.1110295683565,33.2922471208117,2822
2823,176,Ave. Eleftherias - Agiou Georgiou Avenue,El-AGe,35.1110929265134,33.2921485854362,2823
2824,177,Ave. Eleftherias - Aiglis,AvEl-Ai,35.1090763539594,33.2907807070345,2824
2825,178,Ave. Eleftherias - Antigonis,AvEl-An,35.1089868137238,33.2905170315411,2825
2826,179,Anthoupoli Elementary School 2,AntEleSch,35.1064932010373,33.2887744656587,2826
2827,180,Anthoupoli Elementary School 1,AntEleSch,35.1065657825652,33.2885881823177,2827
2828,181,Dimokratias - Pafou,Dim-Paf,35.1057113969023,33.2914161500442,2828
2829,182,Dimokratias - Troodous,Dim-Tro,35.1057490726223,33.2907469437903,2829
2830,183,Dimokratias - Agias Triados,Di-AgTr,35.1040226234696,33.2924744777724,2830
2831,184,Dimokratias - Sotiros Church,Di-SoCh,35.1041942407887,33.2923543923791,2831
2832,185,Dimokratias - Evagorou,Dim-Eva,35.1025587288131,33.290011439063,2832
2833,186,Dimokratias - Solomou,Dim-Sol,35.1026327795275,33.2892107179186,2833
2834,187,Ave. Eleftherias - Iroon,AvEl-Ir,35.1045204763785,33.2879116427616,2834
2835,188,Ave. Eleftherias - Dimokratias,AvEl-Di,35.1039339952886,33.2880631961994,2835
2837,191,Archan. Michail - Lefkotheou Makariou Stadiou Ave.,ArMi-LeMaS,35.1463789938907,33.3234198926434,2837
2838,200,Ave. Dimostheni Severi - Skyrou,AvDiSe-Sk,35.165651279569,33.3547036531502,2838
2839,201,Ave. Dimostheni Severi - Ministry of Interior,DiSe-MioIn,35.1652643510752,33.3544274541658,2839
2840,202,Ave. Dimostheni Severi - Prespas,AvDiSe-Pr,35.1615966037694,33.3536648847321,2840
2841,203,Ave. Dimostheni Severi - Konstantinou Kanari,DiSe-KoKa,35.1615069141695,33.3534997927003,2841
2842,204,Ave. Dimostheni Severi - Nikitara,AvDiSe-Ni,35.1598034320364,33.3532398821135,2842
2843,205,Ave. Dimostheni Severi - Markou Mpotsari,DiSe-MaMp,35.1597138377975,33.3530418545614,2843
2844,206,Ministry of Foreign Affairs,MiofFoAf,35.1575986350105,33.3517261281266,2844
2845,207,Ave. Dimostheni Severi - Apelli,AvDiSe-Ap,35.1577789119856,33.3517488636013,2845
2846,208,Proedrikou Megarou - English School,PrMe-EnSc,35.1543156685476,33.3488573835062,2846
2847,209,Presidential Palace,PresiPalac,35.1544421916331,33.3487591098419,2847
2848,210,Ave. Strovolou - Athalassas Avenue,AvSt-AtAv,35.151884285101,33.3477271512108,2848
2849,212,Ave. Strovolou - SEK 1,AvSt-SE,35.1495246806746,33.3467180562083,2849
2850,213,Ave. Strovolou - Themidos,AvSt-Th,35.1515514101736,33.3474622409941,2850
2851,214,Ave. Strovolou - Omirou,AvSt-Om,35.1469582378711,33.3455105358698,2851
2852,215,Ave. Strovolou - SEK 2,AvSt-SE,35.1491470633039,33.3463322036359,2852
2853,216,Strovolos City Hall 1,StrCitHal,35.1441120653755,33.3443677814721,2853
2854,217,Ave. Strovolou - Agias Marinas,AvSt-AgMa,35.1463101046099,33.3451235590251,2854
2855,218,Ave. Strovolou - Pythonos,AvSt-Py,35.1425967535343,33.3413315491086,2855
2856,219,Strovolos City Hall 2,StrCitHal,35.1433329628898,33.3424653377379,2856
2857,220,Ave. Strovolou - Kantaras,AvSt-Ka,35.1407733733759,33.3387991184145,2857
2858,221,Ave. Strovolou - Ilia Venezi,AvSt-IlVe,35.1408111281378,33.3381955135068,2858
2859,222,Public Works Department 1,PubWorDep,35.137947216912,33.3336611054959,2859
2860,223,Public Works Department 2,PubWorDep,35.1381279815904,33.3335081633724,2860
2861,224,Ave. Strovolou - Machaira,AvSt-Ma,35.1343220530768,33.330463098289,2861
2862,225,Ave. Strovolou - PEPSI,AvSt-PE,35.1343230701379,33.3300898976182,2862
2863,226,Ave. Strovolou - Pavlou Mela,AvSt-PaMe,35.1314542077889,33.32727938183,2863
2864,227,Ave. Strovolou - Zografou,AvSt-Zo,35.1316259771456,33.3271154253656,2864
2865,228,Ave. Strovolou - Lakatameia Roundabout  1,St-LaRo,35.1276470579773,33.3246299779293,2865
2866,229,Ave. Strovolou - Lakatameia Roundabout  2,St-LaRo,35.1277745312816,33.3241695029266,2866
2867,230,Ave. Strovolou - METRO Supermarket,AvSt-MESu,35.1248565031906,33.3228408993834,2867
2868,231,Ave. Strovolou - Averkiou,AvSt-Av,35.1248579344291,33.3223031131762,2868
2869,232,Ave. Archiepiskopou Makariou C - Anexartisias,ArMaC-An,35.1218979311891,33.3197891653063,2869
2870,233,Ave. Archiepiskopou Makariou C - Voufavento,ArMaC-Vo,35.1223753171321,33.3199885812926,2870
2871,234,Ave. Archiepiskopou Makariou C - Kosta Andreou,ArMaC-KAn,35.1192565407279,33.3161023536324,2871
2872,235,Ave. Archiepiskopou Makariou C - Antheon,ArMaC-An,35.1202813962671,33.3172915836503,2872
2873,236,Ave. Archiep. Makariou C - Agiou Dimitrianou,ArMaC-ADi,35.1169498002172,33.3119780862132,2873
2874,237,Ave. Archiep. Makariou C - Archangelou Michail,ArMaC-ArMi,35.1168695211054,33.3116375776133,2874
2875,238,Ave. Archiepiskopou Makariou C - Dios,ArMaC-D,35.1144511848898,33.3087861155714,2875
2876,239,Ave. Archiep. Makariou C - Nikou Alexandrou,ArMaC-NAl,35.1143620750018,33.3083687696129,2876
2877,240,Ave. Archiepiskopou Makariou C - Promitheos,ArMaC-Pr,35.1124540057571,33.3069569492663,2877
2878,241,Ave. Archiepiskopou Makariou C - Irakleous,ArMaC-Ir,35.1125897351511,33.3067709052956,2878
2879,242,Elementary School A Lakatameia - Agia Paraskevi 1,ElScALa-AP,35.1103470992198,33.3057200273079,2879
2880,243,Elementary School A Lakatameia - Agia Paraskevi 2,ElScALa-AP,35.1097171430421,33.3052238752552,2880
2881,244,Ave. Archiepiskopou Makariou C - Dimitri Liperti,ArMaC-DiLi,35.1078084021915,33.3040645870016,2881
2882,245,Ave. Archiepiskopou Makariou C - Agiou Georgiou,ArMaC-AGe,35.1081332673743,33.3039670356337,2882
2883,246,Ave. Archiepiskopou Makariou C - Tseriou,ArMaC-Ts,35.1042044783443,33.3028771365116,2883
2884,247,Ave. Archiep. Makariou C - Archiep. Kyprianou,ArMaC-ArKy,35.1043670612924,33.3027680118951,2884
2885,248,Ave. Archiepiskopou Makariou C - Kallitheas,ArMaC-Ka,35.1010730824142,33.300221262781,2885
2886,249,Ave. Archiepiskopou Makariou C - Profiti Ilia,ArMaC-PrI,35.1012893042079,33.3002988608563,2886
2887,250,Ave. Archiepiskopou Makariou C - Mesotopitissas,ArMaC-Me,35.0979264399778,33.2964025327473,2887
2888,251,Ave. Archiepiskopou Makariou C - Florinis,ArMaC-Fl,35.0979000318829,33.29613911543,2888
2889,252,Ave. Archiepiskopou Makariou C - Strakka Lake 1,ArMaC-StL,35.0955523399445,33.2937498274336,2889
2890,253,Ave. Archiepiskopou Makariou C - Strakka Lake 2,ArMaC-StL,35.0955708260207,33.2935633794572,2890
2891,254,Ave. Archiepiskopou Makariou C - Strakka Area 1,ArMaC-StA,35.0929171293894,33.2909098400156,2891
2892,255,Ave. Archiepiskopou Makariou C - Strakka Area 2,ArMaC-StA,35.0928368427656,33.290547509807,2892
2893,256,Ave. Archiep. Makariou C - Christou Leventi,ArMaC-ChLe,35.0888091016047,33.2854977539991,2893
2894,257,Ave. Archiepiskopou Makariou C - Foti Pitta,ArMaC-FP,35.0889445403393,33.2854214321848,2894
2895,258,Ave. Archiepiskopou Makariou C - Pentadaktylou,ArMaC-Pe,35.0867884967519,33.2819582906488,2895
2896,259,Ave. Archiep. Makariou C - Anastasi Leventi,ArMaC-AnLe,35.0869777304596,33.2820137932879,2896
2897,260,Ave. Archiepiskopou Makariou C - Ellados,ArMaC-El,35.085974529423,33.2791032512468,2897
2898,261,Ave. Archiep. Makariou C - Chrysospiliotissis,ArMaC-Ch,35.0861366118554,33.2792025349001,2898
2899,262,Andrea Zitti - Grigori Afxentiou Avenue,AnZ-GrAf,35.0839100688512,33.2749386376613,2899
2900,265,Ave. Archiepiskopou Makariou C - Iroon,ArMaC-I,35.0848288786323,33.2753585805085,2900
2903,272,Tseriou - Konstantinoupoleos Avenue,Ts-KoAv,35.1383398914202,33.3415991854026,2903
2905,274,Tseriou - Ilektras,Tse-Ile,35.1361422584606,33.3406899037738,2905
2906,275,Tseriou - Makedonias,Tse-Mak,35.1362056556963,33.3405913761422,2906
2907,276,Ave. Tseriou - Akamantos,AvTs-Ak,35.1333054503875,33.3394048160906,2907
2908,277,Ave. Tseriou - Praxandrou,AvTs-Pr,35.1333959285777,33.3392954267212,2908
2909,278,Ave. Tseriou,Ave.Tseri,35.1315572109629,33.3390133933518,2909
2910,279,Ave. Tseriou - Parnassou,AvTs-Pa,35.1312423494677,33.3387486596876,2910
2911,280,Ave. Tseriou - Lazarou Kountourioti,AvTs-LaKo,35.1284394138013,33.3382431405309,2911
2912,281,Ave. Tseriou - Myrtiotissis,AvTs-My,35.1292688943784,33.3382794981326,2912
2913,282,Ave. Tseriou - Digeni Akrita,AvTs-DiAk,35.1259624041878,33.3372670563955,2913
2914,283,Ave. Tseriou - Kavalas,AvTs-Ka,35.1261159086006,33.3371908606684,2914
2915,284,Ave. Tseriou - Spyrou Kyprianou Avenue 1,Ts-SpKy,35.1230896675848,33.3359162520119,2915
2916,285,Ave. Tseriou - Tamasou,AvTs-Ta,35.1231803859407,33.3357190724096,2916
2917,286,Roundabout Tseriou,RoundTseri,35.1204330822657,33.3346542249933,2917
2918,287,Ave. Tseriou - Spyrou Kyprianou Avenue 2,Ts-SpKy,35.1198753537394,33.3341690585412,2918
2919,288,Ave. Tseriou - Gianni Vlachogianni,AvTs-GiVl,35.1170559879683,33.3330710908499,2919
2920,289,Ave. Tseriou - Sotiriou Lontou,AvTs-SoLo,35.1180651505241,33.333349558821,2920
2921,290,Ave. Tseriou - Georgiou Anagnostopoulou,AvTs-GeAn,35.1138654950608,33.3324874659991,2921
2922,291,Ave. Tseriou - Agias Varvaras,AvTs-AgVa,35.1134962745821,33.3323103850851,2922
2923,292,Ave. Tseriou - Patision,AvTs-Pa,35.1100338196194,33.3322524352307,2923
2924,293,Ave. Tseriou - Ippokratous,AvTs-Ip,35.1095207452026,33.3319211542844,2924
2925,294,Ave. Tseriou - Viomichanias,AvTs-Vi,35.1034778177864,33.3291206198738,2925
2926,295,Ave. Tseriou - Themistokleous,AvTs-Th,35.1037393743638,33.3290997262012,2926
2927,296,Ave. Tseriou - Paragogikotitas 1,AvTs-Pa,35.0984874878932,33.3271914691157,2927
2928,297,Ave. Tseriou - Paragogikotitas 2,AvTs-Pa,35.0980911477973,33.3270362811001,2928
2929,298,Strovolou - Agiou Georgiou 1,St-AgGe,35.0909210597795,33.3275452227646,2929
2930,299,Strovolou - Kifisias 2,Str-Kif,35.091002688231,33.327370016285,2930
2931,300,Strovolou - Antheon,Str-Ant,35.0850917553961,33.3290796597314,2931
2932,301,Strovolou - Anti Tserioti,St-AnTs,35.0854707739915,33.3289714813713,2932
2933,302,Strovolou - Pentelis,Str-Pen,35.0830190265122,33.3286215763297,2933
2934,303,Strovolou,Strovolou,35.0826502732726,33.3282690675608,2934
2935,304,Agioi Konstantinos and Eleni Church 1,AgKoanElCh,35.0785634262515,33.3256749494736,2935
2936,305,Agioi Konstantinos and Eleni Church 2,AgKoanElCh,35.0793475082399,33.3258316347264,2936
2937,306,Salaminos - Pentadaktylou,Sal-Pen,35.07643245093,33.3267523984284,2937
2938,308,Salaminos - Park,Sal-Par,35.0736195259428,33.3299110749412,2938
2939,310,Filias - Eirinis,Fil-Eir,35.072159845448,33.3294993739366,2939
2940,312,Amathountos - Mpoumpoulinas,Ama-Mpo,35.0712571186188,33.3265343421094,2940
2941,315,Tseri Elementary School B,TsElScB,35.0685942087183,33.3242204967892,2941
2942,317,Archiep. Makariou C - Anagenniseos,ArMaC-An,35.071077885946,33.322749620571,2942
2943,319,Michail Kousoulidi - Dorou Loizou,MiKo-DoLo,35.0736615760718,33.320960961683,2943
2944,321,Kosta Misiaouli - Nikou Kazantzaki,KoMi-NiKa,35.0767676148553,33.3228158997374,2944
2945,330,Ave. Georgiou Griva Digeni - Themistokli Dervi,GeGDi-ThD,35.1631461113951,33.357229265428,2945
2946,331,Ave. Georgiou Griva Digeni - Iasonos,GeGDi-Ia,35.1629939222639,33.356855264624,2946
2947,332,Nikis - Tzon Kennenty,Ni-JoKe,35.1621498264015,33.3587182351632,2947
2948,333,Ave. Kyriakou Matsi - Georgiou Griva Digeni Avenue,KyM-GeGDi,35.1623576079961,33.3585873830712,2948
2949,334,Nikis - 25 Martiou,Ni-25Ma,35.1603297845076,33.3582381004355,2949
2950,335,Nikis - Samou,Nik-Sam,35.1597804274654,33.3580051114441,2950
2951,336,Nikis - Kastoros,Nik-Kas,35.1575354468153,33.3579074378792,2951
2952,337,Nikis - Kasou,Nik-Kas,35.1564449048301,33.3577269883687,2952
2953,338,Bank of Cyprus Oncology Center 1,BaofCyOnCe,35.1523643968928,33.3593340229035,2953
2954,339,Bank of Cyprus Oncology Center 2,BaofCyOnCe,35.1529969561017,33.358875681513,2954
2955,340,Ave. Akropoleos - Mesolongiou,AvAk-Me,35.1497744211072,33.3600252718369,2955
2956,341,Ave. Akropoleos - Kypragorou,AvAk-Ky,35.1493961946016,33.3598589265735,2956
2957,342,Ave. Georgiou Paraskevaidi - Akropolis Park 1,GePa-AkP,35.1472040421581,33.3601896043787,2957
2958,343,Ave. Georgiou Paraskevaidi - Akropolis Park 2,GePa-AkP,35.1463750939152,33.3599773658343,2958
2959,344,Ave. Iosif Chr. Chatziiosif - Paraskeva Ioannou,ICCh-PaIo,35.144338642721,33.3594963473004,2959
2960,345,Ave. Iosif Chr. Chatziiosif - Ave. Athalassas,ICCh-At,35.1440779621876,33.3592207533045,2960
2961,346,Ave. Iosif Chr. Chatziiosif - Laodikeias,ICCh-La,35.1407796393108,33.3585585917607,2961
2962,347,Ave. Iosif Chr. Chatziiosif - Perikleous,ICCh-Pe,35.1399150408078,33.3582035252057,2962
2963,348,Ave. Iosif Chr. Chatziiosif - Stavrou 1,ICCh-St,35.1368855037083,33.3581243930857,2963
2964,349,Ave. Iosif Chr. Chatziiosif - Stavrou 2,ICCh-St,35.1361103607235,33.3580112302241,2964
2965,350,Ave. Iosif Chr. Chatziiosif - Dimokratias,ICCh-Di,35.1340181100332,33.358100860457,2965
2966,351,Ave. Iosif Chatziiosif - Oktagono,AvIoCh-Ok,35.1337842175474,33.357913235396,2966
2967,352,Ave. Iosif Chatziiosif - Lyceum Ap. Varnavas 1,ICh-LyApVa,35.1316301103678,33.3575745220594,2967
2968,353,Ave. Iosif Chatziiosif - Lyceum Ap. Varnavas 2,ICh-LyApVa,35.1318469409399,33.3574327784841,2968
2969,354,Ave. Iosif Chatziiosif - Spyrou Kyprianou Avenue,ICh-SpKy,35.1285129199443,33.3566389268962,2969
2970,355,Ave. Iosif Chr. Chatziiosif - Sinopis,ICCh-Si,35.1287837551087,33.3565303490891,2970
2971,356,Ave. Dimitriou Vikela - Propylaion,AvDiVi-Pr,35.1264483645828,33.3565091955253,2971
2972,357,Ave. Dimitriou Vikela - Spyrou Kyprianou Avenue,DiVi-SpKy,35.12594402137,33.3562984636804,2972
2973,358,Ave. Dimitriou Vikela - Nikola Savva Barri,DiVi-NiSB,35.1199914551018,33.3567115304596,2973
2974,359,Ave. Dimitriou Vikela - Dim. Vikela Side-Street,DiVi-DViSi,35.1204973804523,33.3563844935431,2974
2975,360,Ave. Dimitriou Vikela - Giannou Kranidioti,DiVi-GiKr,35.1165475077295,33.3564989829686,2975
2976,361,Ave. Dimitriou Vikela - 25 Martiou Avenue,DiVi-2Ma,35.1165755267941,33.3561698784204,2976
2977,366,Filopappou - Agios Fanourios Church 1,Fi-AgFaCh,35.1073916047186,33.354593700269,2977
2978,367,Filopappou - Agios Fanourios Church 2,Fi-AgFaCh,35.1076267553839,33.3543533123191,2978
2979,368,Ferekrati - Filopoimenos,Fer-Fil,35.1059457120714,33.3494631418518,2979
2980,369,Ferekrati - Marikas Kotopouli,Fe-MaKo,35.1062527367118,33.3493108326193,2980
2981,370,Filopappou - Ippolytou,Fil-Ipp,35.1038362603306,33.3554670759145,2981
2982,371,Filopappou,Fil-Fok,35.1034492319697,33.3552240015533,2982
2983,372,Spyrou Kyprianou - Senior School 1,SpKy-SeSc,35.1060622550221,33.3589551211896,2983
2984,373,Spyrou Kyprianou - Senior School 2,SpKy-SeSc,35.1059460392974,33.3586144550465,2984
2985,374,Ave. Ioustinianou - Nefelis,AvIo-Ne,35.1049058329424,33.3657311507968,2985
2986,375,Ave. Ioustinianou - Agias Sofias,AvIo-AgSo,35.1048342586992,33.3655442961639,2986
2987,376,Ave. Makedonias - Agias Sofias,AvMa-AgSo,35.1031153377018,33.3674129044962,2987
2988,377,Ave. Makedonias - Tseriou,AvMa-Ts,35.1029522648203,33.3676645377139,2988
2989,378,Cyprus Pedagogical Institute / Univ. of Cyprus 1,CyPeIn/UoC,35.0994449780092,33.3704905175082,2989
2990,379,Cyprus Pedagogical Institute / Univ. of Cyprus 2,CyPeIn/UoC,35.0995627031604,33.3703264711085,2990
2991,390,Kantaras - Vasili Chatzigianni,Ka-VaCh,35.1373801444484,33.3365567249384,2991
2992,391,Kantaras - Kosti Palama,Ka-KoPa,35.138751045416,33.3364525951216,2992
2993,392,Kantaras - Nikokleous,Kan-Nik,35.1350104788111,33.3358883709387,2993
2994,393,Kantaras - Ileias,Kan-Ile,35.1351638605197,33.3358560707177,2994
2995,394,Kantaras - Thessalias,Kan-The,35.1310209444394,33.334049943843,2995
2996,395,Kantaras - Agiou Stefanou,Ka-AgSt,35.1312193204775,33.3340507540025,2996
2997,396,Kantaras - Symis,Kan-Sym,35.1284719457505,33.3330078070179,2997
2998,397,Kantaras - Ekalis,Kan-Eka,35.1285084060928,33.3328652696529,2998
2999,403,Ippokratous - Frygias,Ipp-Fry,35.1124481339295,33.3297931577977,2999
3000,404,Ippokratous - Agias Zonis,Ip-AgZo,35.1125830623412,33.3299144120867,3000
3001,405,Ippokratous - Kappadokias,Ipp-Kap,35.1129387281224,33.3250983722005,3001
3002,406,Ippokratous - Kallipoleos,Ipp-Kal,35.1130190873236,33.3253949827653,3002
3003,407,Karavostasiou - Assias,Kar-Ass,35.1157445833652,33.3245388630575,3003
3004,408,Karavostasiou - Mousoulitas,Kar-Mou,35.1158072918096,33.3246927495327,3004
3005,409,Karavostasiou - Smyrnis,Kar-Smy,35.1189768977515,33.3263515083804,3005
3006,410,Karavostasiou - Agiou Memnonos,Ka-AgMe,35.1190937656453,33.3264836692872,3006
3007,411,Agios Stylianos High School 1,AgStHiSc,35.1209928999241,33.3244279795532,3007
3009,469,Ave. Giannou Kranidioti - 25 Martiou,GiKr-25Ma,35.0942504573738,33.3794305066363,3009
3010,470,Ave. Giannou Kranidioti - Athanasiou Diakou,GiKr-AtDi,35.0946838618033,33.3792460026695,3010
3011,471,Ave. Giannou Kranidioti - Areos,AvGiKr-Ar,35.0911938303112,33.3793614941005,3011
3012,472,Ave. Giannou Kranidioti - Olympias,AvGiKr-Ol,35.0911311223572,33.3792295540923,3012
3017,487,Odysseos - Vladimirou Kafkaridi 2,Od-VlKa,35.072752620174,33.3882043582051,3017
3026,510,Ave. Archiepiskopou Makariou C - Aiantos,ArMaC-Ai,35.1167058504821,33.3786237261302,3026
3027,511,Ave. Arch. Makariou C - Giannou Kranidioti Ave.,AMaC-GiKr,35.1171313312049,33.3780879546254,3027
3028,512,Ave. Archiep. Makariou C - Artemiou Fragkeskou,ArMaC-ArFr,35.1142375218471,33.3807412432467,3028
3029,513,Ave. Archiep. Makariou C - Petrou Giallourou,ArMaC-PeGi,35.1142200045976,33.3805765533496,3029
3030,514,Ave. Archiepiskopou Makariou C - Nikou Evagorou,ArMaC-NEv,35.1122942931075,33.3821807238965,3030
3031,515,Ave. Archiepiskopou Makariou C - Petrou Iliadi,ArMaC-PeIl,35.1123129843941,33.3819723120534,3031
3032,516,Ave. Arch. Makariou C - Christodoulou Englezou,AMaC-ChEn,35.109266878092,33.3842844227256,3032
3033,517,Ave. Archiepiskopou Makariou C - Riga Feraiou,ArMaC-RFe,35.1092673997339,33.3841198267482,3033
3034,518,Ave. Archiep. Makariou C - Panagias Melandrinas,ArMaC-PaMe,35.106161485516,33.385378100198,3034
3035,519,Ave. Archiepiskopou Makariou C - Kimonos,ArMaC-Ki,35.106125940286,33.38521334078,3035
3036,524,Ave. Geriou - Dimitri Christodoulou,AvGe-DiCh,35.1057928250388,33.393474262039,3036
3037,525,Ave. Geriou - Apostolou Andreou,AvGe-ApAn,35.1056846557995,33.3934627694414,3037
3038,526,Ave. Geriou - Mazeron,AvGe-Ma,35.1063602299327,33.39645062699,3038
3039,527,Ave. Geriou - Archiepiskopou Kyprianou,AvGe-ArKy,35.1062160645045,33.3964170104442,3039
3040,528,Ave. Geriou - Odyssea Elyti,AvGe-OdEl,35.1071674381551,33.4005145238919,3040
3041,529,Ave. Geriou - Alexandrou Ypsilanti,AvGe-AlYp,35.1072978639137,33.4019745652106,3041
3042,530,Geri Municipal Stadium,GerMunSta,35.1067884329398,33.4060210592968,3042
3043,531,Ave. Geriou - Steliou Mavrommati,AvGe-StMa,35.1066527728105,33.406141088058,3043
3044,532,Ave. Geriou - ASPIS,AvGe-AS,35.1059212251355,33.4091659433717,3044
3045,533,Ave. Geriou - Geri Commumity Stadium,Ge-GCoSt,35.1058039293746,33.4091873026782,3045
3046,534,Ave. Geriou - Ammochostou,AvGe-Am,35.1055613997514,33.4142225686507,3046
3047,535,Ave. Geriou - Epistrofis,AvGe-Ep,35.1055066224839,33.4144198003055,3047
3048,536,Geri Elementary School A,GeElScA,35.1060884452192,33.4182961394005,3048
3049,537,Geri Community Board,GerComBoa,35.105945118698,33.4180210879329,3049
3050,538,Agiou Mina - Griva Digeni,AgMi-GrDi,35.1063078563674,33.4226315223646,3050
3051,539,Agios Minas Church,AgiMinChu,35.1061928899944,33.4219835337622,3051
3052,540,Griva Digeni - Meletiou Metaxaki,GrDi-MeMe,35.1067554915141,33.4235555545626,3052
3053,541,Griva Digeni - Nikou Kazantzaki,GrDi-NiKa,35.108320232308,33.4247706892803,3053
3054,542,Griva Digeni - Thaleias,GrDi-Th,35.1105591535819,33.4265819417309,3054
3055,550,Avenue Morfou - Archangelou Michail,AvMo-ArMi,35.1373620133756,33.3095312227799,3055
3056,580,Ave. Omirou,Ave.Omiro,35.1701737999665,33.3591488032536,3056
3057,581,Eleftheria Square,EleftSquar,35.1685241073787,33.362029603427,3057
3058,582,Bastion Davila,BastiDavil,35.1685125276104,33.3628860850149,3058
3059,583,Ave. Stasinou - Archiepiskopou Makariou B Square,St-ArMaBSq,35.1684963159087,33.3652799120464,3059
3060,584,Ave. Stasinou - Kritis,AvSt-Kr,35.1682151650405,33.3658167311003,3060
3061,585,Ave. Stasinou - Archiepiskopou Makariou B Square,St-ArMaBSq,35.1692447677516,33.3682482068855,3061
3062,586,Ave. Stasinou - Alkaiou,AvSt-Al,35.1690375102022,33.3682033474436,3062
3063,589,Ave. Kallipoleos - Deligianni,AvKa-De,35.1660259348931,33.3711106798266,3063
3065,591,Ave. Kallipoleos - Peiraios,AvKa-Pe,35.1631141544998,33.3737986461975,3065
3067,593,Ave. Kallipoleos - University of Cyprus 1,Ka-UnoCy,35.1603600986645,33.3750377765631,3067
3069,595,Ave. Kallipoleos - Productivity Centre 1,AvKa-PrCe,35.1577697669428,33.3758164289689,3069
3071,597,Ave. Aglantzias - Archiepiskopo. Makariou C Ave.,Ag-ArMaC,35.1552604460424,33.3766393236877,3071
3072,598,Ave. Aglantzias - Lemesou Avenue,AvAg-LeAv,35.155179224645,33.376660908143,3072
3073,599,Ave. Aglantzias - H.H.I.C. 1,AvAg-H.,35.1557253062661,33.3808136631177,3073
3074,600,Ave. Aglantzias - H.H.I.C. 2,AvAg-H.,35.1555986539496,33.3809448262997,3074
3075,601,Ave. Aglantzias - Esperidon,AvAg-Es,35.1571135537119,33.383795617831,3075
3076,602,Ave. Aglantzias - Archiepiskopou Makariou C,Ag-ArMaC,35.1569780203671,33.383882818331,3076
3077,603,Ave. Archiep. Makariou C - Agamemnonos,ArMaC-Ag,35.1566561123225,33.3858686115541,3077
3078,604,Ave. Archiep. Makariou C - Aristotelous,ArMaC-Ar,35.1565658024115,33.3859121034168,3078
3079,605,Ave. Archiep. Makariou C - Archimidous,ArMaC-Ar,35.1557800862427,33.3891143979735,3079
3080,606,Ave. Archiep. Makariou C - Argous,ArMaC-Ar,35.1556078461009,33.3893990434283,3080
3081,607,Ave. Archiep. Makariou C - Georgiou Griva Digeni,ArMaC-GeGD,35.1547219970091,33.3928642893115,3081
3082,608,Ave. Archiep. Makariou C - Kavalas,ArMaC-Ka,35.1548135902034,33.3924255561382,3082
3083,609,Kefallinias - Theodorou Kolokotroni,Ke-ThKo,35.1531038894264,33.3941081292063,3083
3084,610,Grigori Afxentiou - Artas,GrAf-Ar,35.1535815403796,33.3941872867401,3084
3085,611,Kefallinias - Mesolongiou 1,Kef-Mes,35.1531109762785,33.39192332085,3085
3086,612,Kefallinias - Kavalas,Kef-Kav,35.153218683015,33.3920775450751,3086
3087,613,Kefallinias - Manis,Kef-Man,35.1533367252521,33.3890259105514,3087
3088,614,Kefallinias - Kalamatas,Kef-Kal,35.153390263136,33.3892018317521,3088
3089,615,Kefallinias - Kentavrou,Kef-Ken,35.1531390604262,33.3859837549763,3089
3090,616,Kefallinias - Thivon,Kef-Thi,35.1530945698177,33.3857969000027,3090
3091,617,Kentavrou - Pelopos,Ken-Pel,35.1519801878486,33.3874494625744,3091
3092,618,Kentavrou - Promitheos,Ken-Pro,35.1518447571736,33.3875037152717,3092
3095,621,Ave. Kiryneias - Aglantzia Health Centre 1,Ki-AgHeCe,35.1495802395558,33.3934763355959,3095
3096,622,Ave. Kiryneias - Aglantzia Health Centre 2,Ki-AgHeCe,35.1496615708482,33.3934218338861,3096
3097,623,Ave. Kiryneias - Apostolos Andreas Church 1,Ki-ApAnCh,35.1488876340352,33.3901574820819,3097
3098,624,Ave. Kiryneias - Apostolos Andreas Church 2,Ki-ApAnCh,35.1489611480001,33.3897296694374,3098
3099,627,Theofilou Georgiadi - Ioanni Psychari,ThGe-IoPs,35.1439460276542,33.3902217213399,3099
3100,628,Theofilou Georgiadi - Louki Akrita,ThGe-LoAk,35.1437658286978,33.3901769498402,3100
3101,629,Gianni Psychari - Ioanni Grypari,GiPs-IoGr,35.1433606036993,33.3927987099951,3101
3102,630,Gianni Psychari - Kosta Krystalli,GiPs-KoKr,35.1432619146056,33.3926445468576,3102
3103,631,Ave. Kallitheas - Ioanni Psychari,AvKa-IoPs,35.1440308875149,33.3946462155944,3103
3104,632,Ave. Kallitheas - Atalantis,AvKa-At,35.1441208073501,33.3947234949486,3104
3105,633,Ave. Kallitheas - Egnatias,AvKa-Eg,35.1464092312597,33.3953163892404,3105
3106,634,Ave. Kallitheas - Tamasou,AvKa-Ta,35.1463728050283,33.3954259951133,3106
3107,637,Ave. Kiryneias - Valtetsiou,AvKi-Va,35.1468801495634,33.4001930179964,3107
3108,638,Ave. Kiryneias - Egnatias,AvKi-Eg,35.1469347590797,33.4000395894814,3108
3109,640,Ave. Kiryneias - Athalassa Park 2,AvKi-AtPa,35.1450221674864,33.4030491853514,3109
3110,641,University of Cyprus - Oceanography Center,UnoCy-OcCe,35.1443862687783,33.4071517965074,3110
3111,642,University of Cyprus - University House,UnoCy-UnH,35.1460482761817,33.4089824472376,3111
3112,643,University of Cyprus - Parking Place,UnoCy-PaP,35.1472155482355,33.4104484021488,3112
3113,646,Ave. Athalassis - UCY Student Halls 2,At-UStH,35.1437463814322,33.4043602372873,3113
3114,647,Ave. Athalassis - UCY Student Halls 1,At-UStH,35.1438813067368,33.4044597053849,3114
3115,650,Makedonitissis - School for the Deaf 2,Ma-ScftD,35.1637176613547,33.3136389523771,3115
3116,651,Makedonitissis - School for the Deaf 1,Ma-ScftD,35.1637894566526,33.3137709949041,3116
3117,652,Agios Dometios Police Station 2,AgDoPoSt,35.1682952949492,33.3317205650544,3117
3118,653,Ave. Kyriakou Matsi - Neas Egkomis,KyM-NEg,35.1682563232066,33.3294802482566,3118
3119,654,Agios Dometios Police Station 1,AgDoPoSt,35.1684008795973,33.3326763572084,3119
3120,655,Ave. Kyriakou Matsi - Konstantinou Kanari,KyM-KoKa,35.1686122688282,33.3345001000144,3120
3121,656,Ave. Kyriakou Matsi - Egkomis,AvKyMa-Eg,35.168540102215,33.3345107856869,3121
3122,657,Prigipos Karolou - Kyriakou Matsi Avenue,PrKa-KyM,35.1689459278779,33.337740938081,3122
3123,658,Prigipos Karolou - Vasileos Georgiou,PrKa-VaGe,35.1688559106146,33.3376856596343,3123
3124,659,Prigipos Karolou - Vasileos Tefkrou,PrKa-VaTe,35.1690377696294,33.3403658416335,3124
3125,660,Prigipos Karolou - Vasileos Konstantinou,PrKa-VaKo,35.1689662810938,33.3401349372564,3125
3126,661,Ave. Salaminos - Anoigma Kolokasi 1,AvSa-AnKo,35.1721217296881,33.3710395418196,3126
3127,662,Ave. Salaminos - Anoigma Kolokasi 2,AvSa-AnKo,35.1710398246555,33.3709907006317,3127
3128,663,Larnakos -Tzon Kennenty Avenue,La-JoKeAv,35.1723411514095,33.3729952816324,3128
3129,664,Larnakos - Volonaki,Lar-Vol,35.1722150487511,33.3729507789734,3129
3130,665,Larnakos - Stylianou Lena,La-StLe,35.1703011496623,33.3765988545444,3130
3131,666,Larnakos - Digeni Akrita Avenue,La-DiAkAv,35.1706277398092,33.3759634351733,3131
3132,667,Larnakos - Lordou Vyronos,La-LoVy,35.1688343044694,33.3785467499625,3132
3133,668,Larnakos - Dios,Lar-Dio,35.1692512802464,33.3778458802729,3133
3134,669,Larnakos - Lakonias,Lar-Lak,35.1662461782528,33.3814886126309,3134
3135,670,Larnakos - Andrea Dimitriou,La-AnDi,35.1665815692603,33.3809301518236,3135
3136,671,Larnakos - Akadimia Park 1,La-AkPa,35.1638581650781,33.3838602420496,3136
3137,672,Larnakos - Akadimia Park 2,La-AkPa,35.1641842025237,33.3834115693828,3137
3138,673,Larnakos - Dionysiou Solomou,La-DiSo,35.1607995880416,33.3872497167874,3138
3139,674,Larnakos - Parthenonos,Lar-Par,35.1607369252419,33.3871066780304,3139
3140,675,Larnakos - Kalliopis,Lar-Kal,35.1593483465467,33.3898999862064,3140
3141,676,Larnakos - Athinas,Lar-Ath,35.159095340547,33.3900634776295,3141
3142,677,Larnakos - Parnassou,Lar-Par,35.1579773106186,33.3928250408062,3142
3143,678,Larnakos - Aglantzias Avenue,La-AgAv,35.1578330387169,33.3928243472456,3143
3144,679,Larnakos - Parnithos,Lar-Par,35.1570328689589,33.3948736923646,3144
3145,680,Larnakos - Grigoriou Lampraki,La-GrLa,35.156907096164,33.3947303495763,3145
3146,681,Larnakos - Irakleous,Lar-Ira,35.1558073545048,33.3973820689846,3146
3147,682,Larnakos - Markou Drakou,La-MaDr,35.1553086442271,33.3982250578305,3147
3148,683,Larnakos - Metsovou,Lar-Met,35.1540545201082,33.4011833393769,3148
3149,684,Larnakos - Athalassis Avenue,La-AtAv,35.1538918143343,33.4013033119756,3149
3150,685,Larnakos - Stadiou,Lar-Sta,35.1528921043299,33.4036589041939,3150
3151,686,Larnakos - Charilaou Michail,La-ChMi,35.1527656835822,33.4037131750903,3151
3152,687,Larnakos - Ilysion,Lar-Ily,35.150903228662,33.4078759218881,3152
3153,688,Larnakos,Larnakos,35.150676805777,33.4081712189029,3153
3154,689,Larnakos - Lidras,Lar-Lid,35.148458383123,33.4135505724348,3154
3155,690,Larnakos - Panepistimiou Avenue,La-PaAv,35.1484874185252,33.412968860005,3155
3156,691,University of Cyprus - North Campus Entrance,UnoCy-NCaE,35.1469279782314,33.4154530487227,3156
3157,700,Ilia Papakyriakou - Prodromou Xenofontos,IlPa-PrXe,35.1574072477434,33.3130218253374,3157
3158,702,Makedonitissis - Volou,Mak-Vol,35.1598896327,33.3119882300981,3158
3159,703,Makedonitissis - Papaflesa,Mak-Pap,35.1598803611156,33.3120870151481,3159
3160,704,Georg. Griva Digeni Ave. - Kolakasidi Roundabout 1,GeGDi-KoRo,35.1658331978129,33.3184347245845,3160
3161,705,Markou Drakou - Ag. Dometios-Engomi Ind. Area 2,MaDr-ADoIn,35.1649078110405,33.3205723584704,3161
3162,706,Ave. Georgiou Griva Digeni - Neas Egkomis,GeGDi-NEg,35.1643854001784,33.3237437169393,3162
3163,707,Ave. Georgiou Griva Digeni - Hilton Park 2,GeGDi-HiP,35.1642034480622,33.3276960213495,3163
3164,708,Ave. Georgiou Griva Digeni - 25 Martiou,GeGDi-2Ma,35.164079278944,33.3302540050329,3164
3165,709,Ave. Georgiou Griva Digeni - Grigori Afxentiou,GeGDi-GrAf,35.1631463342177,33.3350596846282,3165
3166,710,Ave. Georgiou Griva Digeni - Iakovou Patatsou,GeGDi-IaPa,35.1621033724326,33.3372185343613,3166
3167,711,Ave. Georgiou Griva Digeni - Metochi Kikkou 2,GeGDi-MeKi,35.1609041560846,33.3404197967511,3167
3168,712,Ave. Georgiou Griva Digeni - Engomi High School 2,GeGDi-EnHS,35.1624413524021,33.3452795308849,3168
3169,713,Ave. Georgiou Griva Digeni - Prodromou 2,GeGDi-Pr,35.1642091903337,33.3482627501334,3169
3170,714,Ave. Georgiou Griva Digeni - Lordou Vyronos Avenue,GeGDi-LoVy,35.163945061928,33.3522914978052,3170
3171,715,Ave. Georgiou Griva Digeni - Kosta Chatzopoulou,GeGDi-KCh,35.1635857702818,33.3549033152014,3171
3172,716,Ave. Spyrou Kyprianou - Giannou Kranidioti,SpKy-GiKr,35.1631112610381,33.3598644250527,3172
3173,717,Ave. Spyrou Kyprianou - E.A.C. 2,AvSpKy-E.,35.1639803853698,33.3617239719105,3173
3174,718,Ave. Digeni Akrita - Kypranoros,AvDiAk-Ky,35.1646751214781,33.3645930042265,3174
3175,719,Ave. Digeni Akrita - Theodosiou,AvDiAk-Th,35.1655034778675,33.3679787830049,3175
3176,720,Ave. Digeni Akrita - Agios Antonios Market 1,DiAk-AAnMa,35.1671199487739,33.37014932196,3176
3177,721,Ave. Digeni Akrita - Polykleitou,AvDiAk-Po,35.1690862188124,33.3729145296715,3177
3178,722,Ave. Digeni Akrita - Archemou,AvDiAk-Ar,35.1703899248265,33.3741394217228,3178
3179,723,Markou Drakou - Aristeidou,MaDr-Ar,35.1726838864465,33.3758850464176,3179
3180,724,Markou Drakou - Tzon Kennenty Avenue,MaDr-JKe,35.1726294777796,33.375983631652,3180
3181,725,Agiou Andreou - Praxandrou,AgAn-Pr,35.1748269268017,33.3768613293833,3181
3182,726,Agiou Andreou - Markou Drakou,AgAn-MaDr,35.1747635687111,33.3769379111749,3182
3183,727,Agiou Andreou - Evangelistria Church 1,AgAn-EvCh,35.1766951245031,33.3792201602236,3183
3184,728,Agiou Andreou - Evangelistria Church 2,AgAn-EvCh,35.1765687836269,33.3792525202926,3184
3185,729,Agiou Andreou - Tilou,AgAn-Ti,35.1791099150346,33.3826579491893,3185
3186,730,Agiou Andreou - Sokratous,AgAn-So,35.1792081298565,33.3829659228681,3186
3187,731,Agiou Andreou - Nikolaou Ioannou,AgAn-NiIo,35.1810949032258,33.3851164334229,3187
3188,732,Agiou Andreou - Irakleiou,AgAn-Ir,35.1810944142399,33.385270191347,3188
3189,733,Kantaras - Evagorou,Kan-Eva,35.1831718359245,33.3870043500282,3189
3190,734,Kantaras - Georgiou Zachariou,Ka-GeZa,35.1832430588515,33.3872902498712,3190
3191,735,Kantaras ,Kanta,35.184338694967,33.3886793446841,3191
3192,736,Kantaras - Kantaras,Kan-Kan,35.1846431549567,33.389339795272,3192
3193,737,Agiou Ilarionos - Roundabout Sopaz 1,AgIl-RoSo,35.1843453634493,33.3922050185236,3193
3194,738,Agiou Ilarionos - Roundabout Sopaz 2,AgIl-RoSo,35.1843010964312,33.3919521898989,3194
3195,739,Agiou Ilarionos - Municipal Market 1,AgIl-MuMa,35.1811807931646,33.3948476730223,3195
3196,740,Agiou Ilarionos - Municipal Market 2,AgIl-MuMa,35.1812084525437,33.3946610977498,3196
3197,741,Agiou Ilarionos,AgiouIlari,35.177941088788,33.3956337247186,3197
3198,742,Agiou Ilarionos - Kolokotroni,AgIl-Ko,35.1787719399024,33.3952423784857,3198
3201,745,Ave. Digeni Akrita - Imvrou,AvDiAk-Im,35.1701195167146,33.3741052388471,3201
3202,746,Ave. Digeni Akrita - Nafpaktou,AvDiAk-Na,35.1686722141035,33.3726600717402,3202
3203,747,Ave. Digeni Akrita - Agios Antonios Market 2,DiAk-AAnMa,35.166840723569,33.3700492280287,3203
3204,748,Ave. Digeni Akrita - Dimitsanis,AvDiAk-Di,35.1648037474777,33.3667897165298,3204
3205,749,Ave. Spyrou Kyprianou - E.A.C. 1,AvSpKy-E.,35.1643094810361,33.363240755468,3205
3206,750,Ave. Spyrou Kyprianou - Skopa,AvSpKy-Sk,35.1631725520934,33.3604796015874,3206
3207,751,Ave. Georgiou Griva Digeni - Simou Menardou,GeGDi-SMe,35.1637008675452,33.3525429974023,3207
3208,752,Ave. Georgiou Griva Digeni - Prodromou 1,GeGDi-Pr,35.1641323080403,33.3499095135503,3208
3209,753,Ave. Georgiou Griva Digeni - Europa Hotel,GeGDi-EuH,35.162988916153,33.346149300987,3209
3210,754,Ave. Georgiou Griva Digeni - Engomi High School 1,GeGDi-EnHS,35.1613009026507,33.34361669671,3210
3211,755,Ave. Georgiou Griva Digeni - Metochi Kikkou 1,GeGDi-MeKi,35.1607047007138,33.3408032709995,3211
3212,756,Ave. Georgiou Griva Digeni - Archangelou Michail,GeGDi-ArMi,35.1618232326204,33.3374369841471,3212
3213,757,Ave. Georgiou Griva Digeni,AvGeGrDi,35.1628389952049,33.3353329351681,3213
3214,758,Ave. Georgiou Griva Digeni - Nikou Kranidioti,GeGDi-NKr,35.1638126213518,33.3321415854085,3214
3215,759,Ave. Georgiou Griva Digeni - Engomi Old Cemetery,GeGDi-EnOC,35.1639737046588,33.329287285989,3215
3216,760,Ave. Georgiou Griva Digeni - Hilton Park 1,GeGDi-HiP,35.1641171007951,33.3262791757632,3216
3217,761,Ave. G. Griva Digeni - Cyprus Football Association,GGDi-CyFoA,35.1642780167762,33.3234358335579,3217
3218,762,Av. Griva Digeni - Ag. Dometios-Engomi Ind. Area 1,GDi-ADoIA,35.1648452145143,33.3203744599751,3218
3219,763,Georg. Griva Digeni Ave. - Kolakasidi Roundabout 2,GeGDi-KoRo,35.165888165599,33.3181055131897,3219
3220,770,Ave. Salaminos - Vasileos Georgiou B Square,Sa-VaGeBSq,35.175028451496,33.3729306811504,3220
3221,771,Ave. Salaminos - Aigeos,AvSa-Ai,35.1748382153112,33.3732153453627,3221
3222,772,Ave. Pouliou Kapota - Aigeos,AvPoKa-Ai,35.1760132998531,33.3752084931748,3222
3224,774,Ave. Kyriakou Matsi - Aiakou,AvKyMa-Ai,35.1787092757016,33.3781532240896,3224
3225,775,Ave. Kyriakou Matsi - Gianni Freiderikou,KyM-GiFr,35.1788169993213,33.37830747898,3225
3226,776,Ave. Archiep. Makariou C - Pavlou Karolidi,ArMaC-PaKa,35.1797969570722,33.3763461157377,3226
3227,777,Ave. Archiep. Makariou C - Kyriakou Matsi Avenue,ArMaC-KyM,35.1797066166517,33.3764006127774,3227
3228,778,Ave. Archiep. Makariou C - Napoleontos,ArMaC-Na,35.1817587269407,33.3776181999064,3228
3229,779,Ave. Archiep. Makariou C - Spartis,ArMaC-Sp,35.1817583844783,33.3777280279843,3229
3230,780,Ave. Archiep. Makariou C - Tinou,ArMaC-T,35.1835395244155,33.3790872033564,3230
3231,781,Ave. Archiep. Makariou C - Strymonos,ArMaC-St,35.1834671479977,33.3791637496368,3231
3232,782,Ave. Archiep. Makariou C - Vasileos Pavlou,ArMaC-VaPa,35.1855933287701,33.3797557498071,3232
3236,787,Andromachis - Argous,And-Arg,35.1899020150118,33.3887497729741,3236
3238,789,Smyrnis - Kaimakli Grammiko Park 2,Sm-KaGrPa,35.191483466977,33.3876698631389,3238
3240,791,Smyrnis - Markou Drakou 2,Sm-MaDr,35.1906437245318,33.3852054229151,3240
3242,793,Smyrnis-Eleousis,Smyrnis-El,35.1898851882415,33.3827084618902,3242
3245,796,Larisis - Archangelou Michail,La-ArMi,35.1853849738815,33.3800623172002,3245
3252,806,Archagelou Michail - Makedonias Avenue,ArMi-MaAv,35.1553087283879,33.3324034641388,3252
3257,813,Prodromou - Theodorou Kolokotroni,Pr-ThKo,35.154933311959,33.3441388898542,3257
3258,814,Prodromou - Irodou Attikou,Pr-IrAt,35.1547985550705,33.3439626527043,3258
3259,815,Prodromou - Solonos,Pro-Sol,35.1520863222455,33.343281519624,3259
3261,817,Strovolos Municipal Library,StrMunLib,35.1504196901113,33.3427365602932,3261
3265,821,Ave. Athalassas - 28 Oktovriou,AvAt-28Ok,35.1496354730969,33.3489581728747,3265
3266,822,Ave. Athalassas - Strovolou Avenue,AvAt-StAv,35.1496908393089,33.3485192625446,3266
3267,823,Ave. Athalassas - Adamantiou Korai,AvAt-AdKo,35.1488178815494,33.351051585507,3267
3268,824,Ave. Athalassas - Defkalionos,AvAt-De,35.1485554324537,33.3513798138086,3268
3269,825,Ave. Athalassas - Ious,AvAt-Io,35.1475090048999,33.3546249140549,3269
3270,826,Ave. Athalassas - Peiraios,AvAt-Pe,35.1473101477786,33.3547887265677,3270
3271,827,Ave. Athalassas - Nicosia Water Board 2,At-NiWB,35.1464183453464,33.3575513688115,3271
3272,828,Ave. Athalassas - Nicosia Water Board 1,At-NiWB,35.1462918475022,33.3576386412,3272
3273,829,Ave. Athalassas - Georgiou Paraskevaidi Avenue,At-GePa,35.1453087972236,33.3607411357836,3273
3274,830,Ave. Athalassas - Iosif Chr. Chatziiosif Avenue,At-ICCh,35.1450192054376,33.361091155062,3274
3275,831,Ave. Athalassas - Kalliopis,AvAt-Ka,35.1440997141774,33.3640181961357,3275
3276,832,Ave. Athalassas - Michalaki Kousoulidi,AvAt-MiKo,35.1439190434628,33.3641271705653,3276
3277,833,Ave. Athalassas - Pentelis,AvAt-Pe,35.1433545635044,33.3659250173429,3277
3278,834,Ave. Athalassas - Nikou Theofanous,AvAt-NiTh,35.1430192409762,33.3664833825378,3278
3279,835,Ave. Athalassas - Petrou Iliadi,AvAt-PeIl,35.1425181123627,33.3681936569439,3279
3280,836,Ave. Athalassas - Andrea Avraamidi,AvAt-AnAv,35.1423555053648,33.3682917237483,3280
3281,837,Ave. Athalassas - Apostolos Varnavas Church 1,At-ApVaCh,35.1408718979276,33.3728077605045,3281
3282,838,Ave. Athalassas - Apostolos Varnavas Church 2,At-ApVaCh,35.1407732169351,33.3726426486731,3282
3283,839,Avenue Rik - Police Academy 2,AvRi-PoAc,35.14474331762,33.3776447522772,3283
3284,840,Avenue Rik - Police Academy 1,AvRi-PoAc,35.1445731225187,33.3772816931493,3284
3285,841,Avenue Rik - CyBC 1,AvRi-Cy,35.1449318808997,33.3836396195288,3285
3286,842,Avenue Rik - CyBC 2,AvRi-Cy,35.1447712068947,33.3831228999083,3286
3287,845,Ave. Kiryneias - Kekropos,AvKi-Ke,35.1488375961857,33.3860732277324,3287
3289,847,Ave. Kiryneias - Vavyla,AvKi-Va,35.1501787335052,33.3952138534335,3289
3290,848,Ave. Kiryneias - Epidavrou,AvKi-Ep,35.1501945095736,33.3959055887757,3290
3291,849,Ave. Kiryneias - Rigainis,AvKi-Ri,35.1496437680336,33.3988671541507,3291
3292,850,Ave. Kiryneias - Kythreas,AvKi-Ky,35.1492100120912,33.3991504806645,3292
3293,851,Archagelou Michail - Aigaleo,ArMi-Ai,35.155539731518,33.3336560621,3293
3294,855,Metochiou - Kosta Krystalli,Me-KoKr,35.1672234106621,33.3442345836166,3294
3295,856,Metochiou - Sina,Met-Sin,35.1671866558385,33.3444760111716,3295
3296,857,Metochiou - Achaion,Met-Ach,35.1684333175332,33.3468312426755,3296
3297,858,Metochiou - Goudiou,Met-Gou,35.1683971551108,33.3468640326721,3297
3298,863,Avenue Aipeias - Olympou,AvAi-Ol,35.1585170546667,33.3230616731617,3298
3299,864,Avenue Aipeias - Irakleous,AvAi-Ir,35.1587156056703,33.3229965788262,3299
3300,865,Avenue Aipeias - Ikarou 1,AvAi-Ik,35.1569390686559,33.3230554346183,3300
3301,866,Avenue Aipeias - Ikarou 2,AvAi-Ik,35.1568942760435,33.3229454610886,3301
3302,867,Pavlou Mela - Ilia Papakyriakou,PaMe-IlPa,35.1548949519186,33.3186007062075,3302
3303,868,Pavlou Mela - Marathonos,PaMe-Ma,35.1548954714301,33.3184030794274,3303
3304,875,Themistokleous - Mouson,The-Mou,35.1450689306244,33.337587377269,3304
3305,876,Kyriakou Matsi - Veligradiou,KyMa-Ve,35.1462359477275,33.3362199204176,3305
3307,880,Apolloneio Hospital 1,ApollHospi,35.147759176593,33.3198134535275,3307
3308,882,Avenue Lefkotheou - Agias Annas,AvLe-AgAn,35.1475968267882,33.3232270996973,3308
3309,883,Makedonitissis - Amazonon,Mak-Ama,35.1468919643742,33.3271545442767,3309
3310,884,Makedonitissis - Archangelou Michail,Ma-ArMi,35.1468491583231,33.3263090443113,3310
3311,885,Makedonitissis - Old Strovolos Cemetery 1,Ma-OlStCe,35.1466568520456,33.3307215403269,3311
3312,886,Makedonitissis - Old Strovolos Cemetery 2,Ma-OlStCe,35.1465189553771,33.3316870682969,3312
3313,890,Archiepiskopou Kyprianou - Psaron,ArKy-Ps,35.1450888596164,33.3401343679148,3313
3314,891,Alexandroupoleos - Pediaios Driveway 1,Al-PeDr,35.1437171863392,33.3405128866562,3314
3315,892,Alexandroupoleos - Pediaios Driveway 2,Al-PeDr,35.1427703632928,33.340519921048,3315
3316,893,Athinon - Orfeos,Ath-Orf,35.1406289166139,33.3452532623202,3316
3317,894,Athinon - Odysseos,Ath-Ody,35.1412163387,33.344794686401,3317
3318,895,Athinon - Lefkados,Ath-Lef,35.1388111549376,33.3471117125927,3318
3319,896,Athinon - Irakleous,Ath-Ira,35.1388210205731,33.346815369841,3319
3320,905,Apostolos Andreas Church 1,ApoAndChu,35.1345448059851,33.3659185260535,3320
3321,906,Apostolos Andreas Church 2,ApoAndChu,35.1344552980522,33.3656985932859,3321
3322,909,Panagia Trachona Church 2,PanTraChu,35.1304548587654,33.3616305342237,3322
3323,910,Dimokratias - Anagenniseos,Dim-Ana,35.1302311541738,33.36406622814,3323
3324,911,Dimokratias - Lysimachou,Dim-Lys,35.1308910396201,33.3665168436823,3324
3325,912,Dimokratias - Iroon 2,Dim-Iro,35.1316909991668,33.3673655989942,3325
3326,913,Iroon - Aspasias,Iro-Asp,35.1335525981986,33.3660238518167,3326
3327,919,Verginas,Verginas,35.1330948406325,33.3741882675092,3327
3328,921,Athalassis - Department of Forest,At-DeofFo,35.1376882965686,33.3787976895466,3328
3329,923,Athalassis - Agriculture Research Institute,At-AgReIn,35.1383699491183,33.3828294552832,3329
3330,925,Athalassis - Military Camp,At-MiCa,35.1396018892484,33.3978850945119,3330
3331,927,Athalassis - Athalassis Avenue,At-AtAv,35.1405359635377,33.4017427128763,3331
3332,930,Prodromou - Fotiou,Pro-Fot,35.1672724826499,33.3491433111854,3332
3333,931,Prodromou - Lampousas,Pro-Lam,35.1685438829748,33.3491487456078,3333
3334,932,Ministry of Defense 2,MinofDef,35.1649359329694,33.3495286305859,3334
3335,933,Ministry of Defense 1,MinofDef,35.1647375900383,33.3495168012768,3335
3336,934,Prodromou - Kondylaki,Pro-Kon,35.1631006950944,33.3480493958725,3336
3337,935,Prodromou - Georgiou Griva Digeni Avenue,Pr-GeGDi,35.1632989435995,33.348094162434,3337
3338,936,Prodromou Post Office 1,ProPosOff,35.1606259507815,33.3463149721325,3338
3339,937,Prodromou Post Office 2,ProPosOff,35.1607704430565,33.3462387234737,3339
3340,938,Prodromou - Military Camp 1,Pr-MiCa,35.1581310514674,33.3453162157971,3340
3341,939,Prodromou - Military Camp 2,Pr-MiCa,35.1584649010424,33.3452407677028,3341
3342,940,Archiepiskopou Kyprianou - Panagias Chryseleousis,ArKy-PaCh,35.146917009725,33.3409653466374,3342
3343,941,Kyriakou Matsi - Ithakis,KyMa-It,35.1474571371842,33.3380693095584,3343
3344,942,Stadiou - Keravnos Strovolou,St-KeSt,35.1510149781859,33.3394783385272,3344
3345,944,Pythonos - Tseriou Avenue,Py-TsAv,35.1412163685571,33.341600224837,3345
3346,945,Ave. Konstantinoupoleos - Panagioti Georgiadi,AvKo-PaGe,35.1351834811595,33.3417396750465,3346
3347,946,Ave. Konstantinoupoleos - Ariadnis,AvKo-Ar,35.1350483487678,33.3416952035677,3347
3348,947,Elem. School Konstantinoupoleos,EleSchKon,35.1319525764475,33.3427140414329,3348
3349,948,Elementary School Konstantinoupoleos,EleSchKon,35.1323953132192,33.3423975824395,3349
3350,949,High School Konstantinoupoleos 1,HigSchKon,35.128766965901,33.343611691178,3350
3351,950,High School Konstantinoupoleos 2,HigSchKon,35.1288127356731,33.3433704143675,3351
3354,953,Ave. Konstantinoupoleos - Lachana,AvKo-La,35.1221371295119,33.344385020075,3354
3355,954,Ave. Konstantinoupoleos - Spyrou Kyprianou Avenue,Ko-SpKy,35.1221374724539,33.3442642968399,3355
3356,955,Ave. Konstantinoupoleos - Oinouson,AvKo-Oi,35.1207113049795,33.3447741111883,3356
3357,956,Ave. Konstantinoupoleos - Agisipoleos,AvKo-Ag,35.1207116795016,33.3446424154138,3357
3358,957,Odyssea Elyti - Oikonomou Konstantinou,OdEl-OiKo,35.1186650709605,33.3476956825981,3358
3359,958,Odyssea Elyti - Omodous,OdEl-Om,35.1185748684964,33.3477062738369,3359
3360,959,Ouranou - Agiou Charalampous,Ou-AgCh,35.1192431226879,33.3504966567419,3360
3361,960,Ouranou - Agiou Emmanouil,Ou-AgEm,35.1191977198333,33.3506062080156,3361
3362,961,Ouranou - Agiou Xenofontos,Ou-AgXe,35.1215251451971,33.350264984009,3362
3363,962,Ouranou - Agiou Efthymiou,Ou-AgEf,35.1214886010104,33.3504294507959,3363
3364,970,Perikleous - Eirinis,Per-Eir,35.1437531040052,33.3469241134891,3364
3365,971,Perikleous - Artas,Per-Art,35.14370861566,33.3467153452789,3365
3366,972,Perikleous - Androkleous,Per-And,35.1432119731129,33.3500944007743,3366
3367,973,Perikleous - Panagias Tinou,Pe-PaTi,35.1431493293144,33.3499294657053,3367
3368,974,Pefkios Georgiadis Elementary School 2,PeGeElSc,35.1421002498576,33.3540964815239,3368
3369,975,Pefkios Georgiadis Elementary School 1,PeGeElSc,35.1420738720846,33.3538658367958,3369
3370,976,Perikleous - Dervenakion,Per-Der,35.1418369059059,33.3577947955499,3370
3371,977,Perikleous - Iosif Chr. Chatziiosif Avenue,Pe-ICCh,35.1417549093761,33.3580798542821,3371
3372,978,Andrea Avraamidi - Stavrou Stylianidi,AnAv-StSt,35.1414643928582,33.3617780190908,3372
3373,979,Andrea Avraamidi - Livaniou,AnAv-Li,35.141120826918,33.3620838692572,3373
3374,980,Andrea Avraamidi - Aretaeio 1,AnAv-Ar,35.1393445269335,33.3650618215477,3374
3375,981,Andrea Avraamidi - Aretaeio 2,AnAv-Ar,35.1397181211671,33.3637681654799,3375
3376,984,Ave. Akadimias - Kyrineias Avenue,AvAk-KyAv,35.1472753266703,33.3811036447871,3376
3377,985,Ave. Akadimias - Rik Avenue,AvAk-RiAv,35.146859403687,33.3814639887923,3377
3378,986,Ave. Kiryneias - Pallados,AvKi-Pa,35.1487542629076,33.3839210429459,3378
3379,987,Ave. Kiryneias - Akadimias Avenue,AvKi-AkAv,35.1485486789483,33.3833491954001,3379
3380,1001,Ave. Ammochostou - Tzon Kennenty Avenue,Am-JKe,35.1690069908407,33.397819638183,3380
3381,1002,Ave. Ammochostou - Semelis,AvAm-Se,35.1690156471455,33.3979294927784,3381
3392,1020,Kolokotroni - Enotitos,Kol-Eno,35.1776400958775,33.3939190111928,3392
3393,1021,Kolokotroni - Agiou Ilarionos,Ko-AgIl,35.1776483983268,33.3941386993692,3393
3394,1022,Enotitos - Mpelapais,Eno-Mpe,35.1778827607552,33.3913832386274,3394
3395,1023,Enotitos - Michalaki Kousoulidi,En-MiKo,35.1770732193919,33.3907643478972,3395
3396,1024,Enotitos - Michail Paridi,En-MiPa,35.1750751665807,33.3896016701796,3396
3397,1025,Enotitos - Petraki Kyprianou,En-PeKy,35.175219508769,33.3895803946637,3397
3398,1026,Ave. Tzon Kennenty - Psaron,AvTzKe-Ps,35.1725388969519,33.3875579521449,3398
3399,1027,Ave. Tzon Kennenty - Enotitos,AvTzKe-En,35.1726461165207,33.3878659495645,3399
3400,1028,Ave. Tzon Kennenty - Old Cemetery,TKe-OCe,35.172987179049,33.3826951495027,3400
3401,1029,Ave. Tzon Kennenty - Zappeiou,AvTzKe-Za,35.1727626607827,33.3852528459924,3401
3402,1030,Ave. Tzon Kennenty - Andrea Skotti,TKe-AnSk,35.172498784535,33.3802988461582,3402
3403,1031,Ave. Tzon Kennenty - Archiepiskopou Makariou B,TKe-ArMaB,35.1724822321311,33.3798265552282,3403
3404,1032,Ave. Tzon Kennenty - Markou Drakou,TKe-MaDr,35.1720781454437,33.3763983967642,3404
3405,1033,Ave. Tzon Kennenty - Perikleous,AvTzKe-Pe,35.1721507589833,33.3762449879763,3405
3406,1040,Diagorou,Diagorou,35.169683481778,33.3572468736466,3406
3411,1048,Agios Eleftherios Church 1,AgiEleChu,35.1120099454775,33.3837047261826,3411
3412,1049,Agios Eleftherios Church 2,AgiEleChu,35.1119914249681,33.3838582696771,3412
3413,1050,Iroon - Charalampou Kalaitzi,Ir-ChKa,35.1135818647324,33.3827793215309,3413
3414,1051,Iroon 1,Iroon,35.1135101092668,33.3826582741789,3414
3415,1052,Dimokratias - Iroon 1,Dim-Iro,35.1103734711834,33.3850797006522,3415
3416,1053,Dimokratias - Ellados,Dim-Ell,35.1104906582743,33.3850912253181,3416
3417,1054,Dimokratias - Panagioti Georgiadi,Di-PaGe,35.1113746026795,33.3878387612853,3417
3418,1055,Dimokratias - Antistaseos,Dim-Ant,35.1114288806142,33.3877841508764,3418
3419,1056,Antistaseos - Akropoleos,Ant-Akr,35.1146713004234,33.3833001924021,3419
3420,1057,Latsia Health Centre,LatHeaCen,35.1145720779697,33.383310701663,3420
3421,1058,Antistaseos - Plateia Eirinis,An-PlEi,35.1139992395002,33.3848114381223,3421
3422,1059,Antistaseos - Danaon,Ant-Dan,35.1140892708287,33.3848557569097,3422
3423,1060,Antistaseos - Dimokratias,Ant-Dim,35.1130077096223,33.3875282612842,3423
3428,1081,Avenue Eleftherias - Vasileiou Panagopoulou,AvEl-VaPa,35.1567471411798,33.3066950299178,3428
3429,1082,Avenue Eleftherias - Eptanisou,AvEl-Ep,35.15663871386,33.3067824599129,3429
3430,1083,Eptanisou - Eleftherias Avenue,Ep-ElAv,35.1549843931701,33.3048658349567,3430
3431,1084,Eptanisou - Lesvou,Ept-Les,35.1551645966782,33.3049214042975,3431
3432,1085,Eptanisou - Athanasiou Christopoulou,Ep-AtCh,35.1534021097269,33.3065617057452,3432
3433,1086,Eptanisou - Valesta,Ept-Val,35.1532760372079,33.3064953578608,3433
3434,1087,Aristofanous - Tyrtaiou,Ari-Tyr,35.1245695909244,33.3451525541652,3434
3435,1088,Aristofanous - Psiloreiti,Ari-Psi,35.1244614170719,33.345141122535,3435
3436,1089,Aristofanous - Peisistratou,Ari-Pei,35.1252465726307,33.3480638877128,3436
3437,1090,Aristofanous - Angelou Sikelianou,Ar-AnSi,35.1251651666649,33.348151344387,3437
3438,1091,Aristofanous - Inomenon Ethnon Square,Ar-InEtSq,35.1272530554239,33.3495760892008,3438
3439,1092,Aristofanous - Ptolemaidos,Ari-Pto,35.1273518317311,33.3497191949752,3439
3440,1093,Agios Spiridonas Elem. School 1,AgSpElSc,35.129488563377,33.3498380893725,3440
3441,1094,Agios Spiridonas Elem. School 2,AgSpElSc,35.1292368135305,33.3495845665311,3441
3442,1095,Nafsikas - Nikomideias,Naf-Nik,35.1296291910951,33.3479727752098,3442
3443,1096,Nafsikas - Pafsaniou,Naf-Paf,35.129521143663,33.3479174357845,3443
3444,1097,Georgiou Seferi - Pansedon,GeSe-Pa,35.1284867907494,33.3470020433715,3444
3445,1098,Georgiou Seferi - Pinelopis,GeSe-Pi,35.1284323739548,33.3471115706838,3445
3446,1099,Georgiou Seferi - High School Konstantinoupoleos 2,GeSe-HScKo,35.1268693551954,33.345019573782,3446
3447,1100,Georgiou Seferi - High School Konstantinoupoleos 1,GeSe-HScKo,35.12677921555,33.3450082180347,3447
3450,1109,Idaliou - Ioanni Kapodistria,Id-IoKa,35.0855161372708,33.3953075896539,3450
3451,1110,Idaliou - Filippou,Ida-Fil,35.0856238059393,33.3954726599606,3451
3452,1111,Dimitri Stavrou - Sporting Club 1,DiSt-SpCl,35.0899504868235,33.393189712408,3452
3453,1112,Dimitri Stavrou - Sporting Club 2,DiSt-SpCl,35.0899057925882,33.3930688209596,3453
3454,1113,Idaliou - Manou Loizou,Id-MaLo,35.0973316374362,33.3888255237333,3454
3455,1114,Idaliou - Stavrou Venizelou,Id-StVe,35.0974498092019,33.3885298504211,3455
3464,1123,Tseriou - Kyproleontos,Tse-Kyp,35.0981292653386,33.3055098345175,3464
3467,1126,Agios Ioannis Chrisostomos Church 2,AgIoChCh,35.096887194301,33.3081603283506,3467
3469,1128,Glyfou,Glyfou,35.0980389616783,33.3091192047139,3469
3472,1137,Lakatameia Municipality 2,LakatMunic,35.1109273960003,33.3008389947834,3472
3473,1138,Lakatameia Municipality 1,LakatMunic,35.1108820378751,33.3009485628594,3473
3474,1139,1 Apriliou - Grigori Afxentiou,1Ap-GrAf,35.1136172793745,33.2997295490708,3474
3475,1140,1 Apriliou - Andrea Miaouli,1Ap-AnMi,35.1137166307904,33.2996640697467,3475
3476,1141,Agios Georgios Lyceum 1,AgiGeoLyc,35.1150630828499,33.2984947773916,3476
3477,1142,Agios Georgios Lyceum 2,AgiGeoLyc,35.1156847523856,33.2987055530278,3477
3478,1143,Georgiou Griva Digeni - Ioanni Kapodistria,GeGDi-IoKa,35.1189979048765,33.3008028137226,3478
3479,1144,Georgiou Griva Digeni - Navarinou,GeGrDi-Na,35.1188894812965,33.3008902115869,3479
3491,1158,Pediaiou - Stavrovouniou,Ped-Sta,35.1248063819664,33.3144665183374,3491
3492,1159,Pediaiou - Pafou,Ped-Paf,35.1248240459466,33.3146092656818,3492
3493,1160,Agiou Mamantos - Rizokarpasou,AgMa-Ri,35.1268262427204,33.3179206239706,3493
3494,1161,Agiou Mamantos - Onisilou,AgMa-On,35.1258754345703,33.3194425210702,3494
3495,1162,Evzonon - Evryviadou,Evz-Evr,35.1376290467582,33.3313107177189,3495
3496,1163,Evzonon - Evdoxias,Evz-Evd,35.137538875903,33.3313103523975,3496
3497,1164,Elaionon - Kostaki Ompasi,El-KoOm,35.1399691711074,33.3295967522158,3497
3498,1165,Elaionon - Evzonon,Ela-Evz,35.1389784554296,33.3291646466809,3498
3499,1166,Elaionon,Elaionon,35.1429573010792,33.3316396852448,3499
3500,1167,Elaionon - Kostaki Ompasi,El-KoOm,35.1430468407175,33.3318705818594,3500
3517,1184,Charalampous Kalaitzi - Dasoupoleos,ChKa-Da,35.1445180593575,33.3688064518063,3517
3518,1185,Tilepikoinonion - CYTA 2,Til-CYT,35.1479463428497,33.3711822798047,3518
3519,1186,Tilepikoinonion - CYTA 1,Til-CYT,35.1476576296764,33.3712358607595,3519
3520,1187,Chrysanthou Mylona - Sofouli,ChMy-So,35.1487819805552,33.3691989591989,3520
3521,1188,Chrysanthou Mylona - Ilioupoleos,ChMy-Il,35.1487186271504,33.3692755227538,3521
3522,1189,Apostolos Varnavas Elem. School 2,ApVaElSc,35.1471338634064,33.3655576928027,3522
3523,1190,Apostolos Varnavas Elem. School 1,ApVaElSc,35.1472332495274,33.365492267258,3523
3524,1191,Panagioti Kaspi - Korinthou,PaKa-Ko,35.1473787553781,33.362078650724,3524
3525,1192,Panagioti Kaspi - Panagioti Chatzianastasiou,PaKa-PaCh,35.1472979627914,33.361957531122,3525
3526,1193,Kefallinias - Mesolongiou 2,Kef-Mes,35.1494418845092,33.3626806353601,3526
3527,1194,Kefallinias - Othonos,Kef-Oth,35.1493964706642,33.3627902200809,3527
3528,1195,Thermopylon - Faidras,The-Fai,35.1507835413201,33.3663095950849,3528
3529,1196,Thermopylon - Andrea Assioti,Th-AnAs,35.1508470255817,33.3661891126267,3529
3530,1197,Elefsinos - Armenias,Ele-Arm,35.1518255600955,33.3676207598162,3530
3531,1198,Elefsinos - Thermopylon,Ele-The,35.1518521780665,33.3677636058904,3531
3532,1201,Armenias - Ippokratous,Arm-Ipp,35.1539069466671,33.365159796071,3532
3533,1202,Armenias - Lykourgou,Arm-Lyk,35.1541058505942,33.3649850167326,3533
3534,1203,Esperidon - Amfitritis,Esp-Amf,35.1557785885008,33.3634663398747,3534
3535,1204,Esperidon - Esperidon,Esp-Esp,35.1554447937747,33.3635197524497,3535
3536,1207,Avenue Tzon Kennenty - Epameinonda,AvTzKe-Ep,35.1584438003248,33.3647518557528,3536
3537,1208,Avenue Tzon Kennenty - Esperidon,AvTzKe-Es,35.1577538027757,33.3663078993887,3537
3539,1210,Avenue Tzon Kennenty - Karpenisiou,AvTzKe-Ka,35.1573654862483,33.3694683095864,3539
3540,1215,Ave. Athalassas - Archiepiskopou Makariou C,At-ArMaC,35.1163818789442,33.4195120054742,3540
3541,1216,Ave. Athalassas - Konstantinou Giallourou,AvAt-KoGi,35.1163463044805,33.4193691590219,3541
3542,1217,Antistaseos - Anagenniseos,Ant-Ana,35.1128993294097,33.3875826167195,3542
3543,1218,Kykladon 1,Kykladon,35.1209450843152,33.2899229414951,3543
3544,1219,Kykladon 2,Kykladon,35.1209633548171,33.289824232733,3544
3545,1220,Kykladon - Naxou,Kyk-Nax,35.1223103143511,33.2921666815418,3545
3546,1221,Kykladon - Elefsinos,Kyk-Ele,35.1223640996808,33.2922985738356,3546
3547,1222,Ave. Anthoupoleos - Messinis,AvAn-Me,35.1213763181016,33.2943253993608,3547
3548,1223,Ave. Anthoupoleos - Dodekanisou,AvAn-Do,35.1214119868211,33.2944901510354,3548
3549,1224,Kasou - Aigaiou,Kas-Aig,35.1159034433708,33.2940862331166,3549
3550,1225,Kasou - Sporadon,Kas-Spo,35.1157680529904,33.29414061729,3550
3551,1226,Sporadon 2,Sporadon,35.1160920446632,33.2906629670242,3551
3552,1227,Sporadon 1,Sporadon,35.1160737471697,33.2907726438097,3552
3557,1232,Pediaiou - Filokyprou,Ped-Fil,35.1269768547044,33.3154955949562,3557
3558,1233,Pediaiou - Akadimias,Ped-Aka,35.1271123113986,33.3154192878058,3558
3559,1234,Agiou Eleftheriou - Agiou Lazarou,AgEl-AgLa,35.1348989763891,33.3135613244597,3559
3560,1235,Agiou Eleftheriou - Spyrou Kyprianou Avenue,AEl-SpKy,35.1338881796656,33.3138977224855,3560
3561,1236,Agiou Eleftheriou - Agiou Neofytou,AgEl-AgNe,35.1381987530181,33.3137605881787,3561
3562,1237,Agiou Eleftheriou - Agiou Ioannou Chrysostomou,AEl-AIoCh,35.1380992237997,33.3138919317841,3562
3563,1238,Agiou Eleftheriou - Agiou Gennadiou,AgEl-AgGe,35.1405451075854,33.3165029769912,3563
3564,1239,Agiou Eleftheriou - Agiou Evdokimou,AgEl-AgEv,35.140400633358,33.3165792597892,3564
3565,1240,Agiou Gennadiou - Agiou Avgoustinou,AgGe-AgAv,35.1420724611883,33.318627576909,3565
3566,1241,Agiou Gennadiou - Agiou Amvrosiou,AgGe-AgAm,35.1426318382041,33.3185090017853,3566
3567,1242,Agiou Gennadiou - Agiou Alexiou,AgGe-AgAl,35.1443297246683,33.3209197892892,3567
3571,1246,Tamasou - Trikomou,Tam-Tri,35.1245394038153,33.3333869106388,3571
3572,1247,Mesaorias - Tamasou,Mes-Tam,35.1258130465081,33.3325799160564,3572
3577,1252,Ave. Giannou Kranidioti - Karyatidon,AvGiKr-Ka,35.1092201612841,33.3127057800043,3577
3580,1255,Orfeos - Dioskouron,Orf-Dio,35.1128284321066,33.3121708777143,3580
3581,1256,Orfeos - Areos,Orf-Are,35.1131705462911,33.3123806843285,3581
3588,1263,Ave. Agiou Georgiou - Alamanas,AvAgGe-Al,35.1089349590285,33.3006890208037,3588
3589,1264,Agiou Gennadiou - Agiou Andronikou,AgGe-AgAn,35.1442396991731,33.3208645461782,3589
3590,1265,Korytsas - Makarios Hospital 2,Ko-MaHo,35.1510908251726,33.3570118860548,3590
3591,1266,Korytsas - Makarios Hospital 1,Ko-MaHo,35.1511680570978,33.3583406657338,3591
3592,1273,Kykkou - Prodromou,Kyk-Pro,35.1543863543912,33.3430496359092,3592
3593,1274,Kykkou - Kasou,Kyk-Kas,35.1551517120888,33.3402421212685,3593
3598,1279,Dimitri Stavrou - Michail Koutsofta,DiSt-MiKo,35.1014490459943,33.3870895251724,3598
3599,1280,Dimitri Stavrou - Iona Nikolaou,DiSt-IoNi,35.1015941247876,33.3868378504181,3599
3603,1303,Agiou Dimitrianou - Neapoleos,AgDi-Ne,35.1140291193053,33.3151164609424,3603
3604,1304,Agiou Dimitrianou - Iliodorou,AgDi-Il,35.114347197076,33.3141629530254,3604
3605,1307,Dimokratias - Eleftheriou Venizelou,Di-ElVe,35.1015870074757,33.4188327246279,3605
3606,1308,Dimokratias - Keryneias,Dim-Ker,35.1016412992732,33.4187781413722,3606
3607,1309,Epistrofis - Kosta Varnali,Ep-KoVa,35.101994294189,33.4157735533408,3607
3608,1310,Epistrofis - Keryneias,Epi-Ker,35.1020752218726,33.4158397977601,3608
3609,1311,Epistrofis - Geriou,Epi-Ger,35.1045619686286,33.4137895815441,3609
3610,1312,Epistrofis - Foti Pitta,Ep-FoPi,35.1046067167895,33.4138885610068,3610
3611,1313,Griva Digeni - Afroditis,GrDi-Af,35.1067731421775,33.4236653746384,3611
3612,1314,Griva Digeni - Pyrogiou,GrDi-Py,35.1081311053012,33.4247038696171,3612
3613,1315,Griva Digeni - Foinikoudon,GrDi-Fo,35.1105497889958,33.4266806533558,3613
3614,1316,Archiepiskopou Makariou C - Theodosi Pieridi,ArMaC-ThPi,35.112531911312,33.4271518787489,3614
3615,1317,Archiepiskopou Makariou C - Archaias Lydras,ArMaC-ArLy,35.1125856654062,33.427250922151,3615
3616,1318,Archiep. Makariou C - Georgiou Papandreou,ArMaC-GePa,35.1143334732977,33.4225412736039,3616
3617,1319,Archiep. Makariou C - Ippokratous,ArMaC-Ip,35.1146047871171,33.4223122218494,3617
3627,1340,Themistokli Dervi - Florinis,ThDe-Fl,35.1656690623777,33.3578552232461,3627
3631,1353,Ave. 25 Martiou - Anexartisias Avenue,2Ma-An,35.1129005417637,33.35479314399,3631
3632,1354,Epistrofis - Myrtou,Epi-Myr,35.1009364743458,33.4165910895903,3632
3633,1355,Epistrofis - Dimokratias,Epi-Dim,35.101026531763,33.4166244640752,3633
3634,1356,Cyprus International Fair,CypIntFai,35.1496594592518,33.317273835866,3634
3635,1357,Ave. Agiou Pavlou - Psaron,AvAgPa-Ps,35.1784363153532,33.3296091814382,3635
3636,1358,Ave. Agiou Pavlou - Agiou Pavlou,APa-APa,35.1782726630302,33.3301027340581,3636
3637,1360,Ave. Kiryneias - Athalassa Park 1,AvKi-AtPa,35.1451131770706,33.4027971393594,3637
3638,1361,Ave. Kiryneias - Assias,AvKi-As,35.1482346562798,33.3996068128803,3638
3641,1364,Kallistratou - Ferekratous,Kal-Fer,35.102975976205,33.3505257619312,3641
3642,1365,Kallistratou - Ippolytou,Kal-Ipp,35.1030648141479,33.3509869835049,3642
3643,1366,Alexandrou Panagouli - Agiou Dimitriou,AlPa-AgDi,35.1369485424719,33.3054572012192,3643
3645,1368,Alexandrou Panagouli - Lefkonos,AlPa-Le,35.1393374518827,33.3021180501642,3645
3646,1371,Ave. Lykavitou,AvLy-OS,35.1472779548371,33.310688557014,3646
3647,1372,Melinas Merkouri - Archimidous,MeMe-Ar,35.1597558575755,33.3251417965927,3647
3648,1373,Melinas Merkouri - Grigori Tzioni,MeMe-GrTz,35.1596657164608,33.3251304578803,3648
3649,1374,Melinas Merkouri - Giannaki Stefanidi,MeMe-GiSt,35.1594274680046,33.3298728628328,3649
3650,1375,Melinas Merkouri - Andrea Pavlidi,MeMe-AnPa,35.1593945929034,33.3286978723974,3650
3651,1376,Ave. Grigori Afxentiou - Gemenitzi,AvGrAf-Ge,35.1719506766114,33.3304615379788,3651
3652,1377,Ave. Grigori Afxentiou - Markou Drakou,GrAf-MaDr,35.1716781561497,33.3311962044683,3652
3653,1378,Ave. Grigori Afxentiou - Vasilissis Freiderikis,GrAf-VaFr,35.1711427401898,33.3389470115841,3653
3654,1379,Ave. Grigori Afxentiou - Ioanninon,AvGrAf-Io,35.1710435528763,33.3389465999582,3654
3656,1381,Ave. Tzon Kennenty - Roundabout Sopaz 2,TKe-RoS,35.1727945877929,33.3949389046188,3656
3657,1382,Ave. Tzon Kennenty - Roundabout Sopaz 1,TKe-RoS,35.1727225594446,33.3949056110701,3657
3658,1383,Stavrou - Sotiros,Sta-Sot,35.1364345935953,33.3519863397952,3658
3659,1384,Stavrou - Promitheos,Sta-Pro,35.1365790260737,33.3519320769203,3659
3660,1385,Stavrou - Archiepiskopou Leontiou,St-ArLe,35.137479274442,33.34932341877,3660
3661,1386,Stavrou - Aitolon,Sta-Ait,35.1375508412894,33.3495213111489,3661
3662,1387,Themistokli Dervi - Tefkrou,ThDe-Te,35.1648750131565,33.3580384168559,3662
3663,1388,Themistokli Dervi - Spyrou Kyprianou Avenue,ThD-SpKy,35.1643141390697,33.3586508739235,3663
3664,1389,Dimokratias 2,Dimokratia,35.1029895293208,33.4200358870299,3664
3665,1390,Dimokratias - Kyriakou Kakoulli,Di-KyKa,35.1030258635735,33.4199592667912,3665
3666,1391,Larnakos - Elenis Christou,La-ElCh,35.1651335211775,33.3826144316808,3666
3667,1392,Larnakos - Poseidonos,Lar-Pos,35.1652157140812,33.3822853944564,3667
3668,1393,Tassos Papadopoulos-Eleftheria,TassoPapad,35.1482976977442,33.3138761960389,3668
3669,1394,European University 2,EuropUnive,35.1598466018128,33.3381095831528,3669
3670,1395,European University 1,EuropUnive,35.1590262037605,33.3380512887819,3670
3671,1396,Iroon - Antistaseos,Iro-Ant,35.1031070433549,33.2869520704811,3671
3672,1397,Iroon 1,Iroon,35.1054447728284,33.2859946612012,3672
3673,1398,Dodekanisou - Aigaiou,Dod-Aig,35.1203258387178,33.2961653781745,3673
3674,1399,Dodekanisou - Ikarias,Dod-Ika,35.1202177402684,33.296121088008,3674
3675,1400,Ave. Anthoupoleos - Kykladon,AvAn-Ky,35.119738919006,33.2927830564455,3675
3676,1401,Ave. Anthoupoleos - Samou,AvAn-Sa,35.1197385477934,33.2929367004653,3676
3677,1402,Salaminos - Agioi Konstantinos and Eleni Church,Sa-AKoaECh,35.0771567462296,33.3256693598259,3677
3680,1405,Ave. Tzon Kennenty - Spyrou Chatzigiakoumi,TKe-SpCh,35.1727386446178,33.3842973204569,3680
3681,1406,Agiou Mamantos - Salaminos,AgMa-Sa,35.1268814961752,33.3174818140041,3681
3682,1407,Agiou Mamantos - Lidras,AgMa-Li,35.1255495447676,33.3199241678739,3682
3685,1410,Elaionon - Makedonitissis,Ela-Mak,35.1454606766103,33.332879388081,3685
3686,1411,Elaionon - Anoixeos,Ela-Ano,35.1453517476759,33.3331424187226,3686
3687,1412,Kyriakou Matsi,KyriaMatsi,35.1434280644626,33.1989961767673,3687
3688,1413,Kyriakou Matsi - Naxou,KyMa-Na,35.1434373339229,33.1988425090885,3688
3689,1414,Karava - Kyrineias Avenue,Ka-KyAv,35.1489290885642,33.3940660426251,3689
3690,1415,Karava - Morfou,Kar-Mor,35.148973923642,33.3941431086346,3690
3691,1416,Avenue Rik - Aglantzia Elem. School D 2,R-AgEScD,35.1448505695857,33.3865264525444,3691
3692,1417,Avenue Rik - Aglantzia Elem. School D 1,R-AgEScD,35.1450388059371,33.3868786393756,3692
3694,1419,Dimokratias 1,Dimokratia,35.1303912170328,33.3648133133077,3694
3695,1420,Dimokratias - Andromachis,Dim-And,35.1311593917943,33.3672314973213,3695
3696,1421,Iroon - Isidorou,Iro-Isi,35.133035804524,33.3669545351003,3696
3710,1441,Odysseos - Lamprou Katsoni,Od-LaKa,35.0732096718292,33.3834243010048,3710
3711,1442,Odysseos - Vladimirou Kafkaridi 1,Od-VlKa,35.0733806504991,33.3835347849859,3711
3715,2001,Agios Therapontas Church 1,AgiTheChu,34.9507387154547,33.2952913011005,3715
3717,2003,Ave. Arch. Makariou C - Agias Marinas,AMaC-AMa,34.9509116775136,33.2983147058548,3717
3718,2004,Ave. Arch. Makariou C - Agiou Dimitriou,AMaC-ADi,34.9509928609383,33.298304047828,3718
3719,2005,Ave. Arch. Makariou C - Karpasias,AMaC-Ka,34.9491387283557,33.3041784912744,3719
3720,2006,Ave. Arch. Makariou C - Stadiou,AMaC-St,34.9495370277169,33.3035666542385,3720
3721,2007,Ave. Arch. Makariou C - 1 Oktovriou,AMaC-1Ok,34.9502674241896,33.2999442246457,3721
3722,2008,Ave. Arch. Makariou C - Megalou Alexandrou,AMaC-MeAl,34.9503391575655,33.3001087665343,3722
3723,2009,Ave. Arch. Makariou C - Spyrou Kyprianou,AMaC-SpKy,34.9483097358264,33.3075157187751,3723
3724,2010,Ave. Arch. Makariou C - Modestou Panteli,AMaC-MoPa,34.9484271004832,33.3074613981028,3724
3725,2011,Ave. Arch. Makariou C - Lefkas 1,AMaC-Le,34.9491427349599,33.3132466613828,3725
3726,2012,Ave. Arch. Makariou C - Lefkas 2,AMaC-Le,34.9492960869363,33.3132253409036,3726
3727,2013,Ave. Arch. Makariou C - Georgiou Papachristou 1,AMaC-GePa,34.9504836508699,33.3177530563741,3727
3728,2014,Ave. Arch. Makariou C - Georgiou Papachristou 2,AMaC-GePa,34.950618596314,33.3178740498707,3728
3729,2015,Apostolos Varnavas Church 1,ApoVarChu,34.961163187439,33.3335015538524,3729
3730,2016,Apostolos Varnavas Church 2,ApoVarChu,34.9603638260518,33.3323372588927,3730
3731,2017,Markou Drakou - Michalaki Karaoli,MaDr-MiKa,34.96347154638,33.3368079929993,3731
3732,2018,Markou Drakou - Eleftherias,MaDr-El,34.963742370286,33.3366995631286,3732
3733,2019,Papastavrou Papagathangelou - Leonarissou,PaPa-Le,34.9883132052359,33.3623301279714,3733
3734,2020,Papastavrou Papagathangelou,PapasPapag,34.9875043280151,33.3614280928672,3734
3735,2021,Papastavrou Papagathangelou - Agias Annas,PaPa-AgAn,34.9928628848618,33.3667003750556,3735
3736,2022,Papastavrou Papagathangelou - Giannou Kranidioti,PaPa-GiKr,34.9926564801621,33.366370724997,3736
3737,2023,Agia Varvara Community Board,AgVaCoBo,34.9966927367638,33.3675393222832,3737
3738,2024,Agia Varvara Elementary School,AgVaElSc,34.9959996675871,33.3671198160634,3738
3739,2025,Ave. Grigori Afxentiou - Archiepiskopou Makariou,GrAf-ArMa,34.9983825270784,33.3693440570872,3739
3740,2026,Ave. Grigori Afxentiou - Limnou,AvGrAf-Li,34.9983559752948,33.3691795616692,3740
3741,2027,Ave. Grigori Afxentiou - Simaias,AvGrAf-Si,34.9992678428814,33.3717698699227,3741
3742,2028,Ave. Grigori Afxentiou - Dimitri Liperti,GrAf-DiLi,34.9993312320925,33.3716824883302,3742
3743,2029,Agia Varvara High School 1,AgVaHiSc,35.0002114916973,33.3757302118086,3743
3744,2030,Agia Varvara High School 2,AgVaHiSc,35.0003290211268,33.3756321210488,3744
3745,2031,Ave. Grigori Afxentiou - Agiou Savva,GrAf-AS,35.0019195206516,33.3803188313322,3745
3746,2032,Ave. Grigori Afxentiou,AveGriAfx,35.0020636591405,33.3803633338991,3746
3747,2033,Ave. Lemesou - Kimonos,AvLe-Ki,35.0074573839602,33.394076856097,3747
3748,2034,Ave. Lemesou - Larnakos,AvLe-La,35.0070701416525,33.3939215651883,3748
3749,2035,Ave. Lemesou - Archiepiskopou Makariou C,Le-ArMaC,35.0142741467419,33.3941862764731,3749
3750,2036,Chrysosotiros Church - Eirinis Avenue,ChCh-EiAv,35.0134185083495,33.3938752796235,3750
3751,2037,Ave. Lemesou - Omonoias Avenue,AvLe-OmAv,35.0170226484806,33.3947365488331,3751
3752,2038,Ave. Lemesou - Rodou Archangelou,AvLe-RoAr,35.0169778476264,33.3946486465024,3752
3753,2039,Ave. Lemesou - Idalia,AvLe-Id,35.0209877177455,33.3955229037185,3753
3754,2040,Ave. Lemesou - Iroon,AvLe-Ir,35.0212136119314,33.3953814927831,3754
3755,2070,Pera Chorio Nisou High School 2,PeChNiHiSc,35.0166249380843,33.4059585282416,3755
3756,2071,Pera Chorio Nisou High School 1,PeChNiHiSc,35.0166615566538,33.4057942967163,3756
3757,2074,Archiep. Makariou C - Elpidos,ArMaC-El,35.0146379295066,33.3960074762863,3757
3758,2075,Archiep. Makariou C - Diogenous,ArMaC-Di,35.0146924617907,33.3958762122617,3758
3767,2092,Ermou - Agias Triados,Er-AgTr,35.0672683569751,33.3971060164187,3767
3768,2093,Ermou - Pigis,Erm-Pig,35.0667092593372,33.397114276073,3768
3777,2113,Griva Digeni - Amathountos,GrDi-Am,35.0214216576332,33.4193661852169,3777
3778,2156,Theodorou Mavrosavva - Athinas,ThMa-At,34.9977909293382,33.4630020808207,3778
3779,2157,Apodimon Square,ApodiSquar,34.9980436602673,33.46293775441,3779
3782,2196,Nisou Elementary School A 2,NiElScA,35.0157590057876,33.3923300793616,3782
3783,2197,Nisou Elementary School A 1,NiElScA,35.0165707668566,33.3922681913914,3783
3784,2204,Agiou Eftychiou - Varnava Kouvarou,AgEf-VaKo,35.0223054584821,33.3923723114155,3784
3785,2205,Agiou Eftychiou - Steliou Christodoulou,AgEf-StCh,35.0220977794167,33.3924590117283,3785
3786,2329,Ave. Archiepiskopou Makariou C - Dikomou,ArMaC-Di,35.0448963245622,33.1933513543483,3786
3787,2330,Ave. Archiepiskopou Makariou C - Eleftherias 2,ArMaC-El,35.0447975007292,33.1931208635702,3787
3788,2331,Arediou Elementary School 1,AreEleSch,35.0480844990869,33.1958260150155,3788
3789,2332,Arediou Elementary School 2,AreEleSch,35.0487146475394,33.1964854301593,3789
3790,2333,Ave. Arch. Makariou C - Misiaouli kai Kavazoglou,AMaC-MikKa,35.0511422116735,33.2008335858696,3790
3791,2334,Ave. Archiepiskopou Makariou C - Tamasou,ArMaC-Ta,35.0518543067127,33.2009998131705,3791
3792,2337,Georgiou Griva Digeni - Kampou,GeGrDi-Ka,35.0537978767696,33.2035047922967,3792
3793,2338,Georgiou Griva Digeni - Arediou Bakery,GeGDi-ArBa,35.0539693526837,33.2034174906024,3793
3794,2339,Lefkosia-Palaichori Road - Ergates Ind. Area 1,LeR-ErInA,35.0682497111691,33.2255639867933,3794
3795,2340,Lefkosia-Palaichori Road - Ergates Ind. Area 2,LeR-ErInA,35.0688950406746,33.2276606267412,3795
3796,2341,Grammar School 1,GrammSchoo,35.0904287217166,33.2713072552872,3796
3797,2342,Grammar School 2,GrammSchoo,35.0905996311909,33.271494324397,3797
3798,2343,Ave. Anthoup.-Palaichoriou - Da Luz Soccer Field 1,An-DLFoF,35.0913422852124,33.2780244520583,3798
3799,2344,Ave. Anthoup.-Palaichoriou - Da Luz Soccer Field 2,An-DLFoF,35.0913970420873,33.2777393951739,3799
3802,2349,Ave. Iroon - Alexandrou Panagouli,AvIr-AlPa,35.1349678920294,33.300598098728,3802
3803,2350,Ave. Iroon - Isokratous,AvIr-Is,35.133472627912,33.2999559656293,3803
3804,2351,Ave. Iroon - Morfou Avenue,AvIr-MoAv,35.1432028283198,33.303317936715,3804
3805,2352,Ave. Iroon - Kosta Krystalli,AvIr-KoKr,35.1432660854082,33.3032632822852,3805
3806,2452,Archiep Makariou C - Ergates Industrial Area,ArMaC-ErIn,35.0690271383577,33.2293390813559,3806
3807,2453,Archiep. Makariou C - Christodoulou Kourtela,ArMaC-ChKo,35.0711912822331,33.24323085335,3807
3808,2454,Archiepiskopou Makariou C - Protomagias,ArMaC-Pr,35.0702848532165,33.2410674564715,3808
3809,2455,Archiepiskopou Makariou C - Spyrou Kyprianou,ArMaC-SpKy,35.0743185675831,33.2485269966569,3809
3810,2456,Archiepiskopou Makariou C - Michail Karaoli,ArMaC-MiKa,35.0744269093729,33.2484615134784,3810
3811,2457,Archiepiskopou Makariou C - Dimokratias,ArMaC-Di,35.0752203078411,33.2528843112785,3811
3812,2458,Archiepiskopou Makariou C - Athinas,ArMaC-At,35.0753644693378,33.2529395997264,3812
3813,2459,Archiep. Makariou C - Archiepiskopou Kyprianou,ArMaC-ArKy,35.0757400271078,33.2544544510559,3813
3814,2460,Archiep. Makariou C - Missing Persons Monument ,ArMaC-MiPe,35.0759645367733,33.2548939006406,3814
3815,2461,Ave. Archiepiskopou Makariou C - Machaira,ArMaC-Ma,35.0796939077633,33.2650740522632,3815
3816,2462,Ave. Archiep. Makariou C - Galaktika Supermarket,ArMaC-GaSu,35.0786699338632,33.2632388882044,3816
3817,2463,Ave. Archiepiskopou Makariou C - Metochiou,ArMaC-Me,35.0815355892436,33.2681953636595,3817
3818,2464,Ave. Archiepiskopou Makariou C - Omonoias,ArMaC-Om,35.0810606286936,33.2668555310411,3818
3819,2465,Pano Deftera Elementary School,PaDeElSc,35.0838453968144,33.2716255216154,3819
3820,2466,Ave. Archiepiskopou Makariou C - Eleftherias 2,ArMaC-El,35.0827314977716,33.2697240683372,3820
3821,2468,Deftera Community Board,DefComBoa,35.0841928272672,33.2735134980478,3821
3822,2469,Anageia Community Stadium,AnaComSta,35.0765562285507,33.256530105932,3822
3823,2470,Ave. Archiepiskopou Makariou C - Faneromenis,ArMaC-Fa,35.077801301482,33.2604389882489,3823
3824,2527,Ave. Anthoupoleos - Palaichoriou - Ag. Spyridonos,An-Pa-ASp,35.0895373914459,33.2666198452869,3824
3825,2528,Ave. Anthoupoleos - Palaichoriou - Akanthous,An-Pa-Ak,35.0895734602875,33.2666199626741,3825
3826,2551,Kokkinotrimithia Police Station 2,KokPolSta,35.1486976912466,33.2022806213232,3826
3827,2568,Grigori Afxentiou - Apostolos Varnavas Church 2,GrAf-ApVaC,35.148560691633,33.2086258904512,3827
3828,2569,Grigori Afxentiou - Industrial Area 1,GrAf-InAr,35.149777860008,33.2286980991496,3828
3829,2570,Grigori Afxentiou - Industrial Area 2,GrAf-InAr,35.1498409593112,33.2287092544218,3829
3830,2571,Grigori Afxentiou - Praxitelous 1,GrAf-Pr,35.1488349392312,33.2217569903756,3830
3831,2572,Grigori Afxentiou - Zalongou,GrAf-Za,35.1489518406072,33.2219329652653,3831
3832,2573,Grigori Afxentiou - Apostolos Varnavas Church 1,GrAf-ApVaC,35.1483987228201,33.2084278633846,3832
3833,2574,Grigori Afxentiou - Archiepiskopou Kyprianou,GrAf-ArKy,35.1484221359408,33.2052770815661,3833
3834,2575,Grigori Afxentiou - Praxitelous 1,GrAf-Pr,35.1483132038858,33.2057049705884,3834
3835,2576,Kyriakou Matsi - Archiepiskopou Makariou C,KyM-ArMaC,35.1476559070765,33.1997420236804,3835
3836,2577,Kokkinotrimithia Police Station 1,KokPolSta,35.1486440827389,33.2019840671989,3836
3837,2578,Kyriakou Matsi - Makedonias,KyMa-Ma,35.1476377279361,33.1998298067659,3837
3838,2579,Kyriakou Matsi - Ethnegersias,KyMa-Et,35.1397750971472,33.1996020198905,3838
3839,2580,Kyriakou Matsi - Griva Digeni,KyMa-GrDi,35.1396038249892,33.1995686697356,3839
3844,2585,Panagia Odigitria Church 1,PanOdiChu,35.1268383348608,33.1921948162724,3844
3845,2586,Arch. Makariou C - Ithakis,ArMaC-It,35.1309222753665,33.1983291285645,3845
3846,2587,Arch. Makariou C - Antoni Despoti,AMaC-AnDe,35.1309855034647,33.1982634246528,3846
3847,2588,Arch. Makariou C - 25 Martiou 2,AMaC-2Ma,35.132510667899,33.2029540474217,3847
3848,2589,Arch. Makariou C - 25 Martiou 1,AMaC-2Ma,35.1325559559683,33.2028334192572,3848
3849,2590,25 Martiou - Grigori Afxentiou,25Ma-GrAf,35.1287962881749,33.2078510623293,3849
3850,2591,25 Martiou - Steliou Mavrommati 1,25Ma-StMa,35.1287690483261,33.2079607521504,3850
3851,2592,Arch. Makariou C - Pentadaktylou,ArMaC-Pe,35.1184955679078,33.2096137438704,3851
3852,2593,Arch. Makariou C - Omirou,ArMaC-Om,35.1186126586988,33.2096908655748,3852
3853,2594,Arch. Makariou C - Andrea Panagidi,AMaC-AnPa,35.1152001654647,33.2119757054791,3853
3854,2595,Arch. Makariou C - Gerolakkou,ArMaC-Ge,35.1151818622922,33.2121292951932,3854
3855,2596,Arch. Makariou C - Dimitriou Koulermou,AMaC-DiKo,35.1147131049243,33.2171432057696,3855
3856,2597,Arch. Makariou C - Lapithou,ArMaC-La,35.1147851835937,33.2171763190757,3856
3857,2598,Arch. Makariou C - Christianas Christofidou 2,AMaC-ChCh,35.1173731429417,33.231779099564,3857
3858,2599,Arch. Makariou C - Christianas Christofidou 1,AMaC-ChCh,35.1173736462672,33.2315157161368,3858
3859,2600,Arch. Makariou C - Korinthou 2,ArMaC-Ko,35.1188642761281,33.23936674915,3859
3860,2601,Arch. Makariou C - Korinthou 1,ArMaC-Ko,35.1190439475396,33.2397074870126,3860
3861,2602,Ave. Agion Trimithias 2,AveAgiTri,35.1216838991651,33.2496804691348,3861
3862,2603,Ave. Agion Trimithias 1,AveAgiTri,35.1217739578627,33.2497356187109,3862
3863,2604,Ave. Agion Trimithias - Dervenakion,AvAgTr-De,35.115053623186,33.2836578407664,3863
3864,2605,Ave. Agion Trimithias - Ioanni Polemi,ATr-IoPo,35.1152338122792,33.2837243096679,3864
3869,3004,Kronou - Gortynias,Kro-Gor,35.1883994233982,33.387732101555,3869
3871,3006,Kronou - Delfon,Kro-Del,35.1896396648211,33.3918130652953,3871
3873,3008,Akamantos - Kantaras,Aka-Kan,35.1888017633129,33.3943792772339,3873
3875,3010,Kantaras - Roundabout Sopaz 2,Ka-RoSo,35.1865815678965,33.3922157628556,3875
3877,3012,Agiou Ilarionos - Kaimakli Elementary School C 2,AIl-KaElSc,35.1863615914839,33.3877224215784,3877
3879,3014,Blind School Agios Varnavas 1,BlScAgVa,35.1494619379485,33.3559178867555,3879
3880,3020,Ave. Archiepiskopou Makariou C - Mesaorias,ArMaC-Me,35.0784010574435,33.2624811540126,3880
3883,3034,Blind School Agios Varnavas 2,BlScAgVa,35.1494361437263,33.3554896078533,3883
3884,3036,Tamasos Bus Station,TamBusSta,35.0432605918433,33.1899156249265,3884
3885,3037,Thermopylon - Othonos,The-Oth,35.1502393943682,33.3643529417307,3885
3886,3038,Thermopylon - Thermeias,The-The,35.1503028106884,33.364254415726,3886
3888,3040,Foti Pitta - Charalampou Kalaitzi,FoPi-ChKa,35.1452634623936,33.3697978402767,3888
3890,3042,Panagia Odigitria Church 2,PanOdiChu,35.1270373392095,33.1918001595082,3890
3891,3043,Ave. Agion Trimithias - Agios Dometios Cemetery  2,ATr-ADoCe,35.1178812022809,33.2775219645976,3891
3892,3044,Ave. Agion Trimithias - Agios Dometios Cemetery  1,ATr-ADoCe,35.1178351861634,33.2779278619915,3892
3893,3045,Ave. Agion Trimithias - Spazio Health Club 2,ATr-SpHeC,35.1209217180103,33.2604993339161,3893
3894,3046,Ave. Agion Trimithias - Spazio Health Club 1,ATr-SpHeC,35.1210387524735,33.2605875053185,3894
3895,3047,25 Martiou - Steliou Mavrommati 2,25Ma-StMa,35.1228064539096,33.2092406584633,3895
3897,3049,25 Martiou - Archiepiskopou Makariou C,2Ma-ArMaC,35.1322281072495,33.2047534707285,3897
3898,3050,25 Martiou - Nikou Xylouri,25Ma-NiXy,35.1321827801604,33.2048960499689,3898
3899,3051,Grigori Afxentiou - Post Office 1,GrAf-PoOf,35.1490740918937,33.2141274935789,3899
3900,3052,Grigori Afxentiou - Post Office 2,GrAf-PoOf,35.1492534053677,33.2147098318443,3900
3901,3053,Ave. Agion Trimithias - Parthenonos 2,AvAgTr-Pa,35.1207326756702,33.2645155127955,3901
3902,3054,Ave. Agion Trimithias - Parthenonos 1,AvAgTr-Pa,35.1208225598573,33.2646475012201,3902
4195,2326,Chrysanhos Mylona Military Camp 2,ChMyMiCa,35.0260819896801,32.9003647179312,4195
4196,2389,Lefkosias Avenue - Antistr. Evangelou Floraki,Le-AnEvFl,35.132869167301,33.0821589295978,4196
4197,2390,Lefkosias Avenue - Avlonos,LeAv-Av,35.1329774856172,33.0819943910701,4197
4198,2609,Platania - Forest Station 1,Pl-FoSt,34.9496512633479,32.9275525191135,4198
4199,2611,Distrato Spilion,DistrSpili,34.9633482921503,32.9266203443388,4199
4200,2615,Lefkosias - Troodous - Droseri Potamia 1,Le-Tr-DrPo,34.9691684842322,32.9186073461989,4200
4201,2619,Archiepiskopou Makariou C Avenue 1,ArMaCAv,34.9906034472674,32.9066863449739,4201
4202,2620,Archiepiskopou Makariou C Avenue 2,ArMaCAv,34.9904498215295,32.9062591796455,4202
4204,2622,Kakopetria Square 2,KakopSquar,34.9900695154937,32.9042434559069,4204
4206,2624,Troodos Development Company 2,TroDevCom,34.9918445649997,32.9024991282473,4206
4208,2626,E.A.C.Galata 2,E.A.C.Gala,34.9930343904056,32.9019059976224,4208
4210,2628,Galata Square 2,GalatSquar,34.9974953199333,32.8986131649908,4210
4211,2629,Lefkosias - Troodous - Sinaoros 1,Le-Tr-Si,35.0078737403292,32.8978441387806,4211
4212,2630,Lefkosias - Troodous - Sinaoros 2,Le-Tr-Si,35.0079548140162,32.8977454001492,4212
4213,2631,Ag. Ioannis Theologos Church 1,AgIoThCh,35.0097857911229,32.8982692018083,4213
4214,2632,Ag. Ioannis Theologos Church 2,AgIoThCh,35.0108859796688,32.898344560686,4214
4215,2633,Lefkosias - Troodous - Chaniou Avenue 1,Le-Tr-Ch,35.0154210722516,32.897549774641,4215
4216,2634,Lefkosias - Troodous - Chaniou Avenue 2,Le-Tr-Ch,35.0156283336553,32.8973851044034,4216
4217,2635,Chrysanhos Mylona Military Camp 1,ChMyMiCa,35.0248643986676,32.9000702207788,4217
4218,2637,Lefkosias - Troodous - Eleftherias,Le-Tr-El,35.0371573254449,32.9028071356442,4218
4219,2638,Lefkosias - Troodous - Grigori Afxentiou,Le-Tr-GrAf,35.0370670286684,32.9026537515129,4219
4220,2639,Evrychou Fire Station,EvrFirSta,35.0435981047035,32.9058147507818,4220
4221,2662,Agia Marina Church 1,AgiMarChu,35.0399776533077,32.9002053196149,4221
4222,2663,Agia Marina Church 2,AgiMarChu,35.0399145587765,32.9002382884111,4222
4223,2664,Evrychou Police Station 2,EvrPolSta,35.0421610822832,32.9017047773882,4223
4224,2665,Evrychou Police Station 1,EvrPolSta,35.0420169375579,32.901869414647,4224
4225,2666,Solea Lyceum 2,SoleaLyceu,35.0447597094894,32.9037301294363,4225
4226,2667,Solea Lyceum 1,SoleaLyceu,35.0446334229037,32.9036754543044,4226
4227,2668,Markos Drakos Military Camp 2,MaDrMiCa,35.0465286537763,32.9056907730917,4227
4228,2669,Markos Drakos Military Camp 1,MaDrMiCa,35.0467001283699,32.9058769798798,4228
4229,2685,Mitropoliti Chrysanthou Sarigianni - Atsas 2,MiChSa-At,35.0706398707507,32.9306813623997,4229
4230,2686,Mitropoliti Chrysanthou Sarigianni - Atsas 1,MiChSa-At,35.0705133450478,32.9301879039791,4230
4231,2688,Lefkosias - Troodous - Karvounas 1,Le-Tr-Ka,34.9417082387721,32.9299577618315,4231
4232,2690,Troodos Camping Site 1,TroCamSit,34.9311673134329,32.883672071618,4232
4233,2770,21 Mili 1,21Mili,35.1265662667251,33.0124573428063,4233
4234,2771,Troodous - Georgiou Griva Digeni,Tr-GeGrDi,35.1370146667056,33.0279694837028,4234
4235,2772,Troodous - Pavlou Liasidi,Tr-PaLi,35.136942209683,33.0293196329198,4235
4236,2806,Archiepiskopou Makariou C´ - Vyzantiou,ArMaC-Vy,35.1487336394206,33.1968792462699,4236
4237,2807,Archiepiskopou Makariou C´ - Anexartisias,ArMaC-An,35.1488327568933,33.1969233993943,4237
4238,2808,Archiepiskopou Makariou C´ - Zinonos,ArMaC-Zi,35.1480187803698,33.1928264615747,4238
4239,2809,Archiepiskopou Makariou C´ - Kerkyras,ArMaC-Ke,35.1480911098447,33.1927058686848,4239
4240,2810,Palaiometocho Lyceum 1,PalaiLyceu,35.1469938244769,33.1851172393323,4240
4241,2811,Palaiometocho Lyceum 2,PalaiLyceu,35.1471213033133,33.1843051284717,4241
4242,2812,Cyprus Forest Industries - Bakandys,CyFoIn-Ba,35.1464799554484,33.1728313723805,4242
4243,2813,Cyprus Forest Industries,CypForInd,35.1469093112316,33.1752475161912,4243
4244,2814,Grigori Afxentiou - 1st Akaki 1,GrAf-sAk,35.1373132505751,33.1496394236662,4244
4245,2815,Grigori Afxentiou - 1st Akaki 2,GrAf-1sAk,35.137394852176,33.1492773295786,4245
4246,2816,Grigori Afxentiou - 2nd Akaki 1,GrAf-2nAk,35.1372374377958,33.1452484641044,4246
4247,2817,Grigori Afxentiou - 2nd Akaki 2,GrAf-nAk,35.1373454073169,33.1454462430781,4247
4248,2818,Akaki High School 1,AkaHigSch,35.1371984000271,33.1401111364728,4248
4249,2819,Akaki High School 2,AkaHigSch,35.1372974877789,33.1401991227321,4249
4250,2820,Grigori Afxentiou - Michalaki Savva,GrAf-MiSa,35.1366082876711,33.1273878174102,4250
4251,2821,Grigori Afxentiou - Kosti Palama,GrAf-KoPa,35.136662529355,33.1272561781652,4251
4252,2822,Grigori Afxentiou - Potato Packaging Factory 2,GrAf-PoPaF,35.1350675946458,33.1172099566924,4252
4253,2823,Grigori Afxentiou - Potato Packaging Factory 1,GrAf-PoPaF,35.1351577456264,33.1172320394481,4253
4254,2824,Grigori Afxentiou - 1st Peristerona 1,GrAf-sPe,35.1349548348779,33.1023253204321,4254
4255,2825,Grigori Afxentiou - 1st Peristerona 2,GrAf-1sPe,35.1350360825432,33.102215654455,4255
4256,2826,Lefkosias Avenue - Archangelou Michail,LeAv-ArMi,35.1330140227643,33.0937831814116,4256
4257,2827,Lefkosias Avenue - Apostolou Andrea,LeAv-ApAn,35.1329877314877,33.0927952672432,4257
4258,2828,Lefkosias Ave. - Christou Tsiarta Ave. 1,Le-ChTs,35.1327118069106,33.087954338684,4258
4259,2829,Lefkosias Ave. - Christou Tsiarta Ave. 2,Le-ChTs,35.1328385875585,33.0872080750771,4259
4260,2830,Morfou Avenue - Louki Akrita,MoAv-LoAk,35.132827892147,33.076330383064,4260
4261,2831,Morfou Avenue - Pentadaktylou,MoAv-Pe,35.1330882094539,33.0781856552081,4261
4262,2832,Morfou Avenue - Makariou C´ Avenue 1,Mo-MaC,35.1325863963847,33.0731360145115,4262
4263,2833,Morfou Avenue - Makariou C´ Avenue 2,Mo-MaC,35.1327396695326,33.0731690809374,4263
4264,2834,Troodous - Skopy 1,Tro-Sko,35.1364457426701,33.0563117924992,4264
4265,2835,Troodous - Skopy 2,Tro-Sko,35.1362651159556,33.0569153993925,4265
4266,2836,Troodous - Karydion 1,Tro-Kar,35.1390093826407,33.050056496455,4266
4267,2837,Troodous - Karydion 2,Tro-Kar,35.1390995095593,33.0501663247556,4267
4268,2838,Troodous - Dimitri Liperti,Tr-DiLi,35.1374973601176,33.0425362586922,4268
4269,2839,Troodous - Stylianou Lena,Tr-StLe,35.1376237012367,33.0422509194108,4269
4270,2840,Troodous - Potamiou,Tro-Pot,35.1372380385437,33.0357962067103,4270
4271,2841,Troodous - Grigori Afxentiou,Tr-GrAf,35.13742701768,33.0370696317743,4271
4272,2842,Lefkosias - Troodous - SEDIGEP 1,Le-Tr-SE,35.1351312144639,33.0224365417376,4272
4273,2843,Lefkosias - Troodous - SEDIGEP 2,Le-Tr-SE,35.1352754841962,33.0224695117189,4273
4274,2844,Koutrafas 1,Koutrafas,35.1044624905578,32.9726341647361,4274
4275,2845,Koutrafas 2,Koutrafas,35.104516559496,32.9724805292081,4275
4276,2846,Distrato Ag. Theodorou 1,DisAg.The,35.0573363315432,32.9121923632944,4276
4277,2847,Distrato Ag. Theodorou 2,DisAg.The,35.0569574201835,32.9119405439076,4277
4278,2848,Georgiou Griva Digeni - Gravias,SoleaLyceu,35.1386821040374,33.0310546634833,4278
4279,2849,Georgiou Griva Digeni - Charalampou Mouskou ,GeGrDi-Gr,35.1383395636398,33.0306044677132,4279
4280,2850,Astromeritis Elementary School 2,GeGDi-ChMo,35.1399348412805,33.0335250600862,4280
4281,2851,Astromeritis Elementary School 1,AstEleSch,35.1398897247039,33.0336348157874,4281
4282,2852,Morfotikos Astromeriti 2,AstEleSch,35.1410519886621,33.0369285666317,4282
4283,2853,Morfotikos Astromeriti 1,MorfoAstro,35.1409888211233,33.0370822240451,4283
4284,2854,Astromeritis Square 2,MorfoAstro,35.141069018451,33.0400901167835,4284
4285,2855,Astromeritis Square 1,AstroSquar,35.1409517362356,33.0402657002749,4285
4286,2856,Archiep. Makariou C´ Ave. - Ethnom. Kyprianou,AstroSquar,35.1405990196957,33.0432953206507,4286
4287,2857,Archiep. Makariou C´ Ave. - Dimitriou Chamatsou,ArMaC-EtKy,35.1405178646283,33.0432952776799,4287
4288,2858,Archiep. Makariou C´ Ave. - Vasili Michailidi 2,ArMaC-DiCh,35.1322890917155,33.0726966927805,4288
4289,2859,Archiep. Makariou C´ Ave. - Vasili Michailidi 1,ArMaC-VaMi,35.1322169998794,33.0726197939927,4289
4290,2860,Peristerona Elementary School 2,ArMaC-VaMi,35.1317820169753,33.0761318331233,4290
4291,2861,Peristerona Elementary School 1,PerEleSch,35.1316104267379,33.076548773039,4291
4292,2862,Peristerona Public Kindergarden 2,PerEleSch,35.1306171740511,33.0786662448182,4292
4293,2863,Peristerona Public Kindergarden 1 ,PerPubKin,35.1307168105338,33.0779748409312,4293
4294,2864,Peristerona Police Station 2,PePuKi,35.1307140032218,33.0822226219725,4294
4295,2865,Peristerona Police Station 1,PerPolSta,35.1309298556426,33.0830460550005,4295
4296,2866,Archiepiskopou Makariou C´ - Lordou Vyronos,PerPolSta,35.1332638996275,33.1264276509004,4296
4297,2867,Archiepiskopou Makariou C´ - Sokratous,ArMaC-LoVy,35.1332094523397,33.1267568621798,4297
4298,2868,Archiepiskopou Makariou C´ - Akaki Park 1,ArMaC-So,35.1342328148969,33.1310832489874,4298
4299,2869,Archiepiskopou Makariou C´ - Akaki Park 2,ArMaC-AP,35.1343767218598,33.131423756425,4299
4300,2870,Archiepiskopou Makariou C´ - Vyzakias 2,ArMaC-AP,35.1354277660994,33.1350368163737,4300
4301,2871,Archiepiskopou Makariou C´ - Vyzakias 1,ArMaC-Vy,35.1353375083106,33.1351135049382,4301
4302,2872,Akaki Health Center 2,ArMaC-Vy,35.1367854882343,33.1384748571126,4302
4303,2873,Akaki Health Center 1,AkaHeaCen,35.1367582609052,33.1386284888584,4303
4304,4000,Anoigma Kolokasi,AnoigKolok,35.1707380123156,33.3694299585339,4304
4305,4001,Grigori Afxentiou - Dimokratias,GrAf-Di,35.1370111820176,33.1300997700938,4305
4306,4002,Grigori Afxentiou - Deneias,GrAf-De,35.137083449297,33.1299791376865,4306
4307,4003,Troodous,Troodous,35.1352449241399,33.0595052130523,4307
4308,4004,Troodous,Troodous,35.1353711438667,33.0595492121365,4308
4309,4005,21 Mili 2,21Mili,35.127648276975,33.0130282480008,4309
4310,4006,Koutrafas Shooting Range 1,KouShoRan,35.0867125559697,32.9588614100393,4310
4311,4007,Koutrafas Shooting Range 2,KouShoRan,35.0862884148429,32.957907212713,4311
4312,4008,Lefkosias - Troodous 1,Lef-Tro,35.0314206678811,32.9008296438403,4312
4313,4009,Lefkosias - Troodous 2,Lef-Tro,35.0316551108319,32.9008183977288,4313
4314,4010,Troodos Square,TroodSquar,34.9237254138149,32.8811644088428,4314
4315,4013,Archiep. Makariou C´ Ave - Andrea Avraamidi,ArMaCA-AnA,34.9945033960972,32.900874195989,4315
4317,4015,Galata Folk Art Museum 2,GaFoArMu,34.9959992820137,32.8996450776855,4317
4319,4017,Lefkosias-Troodous - Old Kalliana Train Station 2,Le-Tr-OKaT,35.0195782790577,32.8977638157998,4319
4320,4018,Lefkosias-Troodous - Old Kalliana Train Station 1,Le-Tr-OKaT,35.0195152587789,32.8978844685689,4320
4321,4019,OSEL Tempria Offices,OSETemOff,35.0234390983141,32.8994032837034,4321
4324,4022,Panagia Chriseleousa Church 1,AkaHeaCen,35.1335771807065,33.1286344245125,4324
4325,4023,Panagia Chriseleousa Church 2,PanChrChu,35.1336403128955,33.1286235472321,4325
4326,4024,Griva Digeni Ave. - Thessalias,PanChrChu,35.1318837480102,33.0858240379752,4326
4327,4025,Griva Digeni Ave. Christou Tsiarta Ave.,GrDiAv-Th,35.1319651048818,33.0855387381708,4327
4328,11194,Archiep. Makariou C´ Ave. - 12th Kyperounta,ArMaC-1Ky,34.949129420956,32.9473431147341,4328
4329,11195,Archiep. Makariou C´ Ave. - 11th Kyperounta 2,ArMaC-1Ky,34.9499960183095,32.9495001135699,4329
4330,11196,Archiep. Makariou C´ Ave. - 11th Kyperounta 1,ArMaC-1Ky,34.9499058158471,32.9494344566838,4330
4331,11197,Kyperounta Hospital,KyperHospi,34.950619411433,32.9524349017202,4331
4332,11198,Archiep. Makariou C´ Ave. - 10th Kyperounta 1,ArMaC-10K,34.948609579414,32.9552616427959,4332
4333,11199,Archiep. Makariou C´ Ave. - 9th Kyperounta 2,ArMaC-9Ky,34.9420108335886,32.9613211211968,4333
4334,11200,Archiep. Makariou C´ Ave. - 9th Kyperounta 1,ArMaC-9Ky,34.9419927461268,32.9611568649604,4334
4335,11202,Archiep. Makariou C´ Ave. - 7th Kyperounta 2,ArMaC-7Ky,34.9413365168504,32.9682095506847,4335
4336,11203,Archiep. Makariou C´ Ave. - 7th Kyperounta 1,ArMaC-7Ky,34.941219112353,32.9675415923505,4336
4337,11204,Grigori Afxentiou - 6th Kyperounta,GrAf-6tKy,34.9393349621421,32.9695243985513,4337
4338,11205,1 Apriliou - 5th Kyperounta 1,1Ap-5tKy,34.9386868956006,32.9747370967164,4338
4339,11206,1 Apriliou - 5th Kyperounta 2,1Ap-5tKy,34.9387590789425,32.9749451350812,4339
4340,11315,Stylianou Lena - Cyta 2,StLe-Cy,34.9445490979587,32.9789844119253,4340
4341,11316,Stylianou Lena - 2nd Kyperounta 2,StLe-2nKy,34.9427454872926,32.9783825625439,4341
4342,11317,Stylianou Lena - 3rd Kyperounta 1,StLe-3rKy,34.9418160011267,32.9748456467083,4342
4343,11318,Georgiou Charalampous - 4th Kyperounta 2,GeCh-4tKy,34.9404091312028,32.9741999807552,4343
4344,11320,Georgiou Griva Digeni Ave. - 3rd Chandria 1,GeGDi-3Ch,34.9444873843057,32.9900343038382,4344
4345,11321,Georgiou Griva Digeni Ave. - 2nd Chandria 1,GeGDi-2Ch,34.9435317670774,32.9936045065459,4345
4346,11323,Chandria Square 2,ChandSquar,34.9419176399911,32.9938017493779,4346
4347,11422,Kyperounda Winery 1,KyperWiner,34.944414307376,32.9819193959345,4347
4349,2606,Archiepiskopou Makariou C´ Avenue - Karvounas 2,ArMaC-Ka,34.9423130453557,32.9310633008533,4349
4350,2607,Archiepiskopou Makariou C´ Avenue - Karvounas 1,ArMaC-Ka,34.9424213734973,32.9312712798999,4350
4351,2608,Platania - Forest Station 2,Pl-FoSt,34.9496151017684,32.92739922302,4351
4352,2610,Distrato Spilion,DistrSpili,34.9626989534359,32.9264894784172,4352
4353,2616,Lefkosias - Troodous - Droseri Potamia 2,Le-Tr-DrPo,34.9690420704098,32.9183555159527,4353
4354,2687,Lefkosias - Troodous - Karvounas 2,Le-Tr-Ka,34.9420058800674,32.930067018569,4354
4355,2689,Troodos Camping Site 2,TroCamSit,34.9317094187279,32.8847772168075,4355
4356,2048,Potamia Elementary School,PotEleSch,35.0418012727035,33.444556335934,4356
4357,2050,Filias - 1st Potamia,Fi-1sPo,35.0399366035033,33.4415640486341,4357
4358,2064,Ancient Idalion Museum,AncIdaMus,35.0195157290161,33.4229078846814,4358
4360,2108,A´ Dali Elementary School,ADaElSc,35.0284611467252,33.4254204937097,4360
4361,2111,Agios Andronikos Church ,AgiAndChu,35.025048854467,33.421324972195,4361
4362,2125,Archiep. Makariou C Ave. - 1st Sia,ArMaC-1S,34.9557225373901,33.3862935957325,4362
4363,2130,Griva Digeni Ave. - 3rd Sia,GDi-3S,34.9512420422889,33.3998641609562,4363
4364,2133,Mosfiloti - Sia Road,Mo-SiRo,34.9514793158275,33.4125040929404,4364
4365,2139,Trimythountos Bishopric,TrimyBisho,34.9514919846149,33.4193382954616,4365
4366,2140,Lemesou Ave. - Mosfiloti Roundabout,LeAv-MoRo,34.9519715248766,33.4188697926022,4366
4367,2146,Archiep. Makariou C´ - Theodorou Kolokotroni,ArMaC-ThKo,34.9904043829162,33.4026733185596,4367
4368,2150,Grigori Afxentiou - Lemesou Ave. 2,GrAf-LeAv,34.9944667118012,33.4040300753008,4368
4369,2151,Grigori Afxentiou - Lemesou Ave. 1,GrAf-LeAv,34.9943675587916,33.4040186301577,4369
4370,2154,Agios Epifanios Church 1,AgiEpiChu,34.9956162505659,33.4657512477914,4370
4371,2155,Agios Epifanios Church 1,AgiEpiChu,34.9951699485952,33.4669102605442,4371
4372,2158,Koumi Charalampous - Misiaouli Kai Kavazoglou,KCh-MiKKa,35.0000780263078,33.4615026778241,4372
4373,2168,Lemesou Ave.  - Lympion Ave.,LeAv-LyAv,34.9926672787952,33.4055224282475,4373
4374,2179,Marki,Marki,35.0236276979073,33.3265092753026,4374
4375,2180,Panagia Pantanassa Monastery,PanPanMon,35.0125255885562,33.3497886872443,4375
4378,2193,1 Oktovriou - Gianni Ritsou,1Ok-GiRi,35.0130722489366,33.3894017924427,4378
4379,2195,Eirinis Avenue - Grigori Afxentiou,EiAv-GrAf,35.0137357192055,33.3905886657983,4379
4380,2203,Nikou Kazantzaki,NikouKazan,35.0212886821404,33.3888926717632,4380
4381,2207,Grigori Afxentiou Square,GriAfxSqu,34.9465436185584,33.0472451482919,4381
4382,2216,Distrato Platanistasa - Alithinou,DiPl-Al,34.9523444078379,33.0402280146896,4382
4383,2217,Forest Station,ForesStati,35.0168159050089,33.0825468917999,4383
4384,2219,Archiep. Makariou C - 1st Mitsero,ArMaC-1Mi,35.0414282341003,33.1209574030802,4384
4385,2221,Mitsero Square,MitseSquar,35.0425058203378,33.1253885966467,4385
4386,2224,Archiep. Makariou C´ - 4th Mitsero,ArMaC-4Mi,35.0411045000195,33.1288511371377,4386
4387,2226,Mitsero Community Stadium,MitComSta,35.0401339641269,33.1340904300918,4387
4388,2228,Agia Varvara Church,AgiVarChu,35.0410532052962,33.1424685603801,4388
4389,2229,Panagias Pantanassis - 4th Agrokipia 1,PaPa-4tAg,35.0427726032322,33.1522956490193,4389
4390,2230,Panagias Pantanassis - 4th Agrokipia 2,PaPa-4tAg,35.0429439603279,33.1522740381734,4390
4391,2231,Agrokipia Elementary School 1,AgrEleSch,35.0444818797334,33.1554675989075,4391
4392,2232,Agrokipia Elementary School 2,AgrEleSch,35.0445543132978,33.1552374787338,4392
4393,2234,Panagias Pantanassis - 2nd Agrokipia,PaPa-2nAg,35.0440349799271,33.1593591740477,4393
4394,2235,Panagias Pantanassis - 1st Agrokipia 1,PaPa-1sAg,35.0443781816189,33.1656864224477,4394
4395,2236,Panagias Pantanassis - 1st Agrokipia 2,PaPa-1sAg,35.0444773124327,33.165730481104,4395
4396,2239,Klirou Military Camp,KliMilCam,35.0267632936517,33.1619346659806,4396
4397,2241,Agios Epifanios - Klirou Road,tAgEpKR,34.9954525402899,33.1342476310828,4397
4398,2243,1st Agios Epifanios,1stAgiEpi,34.9964969703824,33.1273566108772,4398
4399,2244,Makariou C´ Ave. - 3rd Agios Epifanios,MaC-3AEp,34.9968728250323,33.1213630142056,4399
4400,2245,Makariou C´ Ave. - 2nd Agios Epifanios,MaC-2AEp,34.9968992843084,33.121954800579,4400
4401,2247,Makariou C´ Ave. - 4th Agios Epifanios,MaC-4AEp,34.9959450337001,33.1203534941255,4401
4402,2248,Agios Epifanios Community Board,AgEpCoBo,34.9950074165156,33.1201548769266,4402
4403,2251,3rd Kykkou Nikiforou Ave.,3rdKyNiAv,34.9652219463899,33.1296852284519,4403
4404,2253,Apliki,Apliki,34.9313372009438,33.1178282577396,4404
4405,2261,Palaichori Square,PalaiSquar,34.9227558633173,33.0931820450989,4405
4406,2265,Agios Loucas Church,AgiLouChu,34.9224152728102,33.0904336175899,4406
4407,2266,Palaichori Health Centre,PalHeaCen,34.9249577541225,33.0910604836641,4407
4408,2289,Fterikoudi,Fterikoudi,34.9424750049187,33.0695610442046,4408
4409,2291,Askas,Askas,34.9297015254844,33.0772586006158,4409
4410,2292,Kampi,Kampi,34.9084123857346,33.1288733694554,4410
4411,2293,Farmakas Square,FarmaSquar,34.9117968156546,33.1345710781048,4411
4412,2294,Agnooumenoi Park,AgnooPark,34.9126260902109,33.1348789493403,4412
4413,2298,Agias Eirinis Ave. - 1st Farmakas,AEi-1Fa,34.9175953626913,33.1343396914989,4413
4414,2303,Gourri,Gourri,34.9583351791001,33.1579553973819,4414
4415,2307,Agios Georgios Church 1,AgiGeoChu,35.0053369104973,33.1627034301252,4415
4416,2308,Agios Georgios Church 2,AgiGeoChu,35.0056075939349,33.1625834122199,4416
4417,2309,Archiep. Makariou C´ Ave. - 2nd Kalo Chorio 1,ArMaC-2KCh,35.0121714463078,33.1631992174464,4417
4418,2310,Archiep. Makariou C´ Ave. - 2nd Kalo Chorio 2,ArMaC-2KCh,35.0123339654873,33.1630460955811,4418
4419,2311,Grigori Afxentiou Ave. - 1st Kalo Chorio 1,GrAf-1KCh,35.0149749077002,33.1639062705371,4419
4420,2312,Grigori Afxentiou Ave. - 1st Kalo Chorio 2,GrAf-1KCh,35.0150560937424,33.1638845111227,4420
4421,2313,Klirou Cinema 1,KliroCinem,35.0163290073949,33.169389405988,4421
4422,2314,Klirou Cinema 2,KliroCinem,35.0163832951577,33.1692579874425,4422
4423,2315,Archiep. Makariou C´ Ave. - 5th Klirou 1,ArMaC-5Kl,35.0186582620983,33.1738115636867,4423
4424,2316,Archiep. Makariou C´ Ave. - 5th Klirou 2,ArMaC-5Kl,35.0190366775699,33.1740315889862,4424
4425,2317,Panagia Evangelistria Church 1,PanEvaChu,35.0214568359756,33.1778403748211,4425
4426,2318,Panagia Evangelistria Church 2,PanEvaChu,35.021493130218,33.1776869916498,4426
4427,2319,Archiep. Makariou C´ Ave. - 3rd Klirou 1,ArMaC-3Kl,35.0238722981859,33.1786567839089,4427
4428,2320,Archiep. Makariou C´ Ave. - 3rd Klirou 2,ArMaC-3Kl,35.0243144714668,33.1784385072367,4428
4429,2321,Archiep. Makariou C´ Ave. - 2nd Klirou 1,ArMaC-2Kl,35.0274342681455,33.1785877970949,4429
4430,2322,Archiep. Makariou C´ Ave. - 2nd Klirou 2,ArMaC-2Kl,35.0275156501137,33.1784345010809,4430
4431,2324,Panagia Chrysopantanassa Church,PanChrChu,35.0332637413581,33.181801710078,4431
4432,2354,Agios Ioannis Malountas,AgiIoaMal,35.065931187984,33.1834095603501,4432
4433,2373,Eirinis Ave. - 2nd Orounta 2,EiAv-2nOr,35.0951413793821,33.093937281877,4433
4434,2374,Eirinis Ave. - 2nd Orounta 1,EiAv-2nOr,35.0951953980606,33.0940470580503,4434
4435,2375,Eirinis Ave. - 3rd Orounta 2,EiAv-3rOr,35.0974587453653,33.0940386853179,4435
4436,2376,Eirinis Ave. - 3rd Orounta 1,EiAv-3rOr,35.0974766777483,33.0941703666391,4436
4437,2377,Eirinis Ave. - 4th Orounta 2,EiAv-4tOr,35.0997130064372,33.0941180780541,4437
4438,2378,Eirinis Ave. - 4th Orounta 1,EiAv-4tOr,35.0998030940247,33.0942279019837,4438
4439,2379,Orounta Community Board 2,OroComBoa,35.1025353721202,33.0941761840296,4439
4440,2380,Orounta Community Board 1,OroComBoa,35.1024541142814,33.0943077593067,4440
4441,2381,Eirinis Ave. - 6th Orounta 2,EiAv-6tOr,35.1089553622143,33.0945786065421,4441
4442,2382,Eirinis Ave. - 6th Orounta 1,EiAv-6tOr,35.1089552679855,33.0946993123559,4442
4443,2384,Peristerona - Orounta Road,Pe-OrRo,35.1176218349024,33.0934472806931,4443
4444,2393,Georgiou Griva Digeni Ave. - 5th Agia Marina 2,GeGDi-5AMa,35.0504461734576,33.0595971596297,4444
4445,2394,Georgiou Griva Digeni Ave. - 5th Agia Marina 1,GeGDi-5AMa,35.0503649956475,33.059640962367,4445
4446,2396,Agia Marina Church,AgiMarChu,35.0495637207115,33.0569977378832,4446
4447,2397,Agia Marina Community Board 2,AgMaCoBo,35.047886757412,33.0564263879594,4447
4448,2398,Agia Marina Community Board 1,AgMaCoBo,35.0478867012548,33.0565470039717,4448
4449,2399,Grigori Afxentiou - 1st Agia Marina 2,GrAf-1AMa,35.0435052127855,33.0544607277662,4449
4450,2400,Grigori Afxentiou - 1st Agia Marina 1,GrAf-1AMa,35.0435051536555,33.0545923018491,4450
4451,2402,Xyliatos,Xyliatos,35.0291270233555,33.0431706839757,4451
4452,2405,Saranti,Saranti,34.9687809531122,32.999364636307,4452
4453,2410,Lagoudera,Lagoudera,34.9640373120959,33.0103624036131,4453
4454,2413,Lagoudera Square,LagouSquar,34.9632438474991,33.0094421837296,4454
4455,2419,Old Agios Georgios Church,OlAgGeCh,34.9766738216939,33.2551007919218,4455
4456,2420,Agios Georgios Church,AgiGeoChu,34.9740550739559,33.2525510630361,4456
4457,2422,Archiep. Makariou C´ Ave. - Machaira,ArMaC-Ma,34.9747534982591,33.2505812520187,4457
4458,2424,Grigori Afxentiou Ave. - Agiou Ioanni,GrAf-AIo,35.0047177833814,33.2552097311352,4458
4459,2426,Kampia Elementary School,KamEleSch,35.0073575324682,33.2563248537493,4459
4460,2428,Ethnom. Archiep. Kyprianou - Panteli Katelari,EtArKy-PaK,35.00886324291,33.2564172294841,4460
4461,2430,Grigori Afxentiou Ave. - Makedonias 2,GrAfAv-Ma,35.0266712297898,33.2570538235166,4461
4462,2431,Grigori Afxentiou Ave. - Makedonias 1,GrAfAv-Ma,35.0271042928534,33.2569455563667,4462
4463,2432,Grigori Afxentiou Ave. - Dimokratias 2,GrAfAv-Di,35.0318593076294,33.255590072468,4463
4464,2433,Grigori Afxentiou Ave. - Dimokratias 1,GrAfAv-Di,35.0319041862938,33.2556888785075,4464
4465,2436,Tamasos Elementary School,TamEleSch,35.0370634745518,33.2507165040664,4465
4466,2471,Michalaki Karaoli - Pentadaktylou,MiKa-Pe,35.0372510985976,33.255869987755,4466
4467,2472,Koutsoventi,Koutsovent,35.0367272393384,33.2562740068295,4467
4468,2741,Nikitari Elementary School,NikEleSch,35.0686124659078,32.9917960343363,4468
4469,2473,Michalaki Karaoli - Kythreas 1,MiKa-Ky,35.036431909922,33.2552096224333,4469
4470,2474,Michalaki Karaoli - Kythreas 2,MiKa-Ky,35.0360082352481,33.2551425243645,4470
4471,2475,Georgiou Griva Digeni - Eleftheriou Venizelou 2,GeGDi-ElVe,35.0314838037849,33.2540541018151,4471
4472,2476,Georgiou Griva Digeni - Eleftheriou Venizelou 1,GeGDi-ElVe,35.0315650054389,33.2540324273298,4472
4473,2477,Eleftherias Square 1,EleftSquar,35.0325238834488,33.2525773142582,4473
4474,2478,Eleftherias Square 1,EleftSquar,35.0325150942827,33.2524676571449,4474
4475,2479,Archiep. Makariou C´ Ave. - Archiep. Kyprianou 1,ArMaC-ArKy,35.0341672644346,33.251507974103,4475
4476,2480,Archiep. Makariou C´ Ave. - Archiep. Kyprianou 2,ArMaC-ArKy,35.0340501303702,33.2514637623855,4476
4477,2482,Agios Nikolaos Church,AgiNikChu,35.0394920228922,33.2448911059934,4477
4478,2484,Episkopeio Elementary School,EpiEleSch,35.0417025650058,33.2442508120413,4478
4479,2486,Agios Irakleidios Monastery,AgiIraMon,35.0430784001783,33.2461407872042,4479
4480,2488,Panteli Katelari Ave. - 1st  Episkopeio,PaKa-1Ep,35.046607495951,33.2489364555161,4480
4481,2489,Panteli Katelari Ave. - Archiep. Makariou C ´ 1,PaKa-ArMaC,35.0551449641492,33.2584918427234,4481
4482,2490,Panteli Katelari Ave. - Archiep. Makariou C ´ 2,PaKa-ArMaC,35.0552258157099,33.2586346560295,4482
4483,2492,Archiep. Makariou C´  - Grigori Afxentiou,ArMaC-GrAf,35.0580545885195,33.2598827810817,4483
4484,2493,Stavropetras - Grigori Afxentiou,St-GrAf,35.0611014817267,33.2603311091278,4484
4485,2494,Michail Karaoli - Archiep. Makariou C´,MiKa-ArMaC,35.0608403106621,33.2601767450082,4485
4486,2495,Griva Digeni - Georgiou Seferi,GrDi-GeSe,35.0637539887952,33.2596705318265,4486
4487,2496,Griva Digeni - 25 Martiou,GrDi-25Ma,35.0653504415212,33.2594891417572,4487
4488,2497,Griva Digeni - 1st Psimolofou 1,GrDi-1sPs,35.0711262804941,33.2614707245081,4488
4489,2498,Griva Digeni - 1st Psimolofou 2,GrDi-1sPs,35.071288779969,33.2613834973006,4489
4490,2499,Machaira - Nikis 1,Mac-Nik,35.0761273127506,33.2631210335787,4490
4491,2500,Machaira - Nikis 2,Mac-Nik,35.0759744241932,33.2629340729373,4491
4492,2507,Agiou Ilarionos - Dikomou,AgIl-Di,35.0531741966494,33.2389336672024,4492
4493,2513,Stavrou Stylianidi - Panteli Katelari,StSt-PaKa,35.0530675403759,33.2426946110551,4493
4494,2535,Deneia Park,DeneiPark,35.1664942654294,33.1485508364644,4494
4495,2517,Markou Drakou,MarkoDrako,35.0541740041373,33.2440247589294,4495
4496,2518,Agias Paraskevis Ave. - Chatzipieri Efthymiou,APa-ChEf,35.0557392016148,33.2459155866161,4496
4497,2520,Ergates Public Kindergarden,ErgPubKin,35.057126526223,33.2465777238505,4497
4498,2522,Archiep. Makariou C´ Ave. - 3rd Ergates,ArMaC-3Er,35.0602183341366,33.2471353548554,4498
4499,2524,Archiep. Makariou C´ Ave. - 1st Ergates,ArMaC-1Er,35.0647985007716,33.2474452760026,4499
4500,2612,Kourdali Community Board,KouComBoa,34.9746502447257,32.950449054285,4500
4501,2613,Spilia Square,SpiliSquar,34.9661933540224,32.9542990709374,4501
4502,2640,Kaliana,Kaliana,35.0129845592813,32.8954264894717,4502
4503,2644,Chani ton Kallianon 2,ChatonKal,35.0176926302914,32.8965714073136,4503
4504,2648,Temvria Square,TemvrSquar,35.0277427478106,32.8916585568128,4504
4505,2650,Papacharalampous - Archiep. Makariou C´,Pa-ArMaC,35.0295817245657,32.8910202968537,4505
4506,2652,Anexartisias - 1st Korakou,An-1sKo,35.0359813467745,32.888029729339,4506
4507,2654,Anexartisias - 2nd Korakou,An-2nKo,35.0382710784311,32.8872920308939,4507
4510,2678,Flasou Square,FlasoSquar,35.0696086372338,32.8897387010933,4510
4511,2679,Linou,Linou,35.0732084436857,32.8918398067487,4511
4512,2681,Katydata Square,KatydSquar,35.0833497241402,32.8883051057094,4512
4513,2684,Katydata Elementary School,KatEleSch,35.0793091201421,32.8873891923048,4513
4514,2703,Filoxenias - 1st Pedoulas,Fi-1sPe,34.9666748694918,32.8276894843205,4514
4515,2705,Filoxenias - 2nd Pedoulas,Fi-2nPe,34.9687031106313,32.8272032387105,4515
4516,2710,Eleftherias Avenue - 2nd Moutoulla,ElAv-2nMo,34.9827363983318,32.8224186896001,4516
4517,2714,Sofokles Pogiatzis Square,SofPogSqu,34.9909500615249,32.8278249055875,4517
4518,2716,Markou Drakou - 2nd Kalopanagioti,MaDr-2nKa,34.9933848095149,32.8278526804189,4518
4519,2719,Markou Drakou - 3rd Kalopanagioti,MaDr-3rKa,34.9984315239517,32.8257161672615,4519
4520,2721,Marathasas Ave.  - 3rd Kalopanagioti,MaAv-3rKa,35.0023102768925,32.8265956214059,4520
4521,2722,Oikos,Oikos,35.0002052866976,32.8301945210985,4521
4522,2730,Agia Eirini Lefkosias,AgiEirLef,34.9805537962002,32.9688846366181,4522
4523,2733,Kannavia,Kannavia,34.9809883174097,32.9763456250365,4523
4524,2735,Kannavia Helath Center,KanHelCen,34.9824673229656,32.9770792763963,4524
4525,2744,Ioannis Prodromos Church - Nikitari,IoPrCh-Ni,35.0742935204886,32.9940879091668,4525
4526,2749,Archangelou Michail - 1st Vyzakia,ArMi-1sVy,35.0766465223685,33.0127020365609,4526
4527,2751,Tilepikoinonion - 3rd Vyzakia,Ti-3rVy,35.0802172580764,33.0138434097974,4527
4528,2753,Morfou - 4th Vyzakia,Mo-4tVy,35.0816958385388,33.0159607960801,4528
4529,2759,Agios Georgios Old Church - Potami,AGeOCh-Po,35.1029649654153,33.0301303965781,4529
4530,2762,Potami Health Centre,PotHeaCen,35.1043538238903,33.0293299039446,4530
4531,2773,Mammari,Mammari,35.177546307021,33.2060531488896,4531
4532,2774,Mammari Square,MammaSquar,35.1740231624193,33.2045397275299,4532
4533,2777,Kon. Palaiologou - 1st Mammari Setl.,KPa-1MaS,35.1717152861903,33.1988124957911,4533
4534,2781,Kon. Palaiologou - 2nd Mammari Setl.,KPa-2MaS,35.1699470619706,33.1993353006111,4534
4535,2782,Savva Rotsidi - 3rd Mammari Setl.,SRo-3MaS,35.1682188458578,33.2029109553754,4535
4536,2791,Souliou - Evagora Pallikaridi,So-EvPa,35.1230666499954,33.1880263773109,4536
4537,2801,Manas Ton Paidon - Meniko,MaToPa-Me,35.1195677890177,33.1417490946374,4537
4538,2805,Meniko,Meniko,35.1099787105225,33.1449037998585,4538
4539,2875,Gerakies,Gerakies,35.0004021653543,32.805175311245,4539
4541,2877,Kykkos,Kykkos,34.98291596352,32.7416148446781,4541
4542,2880,Tsakistra,Tsakistra,35.0241310373139,32.7236612126193,4542
4543,2881,Kampos,Kampos,35.040194605181,32.7333541581084,4543
4546,4026,Georgiou Griva Digeni - Grigori Afxentiou Ave.,GeGDi-GrAf,35.0305348939583,33.2550487750797,4546
4547,4027,Politiko,Politiko,35.0281429990771,33.2429826782608,4547
4548,4028,Archiep. Makariou C´ Ave. - 1st Ergates 1,ArMaC-1Er,35.062110774465,33.2477223068774,4548
4549,4029,Archiep. Makariou C´ Ave. - 1st Ergates 2,ArMaC-1Er,35.0622911869414,33.2476899508999,4549
4550,4030,Klirou Community Health Centre - 1st Klirou 1,KlCoHeCe-1,35.0300134090824,33.1784728172488,4550
4551,4031,Klirou Community Health Centre - 1st Klirou 2,KlCoHeCe-1,35.0301036632158,33.1784181999184,4551
4552,4032,Archiep. Makariou C´ Ave. - 3rd Kalo Chorio 2,ArMaC-3KCh,35.0095477100972,33.1629528868723,4552
4553,4033,Archiep. Makariou C´ Ave. - 3rd Kalo Chorio 1,ArMaC-3KCh,35.0090786438475,33.1630725155487,4553
4554,4035,Palaichori - Askas Road,Pa-AsRo,34.927792049616,33.0872642804579,4554
4555,4038,2nd Kykkou Nikiforou Ave.,2sKyNiAv,34.9614365931326,33.1278062057835,4555
4556,4039,4th Kykkou Nikiforou Ave.,4thKyNiAv,34.9748355995309,33.1287253547481,4556
4557,4040,5th Agios Epifanios,5thAgiEpi,34.9957426887352,33.1328016320445,4557
4558,4041,B´  Regional High School Nicosia - Malounta,BReHScNi-M,35.0451253325623,33.1852818690084,4558
4559,4042,Alithinou,Alithinou,34.9472977538413,33.0291862485296,4559
4560,4043,Livadia Lefkosias,LivadLefko,34.9457932105613,33.0227133861285,4560
4561,4044,Christou Tsiarta Ave. - 1st Polystypos,ChTs-1Po,34.9421240031668,33.0170616583365,4561
4562,4045,Polystypos Community Board,PolComBoa,34.9382823650945,33.0182325650878,4562
4563,4046,1st Alona,1stAlona,34.9348323484108,33.0403070632551,4563
4564,4047,2nd Alona,2ndAlona,34.9326317976315,33.0411162674322,4564
4565,4048,Krya Vrysi Square,KryVrySqu,34.9452813860242,33.0466749504756,4565
4566,4049,Platanistasa - Mitsero Road,Pl-MiRo,35.0285272780126,33.0857706784842,4566
4567,4050,Archiep. Makariou C´ - 3rd Mitsero,ArMaC-3Mi,35.0417107656946,33.1268565931627,4567
4568,4051,Archiep. Makariou C´ - 5th Mitsero,ArMaC-5Mi,35.0407764211205,33.132063114364,4568
4569,4052,Panagias Pantanassis - 5th Agrokipia 1,PaPa-5tAg,35.0416092283336,33.1450461235826,4569
4570,4056,Pyrga - Kornos Intersection,Py-KoIn,34.9273641610141,33.4132373771638,4570
4571,4057,Lemesou Ave. - Filias,LeAv-Fi,34.9977926869451,33.4017451753162,4571
4572,4058,Lemesou Avenue - Steliou Christodoulou,LeAv-StCh,35.0227845662934,33.3947861647068,4572
4573,4059,Grigori Afxentiou - Eleftherias,GrAf-El,34.9993558981351,33.4545290181415,4573
4575,4064,Lefkosias Ave. - Ammochostou,LeAv-Am,34.9445314986735,33.4589790843308,4575
4576,4065,Griva Digeni Ave. - 2nd Sia,GDi-2S,34.9549565971892,33.3917553590959,4576
4577,4066,Potamia Community Board,PotComBoa,35.0435815897908,33.4459474957317,4577
4578,4067,Chalkanoros - Post Office,Ch-PoOf,35.0185230194237,33.4153067484123,4578
4579,4068,Georgiou Eikosari - Pafou,GeEi-Pa,35.0249590456755,33.4289430536058,4579
4580,4069,Dorou Loizou - Petraki Giallourou,DoLo-PeGi,34.9513031277352,33.2968047245532,4580
4589,4080,Eleftherias - 6th Korakou,El-6tKo,35.0404556668742,32.8898875220308,4589
4590,4084,Archiep. Makariou C - 1st Flasou,ArMaC-1Fl,35.0680559688102,32.8878982009964,4590
4591,4086,Linou Cemetery,LinouCemet,35.0761524272109,32.8968157894311,4591
4592,4087,Linou - Katydatya Intersection,Li-KaIn,35.0765602371678,32.8889066808213,4592
4593,4088,Panagias Moutoullas - 1st Moutoulla,PaMo-1sMo,34.9832806446007,32.8246197628487,4593
4594,4089,Spilia,Spilia,34.96738429748,32.9560182440138,4594
4595,4090,Agiou Georgiou - 6th Potami,AgGe-6tPo,35.1144107024221,33.0150563309141,4595
4596,4092,Nikitari Park,NikitPark,35.0731934944358,32.9963255587165,4596
4598,4094,Deneia Roundabout,DeneiRound,35.1665904476843,33.1435656395204,4598
4599,4095,Agia Marina Elementary School,AgMaElSc,35.0505375546353,33.0570861380307,4599
4600,4096,Ammochostou - Paliometocho Setl.,Am-PaSe,35.1215756739308,33.1841926959396,4600
4602,4100,Eirinis Ave. - 1st Orounta 1,EiAv-1sOr,35.0917960071536,33.0938785905894,4602
4603,4101,Eirinis Ave. - 1st Orounta 2,EiAv-1sOr,35.0917870747495,33.0937688706978,4603
4604,20426,Psevdas Community Stadium 1,PseComSta,34.9458293396287,33.4662580258443,4604
4605,20427,Psevdas Community Stadium 2,PseComSta,34.9457110646022,33.4665311400586,4605
4606,20429,Lefkosias Ave. - Grigori Afxentiou 2,LeAv-GrAf,34.9450166553311,33.4618291160686,4606
4607,20430,Lefkosias Ave. - Artemidos 1,LeAv-Ar,34.9442979033074,33.4539511961818,4607
4608,20431,Lefkosias Ave. - Artemidos 2,LeAv-Ar,34.9442074444228,33.4540273557346,4608
4609,20434,Panagias Eleousas Ave. 2,PanEleAve,34.9429470367767,33.4770284261473,4609
4610,20435,Panagias Eleousas Ave. 1,PanEleAve,34.9429551077317,33.477269394427,4610
4611,20437,Agia Anna Community Board,AgAnCoBo,34.9416356139,33.4803060723858,4611
4612,20439,Larnakos Ave. - Apostolou Varnava 1,LaAv-ApVa,34.950567505999,33.430986535298,4612
4613,20447,Pyrga - Kornos Road 1,Py-KoRo,34.9263494056292,33.4119950744031,4613
4614,20449,Pyrga Larnaka Elementary School 1,PyLaElSc,34.9261371166759,33.4264792411635,4614
4615,20450,Pyrga - Kornos Road 2,Py-KoRo,34.9261495389305,33.4124320265053,4615
4616,20451,Pyrga Larnaka Elementary School 2,PyLaElSc,34.9258539637628,33.4275069569018,4616
4617,20452,Agia Marina Church  1,AgiMarChu,34.9257935457927,33.4318423379023,4617
4618,20453,Agia Marina Church  2,AgiMarChu,34.9256584030923,33.4318087837333,4618
4619,20454,1 Maiou - 8th Kornos 1,1Ma-8tKo,34.9254797780472,33.4024106217101,4619
4620,20456,Larnakos - 1st Pyrga Larnakas,La-1sPyLa,34.9251608306553,33.4373023926364,4620
4621,20457,Larnakos - 1st Pyrga Larnakas 2,La-1sPyLa,34.9249019317723,33.4340602329599,4621
4622,20458,1 Maiou - 8th Kornos 2,1Ma-8tKo,34.9249036475465,33.4021121962797,4622
4623,20459,Larnakos - 1st Pyrga Larnakas 1,La-1sPyLa,34.924882527727,33.4344433317717,4623
4624,20460,Anexartisias - 2nd Kornos 1,An-2nKo,34.9219761871672,33.3928576083791,4624
4625,20461,Anexartisias - 2nd Kornos 2,An-2nKo,34.9221194378084,33.3931757903918,4625
4626,20462,Grigori Afxentiou - 3rd Kornos 2,GrAf-3rKo,34.92152110222,33.3969281597105,4626
4627,20463,Grigori Afxentiou - 3rd Kornos 1,GrAf-3rKo,34.9214041628399,33.3968400114065,4627
4628,20464,Anexartisias - 1st Kornos 1,An-1sKo,34.9211833745982,33.3898321465568,4628
4629,20465,Anexartisias - 1st Kornos 2,An-1sKo,34.9214156462124,33.3905120308809,4629
4630,20466,1 Maiou - 7th Kornos,1Ma-7tKo,34.9202222738603,33.4025053848575,4630
4631,20469,Grigori Afxentiou - 4th Kornos 2,GrAf-4tKo,34.919502523821,33.3992722398998,4631
4632,20471,Grigori Afxentiou - 4th Kornos 1,GrAf-4tKo,34.9194127460206,33.3991513783105,4632
4633,20473,Grigori Afxentiou - 5th Kornos 1,GrAf-5tKo,34.917866422213,33.400468561833,4633
4634,20474,Grigori Afxentiou - 5th Kornos 2,GrAf-5tKo,34.9177844721924,33.4007090125974,4634
4635,20475,Timios Prodromos Church 2,TimProChu,34.9174912160963,33.4021307797713,4635
4636,20476,Timios Prodromos Church 1,TimProChu,34.9172570187688,33.4020530042982,4636
4638,20480,Agia Marina Church 1,AgiMarChu,34.9535406274641,33.4240473150296,4638
4639,20481,Agia Marina Church 2,AgiMarChu,34.9533510737498,33.4241011007615,4639
4640,20482,Archiep. Makariou C´ - Omirou 1,ArMaC-Om,34.952848630825,33.4207799589202,4640
4641,20483,Archiep. Makariou C´ - Omirou 2,ArMaC-Om,34.9526953752076,33.4207682234411,4641
4642,20484,Platini Museum,PlatiMuseu,34.9519806844773,33.4266020977779,4642
4643,20487,Mosfiloti Elementary School,MosEleSch,34.9515405905541,33.4235222641825,4643
4644,20488,Psevdas Square,PsevdSquar,34.9507724467441,33.4634932464299,4644
4645,20490,Larnakos Ave. - Apostolou Varnava 2,LaAv-ApVa,34.9506151159789,33.4302749030429,4645
4646,20491,1 Apriliou - Georgiou Griva Digeni,1Ap-GeGDi,34.9505191953158,33.4267916625431,4646
4647,20492,1 Apriliou - Papamiichail Konstantinou 2,1Ap-PaKo,34.9505424713557,33.4278650805581,4647
4648,20494,Mosfiloti Cemetery 1,MosfiCemet,34.9488024424401,33.4328610039483,4648
4649,20495,Mosfiloti Cemetery 2,MosfiCemet,34.9485134998246,33.4329690026304,4649
4650,20497,Agios Ioannis Church 2,AgiIoaChu,34.9476012238599,33.4627306891634,4650
4651,20498,Makariou C Ave. - Larnakos Ave. 1,MaC-La,34.9463483717123,33.4625812813107,4651
4652,20499,Makariou C´ Ave. - Larnakos Ave. 2,MaC-La,34.946347954642,33.4626907933488,4652
4653,20500,Lefkosias Ave. - Grigori Afxentiou 1,LeAv-GrAf,34.9451428132767,33.4618517260191,4653
4654,20721,1 Apriliou - Papamiichail Konstantinou 1,1Ap-PaKo,34.9506235495676,33.4278874058807,4654
4655,20722,Agia Anna Church,AgiAnnChu,34.942344983727,33.4810658204724,4655
4656,4102,Kokkinotrimithias Setl. 2,KokkiSetl.,35.1561065858972,33.1874765299484,4656
4657,4103,Kokkinotrimithias Setl. 1,KokkiSetl.,35.1559984309308,33.1874433431365,4657
5435,11329,Panagia Eleousa Church 1,PanEleChu,34.9171543244659,33.0177133506811,5435
5436,11330,Rodon Hotel 1,RodonHotel,34.9098868712428,33.0118990824602,5436
5437,11331,Agros Post Office 2,AgrPosOff,34.9165137812369,33.0196399902421,5437
5438,11332,C.A.P.O. Agros Office 2,CAPOAgros,34.9170543599704,33.0223879839957,5438
5439,11333,Christoforou Pissaridi Ave. - Agros,ChrPisAve,34.915620699974,33.0216541136424,5439
5443,11346,Papoutsa,Papoutsa,34.905853904049,33.0533516921806,5443
5459,11421,Apeitios School - Glafkos Clerides Sport Centre 1,ApSc-GlClS,34.9160906532826,33.0147025482821,5459
5460,11171,Prodromos Vilalge Center 1,ProVilCen,34.9497919905832,32.8326094109962,5460
5461,11423,Prodromos Camping Site,ProCamSit,34.9518939212383,32.8332294184157,5461
5462,2153,Anexartisias - Stadiou 1,Ane-Sta,34.9945976887817,33.4703258623728,5462
5468,2763,Agios Georgios Church - Potami,AgGeCh-Po,35.1075288216988,33.0252710020643,5468
5469,2765,Agiou Georgiou - 4th Potami,AgGe-4tPo,35.1097115379378,33.0225612530088,5469
5470,2767,Agiou Georgiou - 5th Potami,AgGe-5tPo,35.1115333959882,33.0204877416871,5470
5471,4034,1st Metamorfosis Sotiros Church,1MSChu,34.9218977807402,33.0950094425196,5471
5475,4061,Athienou Roundabout,AthieRound,35.0581785064605,33.5211133699569,5475
5476,4062,Theokritou - Panos 2,The-Pan,35.0597116488589,33.5375948208217,5476
5477,4063,Eleftheriou Venizelou - Ifaistou,ElVe-If,35.0622877422136,33.536196983798,5477
5482,4085,1st Katydata,1stKatyd,35.0767314253038,32.8887528835205,5482
5543,21781,Anexartisias - Stadiou 2,Ane-Sta,34.9945166193761,33.4703034828881,5543
5547,2368,Kato Moni,KatoMoni,35.0627978351132,33.0918713061619,5547
5548,2636,Malounta Community Centre,MalComCen,35.0358492772977,33.1834300297629,5548
6847,21933,Eleftheriou Venizelou - Georgiou Skourou,ElVe-GeSk,35.0631523865148,33.5343821198436,6847
6848,21934,Archiep. Makariou C´ Ave. - Petrou Vrachimi,ArMaC-PeVr,35.064499919423,33.5334806277854,6848
6849,21935,Archiep. Makariou C´ Ave. - G. Griva Digeni Ave.,ArMaC-GGDi,35.0640391145617,33.5357368509662,6849
6851,21937,Athienou Old High School,AtOlHiSc,35.0594468581284,33.5423854349429,6851
6852,21938,Athienou Elementary School,AthEleSch,35.0584429349625,33.5430587087837,6852
6853,21939,Athienou Sports Centre,AthSpoCen,35.0584762088016,33.5456908514403,6853
6854,21940,25 Martiou - Kosti Palama,25Ma-KoPa,35.0604214042657,33.5442452362495,6854
6856,21942,Archiep. Makariou C´ Ave. - 9 Iouliou,ArMaC-9Io,35.0632624320364,33.5400747035483,6856
6858,21944,Archiep. Makariou C´ Ave. - Pan. Matsouka,ArMaC-PMa,35.0641514799795,33.5347944138414,6858
6859,21945,Eleftheriou Venizelou - Panagioti Matsouka,ElVe-PaMa,35.0637257632963,33.5331794807603,6859
6860,21946,Eleftheriou Venizelou - Konst. Toumpa,ElVe-KoTo,35.0629051572447,33.5352359301452,6860
7008,20428,Larnakos Ave. - Dorou Loizou,LaAv-DoLo,34.9456492012547,33.4638477104156,7008
7020,20485,Platini Museum 2,PlatiMuseu,34.9517169127904,33.4272469092918,7020
7021,20486,1 Apriliou - Kyriakou Matsi,1Ap-KyMa,34.9517640904999,33.4214863084424,7021
7023,20496,Agios Ioannis Church 1,AgiIoaChu,34.9472951387392,33.4625975506141,7023
7025,20638,Theokritou - Mpoumpoulinas,The-Mpo,35.0589303791457,33.5368659166879,7025
7026,20642,Athienou Cemetery,AthieCemet,35.0578725336997,33.5354662762423,7026
7027,20645,Theokritou - Ioanni Kai Marias Kramvi 1,Th-IoKMaKr,35.0561130856791,33.5336673264605,7027
7035,21746,28 Oktovriou,28Oktov,35.060975473977,33.5413317768793,7035
7036,21851,Lefkosias Ave. - Digeni Akrita,LeAv-DiAk,34.9443118094293,33.4574556475396,7036
7037,21852,Lefkosias Ave. - Appidakiou,LeAv-Ap,34.944203932464,33.4573674391526,7037
7038,21936,Athienou City Hall 1,AthCitHal,35.0634568607955,33.5389354148312,7038
7039,21943,Athienou City Hall 2,AthCitHal,35.063514808774,33.5380694010607,7039
7040,21949,Theokritou - Ioanni Kai Marias Kramvi 2,Th-IoKMaKr,35.0562474716559,33.5338655897507,7040
7043,22194,1 Apriliou - Archiep. Makariou C´,1Ap-ArMaC,34.9516583892803,33.4207629244707,7043
7045,22193,Lemesou Ave. - 1 Apriliou,LeAv-1Ap,34.9519530748393,33.4189901730124,7045
7050,21766,Griva Digeni - 25 Martiou,GrDi-25Ma,35.0234591204126,33.4194971683741,7050
7053,21770,Dali Lyceum 1,DaliLyceu,35.0202161385652,33.4288853983536,7053
7054,21771,Dali Lyceum 2,DaliLyceu,35.0201170272926,33.4288629582485,7054
7055,21773,Grigori Afxentiou - Dorou Loizou,GrAf-DoLo,34.9996620354704,33.4570511753812,7055
7056,21774,Grigori Afxentiou - Koumi Charalampous,GrAf-KoCh,34.9997710250497,33.4568435688802,7056
7057,21776,Koumi Charalampous - Michail Olympiou,KoCh-MiOl,35.0001863570616,33.4614704102517,7057
7058,21779,Agios Epifanios Church 2,AgiEpiChu,34.9957242041035,33.4658176074651,7058
7060,21972,Alampra Bus Station,AlaBusSta,35.0024263795883,33.3938664298765,7060
7061,22186,Omonoias Ave. - Agiou Georgiou 2,OmAv-AgGe,34.9267974678418,33.4020666913024,7061
7062,22187,Omonoias Ave. - Agiou Georgiou 1,OmAv-AgGe,34.9268514631166,33.4020998013367,7062
7063,22188,Mosfiloti - Sia Road - 1st Stop,Mo-SR-1S,34.9457795586781,33.415366710196,7063
7064,22189,Mosfiloti - Sia Road - 2nd Stop,Mo-SR-2S,34.9456262648368,33.4153659371072,7064
7065,22191,Lemesou Ave. - Lympion Ave. 2,LeAv-LyAv,34.9927119622616,33.4056431826699,7065
7189,2,Dionysios Solomos Square D,SqrSolD,35.1713757611785,33.3582426177153,7189
7191,4105,NICOSIA MALL,NIC MALL,35.1333323319374,33.2794294100809,7191
7192,4106,NICOSIA MALL,NIC MALL,35.1328996865444,33.2793510969183,7192
7199,81,Arxaggelou Mixail,,35.1711897889113,33.3631615372237,7199
7204,29092019,Kirillos Bakery,,34.9936586642223,32.9045022643611,7204
7205,29092019,Kirillos Bakery,,34.9938301333369,32.904677391235,7205
7225,4111,GSP Stadium 1,GSPStadium,35.1125973346024,33.3627916465142,7225
7226,4112,GSP Stadium 2,GSPStadium,35.1125694128046,33.3600590762434,7226
7256,4115,Strovolos Station,StrovolHUB,35.1410845462943,33.3371537803846,7256
7258,4117,Kaliana,Kaliana1,35.0122523281321,32.8835245004896,7258
7300,4118,Ilektras - Mammari,IlektrasMa,35.1656431567137,33.2063415654976,7300
7308,5056,Ithakis - Electras,Ith-Ele,35.1451255603248,33.3166085334721,7308
7310,5058,Ithakis - Lykavitou,Ith-Lyk,35.1422858255063,33.3128761012096,7310
7311,5059,Kopegchagus - Copenhagen,Kop-Cop,35.1261890057772,33.2916317559509,7311
7312,5048,Ippokratous - Trikomou,Ipp-Tri,35.1128716433483,33.3198087647585,7312
7313,5049,Ippokratus - Themistokleus,Ipp-The,35.112756502452,33.3190182068856,7313
7317,5063,Filippou Papakyprianou - Efterpis,FiPa-Eft,35.1119848353588,33.3715019701964,7317
7318,5010,Psaron - Archangel Michael,Psa-ArchMi,35.1857042820751,33.3845999873457,7318
7319,5011,Ave. Archiep. Makariou C - Agiou Ilarionos,ArMa-AgIl,35.1886838721161,33.3804950658161,7319
7322,5064,Akadimias - Amfissis,Ak-Am,35.1504485577042,33.3813599722666,7322
7323,5065,Akadimias - Alexandrou Yosilandou,Ak-AlYo,35.1509252495794,33.3817464550878,7323
7324,5001,Kyvelis - Kallikratidas,Ky-Kalli,35.1219847050471,33.3278121988111,7324
7326,5051,Axiou - Argous,Ax-Ar,35.1051930025139,33.3077965688559,7326
7327,5012,Kyriakou Matsi - Konstantinou Satha,KyM-KSa,35.1569023450807,33.352403868505,7327
7328,5013,Kyriakou Matsi - Agathonos,KyMa-Aga,35.1567133385306,33.3522822777184,7328
7329,5014,Armenias - Edessis,Ar-Ed,35.152126875545,33.3722991631292,7329
7330,5015,Armenias - Kalipsous,Ar-Kal,35.152073683863,33.37200248843,7330
7331,5016,Armenias - Stasinou,Ar-Sta,35.1527715816758,33.3678775336691,7331
7333,5018,Arsinois - Esperidon,Ar-Es,35.1551901629417,33.3612239250461,7333
7334,5044,Athalassa Botanic Gardens , ,35.1377876898445,33.378732287614,7334
7335,5045,Fytoriou - Cyprus Institute, ,35.1384241900194,33.3827858006558,7335
7336,5046,Fytoriou - Radio Station,Fy-RS,35.1396920594041,33.3978855332749,7336
7337,5047,Fytoriou - Agios Georgios,Fy-AgGe,35.1406082087885,33.4017101355629,7337
7338,5061,Theofilou Georgiadi - Vasilissis Amalias, ,35.1042206826565,33.3311645046809,7338
7339,5062,Filippou Papakyprianou - Markou Drakou,FiPa-MaDr,35.1122939691847,33.3706693766184,7339
7340,5060,Theofilou Georgiadi - Tseriou,ThGe-Tse,35.1041399479433,33.3310105622599,7340
7341,5006,Stavrou - Karchidonos,Stv-Kar,35.1350521167978,33.3591042674506,7341
7342,5007,Stavrou - Iosif Hadjiosif,Stv-IOHad,35.1348537739361,33.3590924198788,7342
7343,5019,Arsinois - Acropoleos Ave,Ars-Acro,35.1550553329258,33.3610805971012,7343
7344,5070,Leoforos Ammochostou - Larnakos,LeoAmm-Lar,35.1576919775665,33.3973692743448,7344
7345,5071,Leoforos Ammochostou - Palaion,LeoAmm-Pal,35.1582332489525,33.3972950479646,7345
7346,5072,University of Cyprus - Oceanograph center,UofC-Oc,35.1436924761584,33.4069946516604,7346
7347,5073,Kitiou - Protomagias,Kit-Pro,35.1211925878715,33.1927961484349,7347
7348,5074,25 Martiou ,25 Martiou,35.1784957473616,33.2044960178415,7348
7349,2878,Kikkos Parking,Kikkos P,34.9826945015057,32.7434890781258,7349
7363,5082,Ammochostou - John Kennedy,Amm - Joh,35.1664624361865,33.3983453099318,7363
7364,5081,Ammochostou - Dikomou,Amm - Dik,35.1635471696334,33.3991765939793,7364
7365,5100,Polykarpou Giorkatzi ,PolGio,34.9255933287943,33.0970939737501,7365
7366,5101,Polykarpou Giorkatzi,PolGio,34.9253949429247,33.0970937400594,7366
7386,5066,Patriarchou Gregoriou - Argous,PatGre-Arg,35.138196176008,33.3381846984311,7386
7388,6100,Griva Digeni-Leoforos Dimokratias,GriD-LeoD,35.045572653359,33.1816645053228,7388
7389,6102,Agios Epifanios - Klirou Road 2,AgiE-KR,34.9969101538608,33.1371210815301,7389
7390,6103,1st Kykkou Nikiforou Ave.,1KyNiAv,34.9407474147165,33.1219701708111,7390
7391,6104,Anthoupoleos - Palaichoriou,Ant-Pal,34.9275084501807,33.1038846421084,7391
7392,6105,2nd Metamorfosis Sotiros Church,2ndMSch,34.9231958692749,33.095569311109,7392
7393,6106,Polykarpou - Giorgatzi 2,Pol-Gio,34.9245770197899,33.093687742322,7393
7394,6107,Agios Loucas Church 2,AgiLouC2,34.921214755623,33.0920088438971,7394
7395,6108,Palaichori Health Centre 2,PalHeaCen2,34.9238575400313,33.0911578053602,7395
7396,6101,Agios Epifanios - Klirou Road 3,AgEp-KR3,35.0102688474115,33.1491227202842,7396
7397,7031,Fterikoudi 2,Fter2,34.9412215317876,33.0696256909928,7397
7399,21971,Alampra Bus Station 2,AlaBusSta2,35.0023998611566,33.3937019187518,7399
7400,990,Solomos Square Alighting ,SolSqAl,35.170392452312,33.3583920449795,7400
7403,5053,John Kennedy - Tseriou,Joh-Tse,35.1008584744757,33.3067050066482,7403
7404,5052,Axiou - Spercheiou,Axi-Spe,35.104976451503,33.307850618185,7404
7405,5050,Axiou - Karyatidon,Axi-Kar,35.1093621829939,33.3100727377089,7405
7406,5002,Kyvelis - Ayiou Stylianou,Kyv-AyiSty,35.120985110507,33.3273253020089,7406
7407,5054,Kantaras - Pantainou,Kan-Pan,35.1244579753845,33.3301927703475,7407
7408,5026,Athalassas - Eleftheriou Venizelou,Ath-EleVen,35.1502389859463,33.4042825669473,7408
7409,5027,Athalassas - Omonoias,Ath-Omo,35.149831901933,33.4046757853275,7409
7410,5036,Egnatias - Roumelis,Egn-Rou,35.1475439766021,33.3957500327421,7410
7411,5037,Egnatias - Spartis,Egn-Spa,35.1474089724692,33.3956725307679,7411
7412,5043,Promitheos - Kyrenias,Pro-Kyr,35.1489470273658,33.3885109829973,7412
7413,5042,Promitheos,Prom,35.1490200783404,33.3882258876258,7413
7414,5024,Aglantzias - Athinas,Agl-Ath,35.1571213603829,33.3898234822151,7414
7415,5025,Aglantzias - Aristidou,Agl-Ari,35.1569504965718,33.3896799319901,7415
7416,5034,Stasinou - John Kennedy,Sta-JohKen,35.1567007297077,33.3715953464635,7416
7417,5035,Stasinou - Agias Paraskevis,Sta-Agi,35.1563580493393,33.3716047677586,7417
7418,5032,Ifigenias - Stasinou,Ifi-Sta,35.1549198965525,33.3701050351161,7418
7419,5033,Ifigenias - Ilia Papakyriakou,Ifi-IliPap,35.1548118599614,33.3700496491117,7419
7420,991,Dionysios Solomos Square A,SqrSolA,35.1707964293693,33.358997800121,7420
7421,992,Dionysios Solomos Square C,SqrSolC,35.1714384904596,33.3583746719,7421
7428,5017,Armenias - Ifigenias,Arm-Ifi,35.1526731607923,33.3676245722761,7428
7429,5030,Ifigenias - Eleftheroupoleos,Ifi-Ele,35.1535514043773,33.366442771447,7429
7430,5031,Ifigenias - Armenias,Ifi-Arm,35.1534878866523,33.3665742366948,7430
7431,5028,Ifigenias - 1is Apriliou ,Ifi-1isApr,35.1523262837681,33.3630447628889,7431
7432,5029,Ifigenias - Ektoros,Ifi-Ekt,35.1522263066154,33.3633078148494,7432
7433,5020,Arsinois - Nikis,Ars-Nik,35.1554250396038,33.3580409275614,7433
7434,5021,Arsinois - Patroklou Kokkinou,Ars-PatKok,35.1553621798967,33.3579528167547,7434
7435,5022,Glafkou - Knosou,Gla-Kno,35.1578782483592,33.3547906862698,7435
7436,5023,Glafkou - Dilou,Gla-Dil,35.1577973522481,33.3547024969992,7436
7440,2355,Agios Ioannis,AgIoan,35.0657933628893,33.185098242747,7440
7447,5201,Olympion,Oly,35.1373928758773,33.2006170720047,7447
7448,5202,Olympion 2,Oly2,35.137464595119,33.2008697206041,7448
7734,5104,Ftelias - Filipou ,FteFil,35.0797660179725,33.405360609567,7734
7735,5105,Ftelias - Idaliou,FteIda,35.0795122554089,33.4057432775345,7735
7736,5106,Filipou - Megalou Aleksandrou Ave.,FilMeAle,35.0834306387362,33.3988297914588,7736
7737,5107,Filipou - Irodotou,FilIro,35.0837096275034,33.3989956963602,7737
7827,6040,Apostolos Andreas Church,ApAndCh,35.0417265117292,33.2367184497027,7827
7830,6043,Agapis - Enotitos,AgEn,35.1732910248294,33.3863974481248,7830
7831,6044,Agapis - Zappeiou,AgZap,35.1731828561241,33.3863859545316,7831
7832,6045,Egnateias - Kallitheas,EgnKali,35.147392333333,33.397999857955,7832
7833,6046,Egnateias - Keryneias.Av,EgnKerAv,35.1475997604777,33.3979898895048,7833
7834,3055,Akadimias - Arachovas,AkaAra,35.1231995617353,33.3045607787214,7834
7835,3056,Akadimias,Aka,35.1239310942479,33.3076804658264,7835
7836,3057,Agias Mavris - Pediaiou,AgiPed,35.1235703476495,33.3112350662451,7836
7837,3058,Pediaiou - Agias Mavris,PedAgi,35.1233900615239,33.3112124301456,7837
7838,3059,Akadimias - Aggelou Terzaki,AkaAggTerz,35.1237686466546,33.307734730951,7838
7839,3060,Akadimias- Arachovas 1,AkaArac1,35.1230549842427,33.3046809667525,7839
7840,3061,GSP Stadium,GSPSt,35.1133833931296,33.3592396226367,7840
7983,3063,Morningside School,MorSch,35.0909925448296,33.3686091934616,7983
8033,4119,GSP Stadium 3,GSP3,35.1127709558024,33.3620242565398,8033
8037,3066,Industrial Area Ergates,IAErg,35.0662721178722,33.2318319709275,8037
8038,3067,Industrial Area Ergates 1,InAEr1,35.0628012334706,33.226645705216,8038
