stop_id,stop_code,stop_name,stop_desc,stop_lat,stop_lon,zone_id
1167,2066,Chalkanoros,Chalkanoro,35.0189912575109,33.4181261285799,1167
1168,2067,Chalkanoros,Chalkanoro,35.0190665634492,33.4172057754721,1168
1169,2068,Chalkanoros,Chalkanoro,35.0175379263044,33.4106543264016,1169
1170,2069,Chalkanoros,Chalkanoro,35.0176106570254,33.4104793146889,1170
1173,2072,Elem. School B Nisou,Elem. Scho,35.0154718494152,33.4001875145213,1173
1174,2073,Elem. School B Nisou,Elem. Scho,35.0156064567151,33.400385462773,1174
3747,2033,Ave. Lemesou - Kimonos,AvLe-Ki,35.0074573839602,33.394076856097,3747
3748,2034,Ave. Lemesou - Larnakos,AvLe-La,35.0070701416525,33.3939215651883,3748
3749,2035,Ave. Lemesou - Archiepiskopou Makariou C,Le-ArMaC,35.0142741467419,33.3941862764731,3749
3750,2036,Chrysosotiros Church - Eirinis Avenue,ChCh-EiAv,35.0134185083495,33.3938752796235,3750
3755,2070,Pera Chorio Nisou High School 2,PeChNiHiSc,35.0166249380843,33.4059585282416,3755
3756,2071,Pera Chorio Nisou High School 1,PeChNiHiSc,35.0166615566538,33.4057942967163,3756
3757,2074,Archiep. Makariou C - Elpidos,ArMaC-El,35.0146379295066,33.3960074762863,3757
3758,2075,Archiep. Makariou C - Diogenous,ArMaC-Di,35.0146924617907,33.3958762122617,3758
3778,2156,Theodorou Mavrosavva - Athinas,ThMa-At,34.9977909293382,33.4630020808207,3778
3779,2157,Apodimon Square,ApodiSquar,34.9980436602673,33.46293775441,3779
3781,2178,Dali Health Centre,DalHeaCen,35.013499485427,33.4259677456953,3781
4358,2064,Ancient Idalion Museum,AncIdaMus,35.0195157290161,33.4229078846814,4358
4370,2154,Agios Epifanios Church 1,AgiEpiChu,34.9956162505659,33.4657512477914,4370
4574,4060,Lympia Community Board,LymComBoa,34.9966601512541,33.461582112207,4574
4575,4064,Lefkosias Ave. - Ammochostou,LeAv-Am,34.9445314986735,33.4589790843308,4575
4578,4067,Chalkanoros - Post Office,Ch-PoOf,35.0185230194237,33.4153067484123,4578
4604,20426,Psevdas Community Stadium 1,PseComSta,34.9458293396287,33.4662580258443,4604
4605,20427,Psevdas Community Stadium 2,PseComSta,34.9457110646022,33.4665311400586,4605
4606,20429,Lefkosias Ave. - Grigori Afxentiou 2,LeAv-GrAf,34.9450166553311,33.4618291160686,4606
4607,20430,Lefkosias Ave. - Artemidos 1,LeAv-Ar,34.9442979033074,33.4539511961818,4607
4608,20431,Lefkosias Ave. - Artemidos 2,LeAv-Ar,34.9442074444228,33.4540273557346,4608
4609,20434,Panagias Eleousas Ave. 2,PanEleAve,34.9429470367767,33.4770284261473,4609
4610,20435,Panagias Eleousas Ave. 1,PanEleAve,34.9429551077317,33.477269394427,4610
4611,20437,Agia Anna Community Board,AgAnCoBo,34.9416356139,33.4803060723858,4611
4612,20439,Larnakos Ave. - Apostolou Varnava 1,LaAv-ApVa,34.950567505999,33.430986535298,4612
4613,20447,Pyrga - Kornos Road 1,Py-KoRo,34.9263494056292,33.4119950744031,4613
4614,20449,Pyrga Larnaka Elementary School 1,PyLaElSc,34.9261371166759,33.4264792411635,4614
4615,20450,Pyrga - Kornos Road 2,Py-KoRo,34.9261495389305,33.4124320265053,4615
4616,20451,Pyrga Larnaka Elementary School 2,PyLaElSc,34.9258539637628,33.4275069569018,4616
4617,20452,Agia Marina Church  1,AgiMarChu,34.9257935457927,33.4318423379023,4617
4618,20453,Agia Marina Church  2,AgiMarChu,34.9256584030923,33.4318087837333,4618
4619,20454,1 Maiou - 8th Kornos 1,1Ma-8tKo,34.9254797780472,33.4024106217101,4619
4620,20456,Larnakos - 1st Pyrga Larnakas,La-1sPyLa,34.9251608306553,33.4373023926364,4620
4621,20457,Larnakos - 1st Pyrga Larnakas 2,La-1sPyLa,34.9249019317723,33.4340602329599,4621
4622,20458,1 Maiou - 8th Kornos 2,1Ma-8tKo,34.9249036475465,33.4021121962797,4622
4623,20459,Larnakos - 1st Pyrga Larnakas 1,La-1sPyLa,34.924882527727,33.4344433317717,4623
4624,20460,Anexartisias - 2nd Kornos 1,An-2nKo,34.9219761871672,33.3928576083791,4624
4625,20461,Anexartisias - 2nd Kornos 2,An-2nKo,34.9221194378084,33.3931757903918,4625
4626,20462,Grigori Afxentiou - 3rd Kornos 2,GrAf-3rKo,34.92152110222,33.3969281597105,4626
4627,20463,Grigori Afxentiou - 3rd Kornos 1,GrAf-3rKo,34.9214041628399,33.3968400114065,4627
4628,20464,Anexartisias - 1st Kornos 1,An-1sKo,34.9211833745982,33.3898321465568,4628
4629,20465,Anexartisias - 1st Kornos 2,An-1sKo,34.9214156462124,33.3905120308809,4629
4630,20466,1 Maiou - 7th Kornos,1Ma-7tKo,34.9202222738603,33.4025053848575,4630
4631,20469,Grigori Afxentiou - 4th Kornos 2,GrAf-4tKo,34.919502523821,33.3992722398998,4631
4632,20471,Grigori Afxentiou - 4th Kornos 1,GrAf-4tKo,34.9194127460206,33.3991513783105,4632
4633,20473,Grigori Afxentiou - 5th Kornos 1,GrAf-5tKo,34.917866422213,33.400468561833,4633
4634,20474,Grigori Afxentiou - 5th Kornos 2,GrAf-5tKo,34.9177844721924,33.4007090125974,4634
4635,20475,Timios Prodromos Church 2,TimProChu,34.9174912160963,33.4021307797713,4635
4636,20476,Timios Prodromos Church 1,TimProChu,34.9172570187688,33.4020530042982,4636
4637,20477,Delikipos,Delikipos,34.9163610077665,33.3629879817278,4637
4638,20480,Agia Marina Church 1,AgiMarChu,34.9535406274641,33.4240473150296,4638
4640,20482,Archiep. Makariou C´ - Omirou 1,ArMaC-Om,34.952848630825,33.4207799589202,4640
4642,20484,Platini Museum,PlatiMuseu,34.9519806844773,33.4266020977779,4642
4643,20487,Mosfiloti Elementary School,MosEleSch,34.9515405905541,33.4235222641825,4643
4644,20488,Psevdas Square,PsevdSquar,34.9507724467441,33.4634932464299,4644
4645,20490,Larnakos Ave. - Apostolou Varnava 2,LaAv-ApVa,34.9506151159789,33.4302749030429,4645
4646,20491,1 Apriliou - Georgiou Griva Digeni,1Ap-GeGDi,34.9505191953158,33.4267916625431,4646
4647,20492,1 Apriliou - Papamiichail Konstantinou 2,1Ap-PaKo,34.9505424713557,33.4278650805581,4647
4648,20494,Mosfiloti Cemetery 1,MosfiCemet,34.9488024424401,33.4328610039483,4648
4649,20495,Mosfiloti Cemetery 2,MosfiCemet,34.9485134998246,33.4329690026304,4649
4650,20497,Agios Ioannis Church 2,AgiIoaChu,34.9476012238599,33.4627306891634,4650
4651,20498,Makariou C Ave. - Larnakos Ave. 1,MaC-La,34.9463483717123,33.4625812813107,4651
4652,20499,Makariou C´ Ave. - Larnakos Ave. 2,MaC-La,34.946347954642,33.4626907933488,4652
4653,20500,Lefkosias Ave. - Grigori Afxentiou 1,LeAv-GrAf,34.9451428132767,33.4618517260191,4653
5462,2153,Anexartisias - Stadiou 1,Ane-Sta,34.9945976887817,33.4703258623728,5462
5472,4053,Kofinou - Highway Exit,Ko-HiEx,34.8363432366218,33.3991109344646,5472
5473,4054,Agiou Louka Avenue - Dipotamou,AgLoAv-Di,34.8211003839058,33.3596062396091,5473
5474,4055,Distrato Lefkara - Kato Drys,DiLe-KaDr,34.8570401234095,33.3122626219933,5474
5477,4063,Eleftheriou Venizelou - Ifaistou,ElVe-If,35.0622877422136,33.536196983798,5477
5498,20174,Archiep. Makariou C´ Ave. - Grigori Afxentiou 2,ArMaC-GrAf,34.8255273784812,33.3891293584083,5498
5531,20253,Agiou Louka Avenue,AgiLouAve,34.8223787701032,33.3603225739282,5531
5533,20467,Kornos - Delikipos Road 2,Ko-DeRo,34.9197414109194,33.3867489571706,5533
5534,20470,Kornos - Delikipos Road 1,Ko-DeRo,34.9196239413802,33.3868250415707,5534
5543,21781,Anexartisias - Stadiou 2,Ane-Sta,34.9945166193761,33.4703034828881,5543
5979,20001,2nd Stop Psematismenos,2ndStoPse,34.7684763110262,33.3460785337345,5979
5980,20002,1st Stop Maroni,1stStoMar,34.7619628487926,33.34701293313,5980
5981,20009,Egkomis - Palaikythrou,Egk-Pal,34.929821673859,33.5324978186583,5981
5982,20015,Kalo Chorio Cemetery 2,KalChoCem,34.9265310458864,33.5405019997804,5982
5983,20017,Kalo Chorio Cemetery 1,KalChoCem,34.9263045454833,33.5407413864499,5983
5987,20043,Choirokoitia Neolithic Settlement 1,ChoNeoSet,34.7966923495642,33.3462073268595,5987
5988,20044,Agiou Fanouriou - 4th Stop,AgFa-4tSt,34.7945479393737,33.3423833106367,5988
5989,20045,Agiou Fanouriou - 8th Stop,AgFa-8tSt,34.790425793907,33.342759783101,5989
5990,20046,1st Stop Tochni,1stStoToc,34.7869869222561,33.3275195237647,5990
5991,20048,Archiep. Makariou C´ Ave. - 5th Stop,ArMaC-5S,34.7687765334266,33.2972972273874,5991
5992,20050,10th Stop Tochni,10tStoToc,34.7650268639588,33.3214663473866,5992
5993,20051,Maroni Elementary School 1,MarEleSch,34.7580494199503,33.3531919232516,5993
5994,20078,Kofinou Police Station 1,KofPolSta,34.8294293013152,33.3927784550941,5994
5995,20079,Choirokoitia Neolithic Settlement 2,ChoNeoSet,34.7967468281069,33.3460763745165,5995
5996,20080,Agiou Fanouriou - 3rd Stop,AgFa-3rSt,34.7945026361725,33.3424596430151,5996
5997,20081,3rd Stop Tochni,3rdStoToc,34.7814215898222,33.3246776747193,5997
5998,20082,8th Stop Tochni,8thStoToc,34.7760175183502,33.3222084205218,5998
6000,20086,Grigori Afxentiou Ave. - Stadiou,GrAfAv-St,34.7579681749994,33.3563165721307,6000
6001,20111,5th Stop Tochni,5thStoToc,34.7813535782801,33.3231253979055,6001
6002,20112,Agion Kon/nou kai Elenis,AgKokaEl,34.778638170201,33.3235301237584,6002
6003,20115,Grigori Afxentiou Ave. - Apost. Andreou 1,GrAf-ApAn,34.7547022107506,33.3629456255507,6003
6004,20118,6th Stop Tochni,6thStoToc,34.7813358330933,33.32301603223,6004
6005,20119,7th Stop Tochni,7thStoToc,34.7772772632563,33.323240654419,6005
6006,20120,Archiep. Makariou C´ Ave. - 6th Stop,ArMaC-6S,34.7669590298752,33.2993123463111,6006
6007,20121,Archiep. Makariou C´ Ave. - 3rd Stop,ArMaC-3S,34.7655142398489,33.3001048436041,6007
6008,20126,Agias Paraskevis - 1st Stop,AgPa-1sSt,34.8022153607091,33.3510406702215,6008
6009,20127,4th Stop Tochni,4thStoToc,34.7814759578627,33.3245795207356,6009
6010,20128,9th Stop Tochni,9thStoToc,34.7696072214961,33.3217135968255,6010
6011,20129,Archiep. Makariou C´ Ave. - 4th Stop,ArMaC-4S,34.7655952102849,33.3001816297289,6011
6012,20131,Grigori Afxentiou Ave. - Apost. Andreou 2,GrAf-ApAn,34.754150440988,33.3635113659195,6012
6013,20133,2nd Stop Tochni,2ndStoToc,34.7874467321399,33.3275541328072,6013
6014,20134,11th Stop Tochni,11tStoToc,34.7649180461099,33.3216954026902,6014
6015,20136,Grigori Afxentiou Ave. - Apost. Louka,GrAf-ApL,34.7567878601444,33.3590431013216,6015
6016,20137,Archiep. Makariou C´ Ave. - 1st Stop,ArMaC-1S,34.7563069739877,33.3109432514255,6016
6017,20138,Agiou Fanouriou - 7th Stop,AgFa-7tSt,34.7904434596517,33.3428910262995,6017
6018,20140,Maroni Elementary School 2,MarEleSch,34.7578771020804,33.3535299123309,6018
6019,20141,Archiep. Makariou C´ Ave. - 2nd Stop,ArMaC-2S,34.7563787525731,33.3110855632231,6019
6020,20142,Agios Dimitrios Church,AgiDimChu,34.796002900605,33.3347809472124,6020
6021,20143,1st Stop Psematismenos,1stStoPse,34.7684489164276,33.346198626725,6021
6022,20145,2nd Stop Maroni,2ndStoMar,34.7618817212661,33.3470016665825,6022
6023,20147,Agia Marina Church 2,AgiMarChu,34.7662696609908,33.3451295450827,6023
6024,20148,Agia Marina Church 1,AgiMarChu,34.7655929673259,33.345257859224,6024
6029,20158,1st Stop Melini,1stStoMel,34.8663135211731,33.155984924904,6029
6030,20159,Agioi Vavatsinias - Ora Road - 2nd Stop,AVa-OR-2S,34.86497522337,33.1959270593607,6030
6031,20160,Agioi Vavatsinias - Ora Road - 1st Stop,AVa-OR-1S,34.8641448815404,33.1963736559815,6031
6036,20167,Choirokoitia - Vavla Road - 2nd Stop,Ch-VR-2S,34.8401667423702,33.267442920361,6036
6037,20168,Choirokoitia - Vavla Road - 3rd Stop,Ch-VR-3S,34.8401218227694,33.2673662130482,6037
6038,20170,Kofinou Station,KofinStati,34.826273309476,33.3899202268482,6038
6041,20176,Lefkosia - Lemesos Old Road - 2nd Stop,Le-LeOR-2S,34.8169054678556,33.3692102188071,6041
6042,20177,Lefkosia - Lemesos Old Road - 1st Stop,Le-LeOR-1S,34.8165197362086,33.3685415072339,6042
6043,20178,Choirokoitia - Vavla Road - 1st Stop,Ch-VR-1S,34.8117737110183,33.321822725281,6043
6044,20179,Choirokoitia Community Stadium 2,ChoComSta,34.8029644575527,33.3281949291708,6044
6045,20180,Choirokoitia Community Stadium 1,ChoComSta,34.8026391166028,33.3284560186435,6045
6046,20181,Agias Paraskevis - 2nd Stop,AgPa-2nSt,34.802296613398,33.3510082174739,6046
6047,20183,Griva Digeni - 10th Stop,GrDi-10St,34.7996184068604,33.3317017906043,6047
6048,20184,Choirokoitia Village Centre,ChoVilCen,34.7977921942619,33.3333998394434,6048
6049,20187,Choirokoitia Elementary School,ChoEleSch,34.7965562906369,33.3368492662518,6049
6053,20192,Agia Marina Church 2,AgiMarChu,34.8624261922268,33.1940830264466,6053
6054,20193,Agia Marina Church 1,AgiMarChu,34.8623449116301,33.1941594182614,6054
6062,20201,Kato Dris Rural Museum 2,KaDrRuMu,34.8516223294542,33.304442687587,6062
6063,20202,Kato Dris Rural Museum 1,KaDrRuMu,34.8516038013608,33.3046395202452,6063
6065,20205,2nd Stop Vavla,2ndStoVav,34.8423562076807,33.268270331872,6065
6079,20228,2nd Stop Vavatsinia,2ndStoVav,34.892083941618,33.2308600292966,6079
6080,20229,3rd Stop Vavatsinia,3rdStoVav,34.8892964842482,33.2313994300817,6080
6081,20230,4th Stop Vavatsinia,4thStoVav,34.8884450706193,33.2333669346947,6081
6082,20231,Lefkara - Vavatsinia Road - 2nd Stop,Le-VaR-2S,34.8713823012482,33.2961670973888,6082
6083,20232,Lefkara - Vavatsinia Road - 1st Stop,Le-VaR-1S,34.8694150962494,33.2967289910821,6083
6084,20233,Isaak kai Solomou - Petraki Giallourou 2,IkSo-PeGi,34.8678497137238,33.3025549697041,6084
6085,20234,Isaak kai Solomou - Petraki Giallourou 1,IkSo-PeGi,34.8677594569303,33.3025874623493,6085
6097,20262,Antonaki Manoli - 10th Stop,AnMa-10St,34.7932764266224,33.384659964719,6097
6100,20267,Saint Raphael Hospital,SaiRapHos,34.9240259073871,33.6159419542241,6100
6102,20272,Old Hospital,OldHospi,34.9170651225385,33.6298917314463,6102
6103,20273,Larnaka Municipal Theatre 1,LarMunThe,34.9160219121426,33.6276067226033,6103
6105,20278,Artemidos Ave. - Faneromenis Ave.,ArAv-FaAv,34.9104056241766,33.6290527100655,6105
6106,20279,Artemidos Ave. - Okkoular 1,ArAv-Ok,34.9094569090795,33.6294176522971,6106
6107,20280,Artemidos Ave. - Okkoular 2,ArAv-Ok,34.9082938820796,33.6293759375634,6107
6108,20281,Artemidos Ave. - Patticheion,ArAv-Pa,34.903988786381,33.6301092877614,6108
6109,20282,Larnaka Courthouse 1,LarnaCourt,34.9021385907397,33.6304235189556,6109
6110,20283,Artemidos Ave. - Salt Lake,ArAv-SaLa,34.8981437002275,33.6304586623638,6110
6111,20284,Artemidos Ave. - Touzchane 2,ArAv-To,34.894864432719,33.6316046671899,6111
6112,20285,Artemidos Ave. - Touzchane 1,ArAv-To,34.8941481028894,33.6323652921298,6112
6113,20286,Artemidos Ave. - Tasou Mitsopoulou Ave. 2,Ar-TMi,34.8909296621304,33.6304801550493,6113
6114,20287,Artemidos Ave. - Tasou Mitsopoulou Ave. 1,Ar-TMi,34.8897896000335,33.6294865018293,6114
6115,20288,Artemidos Ave. - Old Airport 2,ArAv-OlAi,34.8883767824838,33.6271775630317,6115
6116,20289,Artemidos Ave. - Old Airport 1,ArAv-OlAi,34.8871216677803,33.6257563183331,6116
6117,20291,Larnaka Airport,LarnaAirpo,34.8710309947938,33.606891856567,6117
6118,20296,Archiep. Makariou C´ Ave. - Georg. Griva Digeni 1,ArMaC-GeGD,34.859704294902,33.5905629612655,6118
6119,20297,Archiep. Makariou C´ Ave. - Geraniou 2,ArMaC-Ge,34.8571994958608,33.5864099161816,6119
6120,20299,Archiep. Makariou C´ Ave. - Galinis,ArMaC-Ga,34.8550838610927,33.5838132391959,6120
6121,20301,Kiti Elementary School 2,KitEleSch,34.8540845929134,33.5796930692122,6121
6122,20302,Kiti High School 2,KitHigSch,34.8517605865247,33.575366873593,6122
6123,20303,Meneou Ave. - Markou Drakou,MeAv-MaDr,34.8499826186322,33.5718650876004,6123
6124,20304,Meneou Ave. - Gravias,MeAv-Gr,34.8498467431839,33.5719954103649,6124
6125,20305,Meneou Ave. - Spetson,MeAv-Sp,34.8479132590165,33.5670160355447,6125
6126,20306,Mazotou Ave. - Kastellorizou,MaAv-Ka,34.8451081455175,33.5632778931566,6126
6127,20307,Mazotou Ave. - Makronisou,MaAv-Ma,34.8447668578129,33.5629802444035,6127
6128,20308,Kiti - Mazotos Road - 2nd Stop,K-MaR-2S,34.8358401143783,33.5510312461539,6128
6129,20309,Kiti - Mazotos Road - 1st Stop,K-MaR-1S,34.8358216834969,33.5511186171717,6129
6130,20310,Camel Park 2,CamelPark,34.8015647028371,33.5074021665583,6130
6131,20311,Camel Park 1,CamelPark,34.801465329315,33.5074452864941,6131
6132,20313,Robinson Cyprus 2,RobCy2,34.7771532467712,33.4623016128561,6132
6133,20314,Robinson Cyprus,RobCy,34.7771077443131,33.4624106493149,6133
6134,20315,Pentaschoinos Tourist Area - 8th Stop,PeToA-8S,34.7728580577083,33.4510213340488,6134
6135,20316,Pentaschoinos Tourist Area - 7th Stop,PeToA-7S,34.7724282512909,33.4501993643575,6135
6136,20323,Oktagono 1,Oktagono,34.7514073375787,33.3156120148902,6136
6137,20324,Oktagono 2,Oktagono,34.7507300203995,33.3159918348286,6137
6138,20325,Pentaschoinos Tourist Area - 2nd Stop,PeToA-2S,34.7498604071273,33.4028679806289,6138
6139,20326,Pentaschoinos Tourist Area - 1st Stop,PeToA-1S,34.7496011358988,33.4021893448797,6139
6140,20327,1st Stop Mari,1stStoMar,34.7425956895237,33.2982303153996,6140
6141,20328,2nd Stop Mari,2ndStoMar,34.7421619565679,33.2985892651095,6141
6142,20329,3rd Stop Mari,3rdStoMar,34.7414755123343,33.2990346960282,6142
6143,20330,5th Stop Mari,5thStoMar,34.7384803190574,33.2995591812689,6143
6144,20331,4th Stop Mari,4thStoMar,34.7384714893903,33.2994826813367,6144
6145,20332,Zygi - Agios Theodoros Road - 3rd Stop,Z-AThR-3S,34.7331224701352,33.3599893563941,6145
6146,20333,Zygi - Agios Theodoros Road - 5th Stop,Z-AThR-5S,34.7330627232627,33.3649154934633,6146
6147,20334,Zygi - Agios Theodoros Road - 2nd Stop,Z-AThR-2S,34.7330477476383,33.3516108813044,6147
6148,20335,Zygi - Agios Theodoros Road - 1st Stop,Z-AThR-1S,34.7328849880964,33.3517631175281,6148
6149,20336,Zygi - Agios Theodoros Road - 4th Stop,Z-AThR-4S,34.7329779260644,33.3661276026554,6149
6150,20337,Konstantinoupoleos - Agiou Kyriakou 1,Ko-AgKy,34.7320650829425,33.3355278432687,6150
6151,20338,Zygi Community Park 1,ZygComPar,34.7302858574943,33.3429810054638,6151
6152,20339,Konstantinoupoleos - Agiou Kyriakou 2,Ko-AgKy,34.7309371499078,33.335785437035,6152
6153,20340,Zygi Community Park 2,ZygComPar,34.7305284733495,33.3432878502338,6153
6154,20341,Zygi Marina - 4th Stop,ZyMa-4tSt,34.7293629534637,33.3408690937004,6154
6155,20342,Zygi Marina - 3rd Stop,ZyMa-3rSt,34.7290035899604,33.3403870174849,6155
6156,20343,Zygi Marina - 2nd Stop,ZyMa-2nSt,34.7275176679705,33.336416039276,6156
6157,20344,Zygi Marina - 1st Stop,ZyMa-1sSt,34.7273632505167,33.3368195474173,6157
6158,20345,Vasiliko Cement Works - 3rd Stop,VaCeW-3S,34.7247514945501,33.3118298939642,6158
6159,20346,Vasiliko Cement Works - 2nd Stop,VaCeW-2S,34.7213339992647,33.3152355701513,6159
6160,20353,Ammochostos Stadium,AmmocStadi,34.9293375632391,33.6140765110408,6160
6161,20354,Archiep. Makariou C´ Ave. - Golgon,ArMaC-Go,34.9281285866492,33.6369726300189,6161
6162,20355,Archiep. Makariou C´ Ave. - Salaminos 2,ArMaC-Sa,34.9259738126869,33.6369012336907,6162
6164,20359,New Hospital 2,NewHospi,34.9217524628238,33.6035755347927,6164
6165,20360,Nikou kai Despoinas Pattichi Ave. - Fire Station,NkDePa-FSt,34.9198418920834,33.6159325876502,6165
6166,20361,G. Christodoulidi Ave. - Dafnidos,G.ChAv-Da,34.9186395946966,33.6003122340309,6166
6167,20362,Nikou kai Despoinas Pattichi Ave. - Arachovas,NkDePa-Ar,34.9183566940243,33.6136224907785,6167
6168,20363,Georg. Griva Digeni Ave. - 1 Apriliou Ave.,GeGDi-1Ap,34.9179424535888,33.6206149027479,6168
6170,20365,Electricity Authority 2,ElectAutho,34.9171740620836,33.608512168341,6170
6171,20368,Nikou kai Despoinas Pattichi Ave. - Kalymnou,NkDePa-Ka,34.9165153281923,33.6049931961769,6171
6172,20369,Municipal Library 1,MunicLibra,34.9163428757828,33.6248175920962,6172
6173,20373,Kamares - Old Aqueduct 2,Ka-OlAq,34.912833624016,33.5982338403757,6173
6174,20374,Kamares - Old Aqueduct 1,Ka-OlAq,34.9124918370702,33.5980562111298,6174
6175,20375,Lemesou Ave. - Kastalias,LeAv-Ka,34.9113629980213,33.5947202253753,6175
6176,20376,Lemesou Ave. - Kritis,LeAv-Kr,34.91100376662,33.5907221029325,6176
6177,20377,Lemesou Ave. - Larisis,LeAv-La,34.9107339454151,33.5905778640178,6177
6178,20378,Lemesou Ave. - Makedonias 2,LeAv-Ma,34.9097790299223,33.5847912719885,6178
6179,20379,Lemesou Ave. - Makedonias 1,LeAv-Ma,34.9094470293519,33.584449577531,6179
6180,20380,A2 Industrial Area,A2IndAre,34.9085910283765,33.5729498422037,6180
6181,20381,Lemesou Ave. - Charilaou Trikoupi 2,LeAv-ChTr,34.9083162703107,33.5795485625504,6181
6182,20382,Lemesou Ave. - Charilaou Trikoupi 1,LeAv-ChTr,34.908023555517,33.5785285020001,6182
6183,20386,Archiep. Makariou C´ Ave. - 2nd Stop,ArMaC-2S,34.8639811537269,33.5974203593952,6183
6184,20387,Archiep. Makariou C´ Ave. - Akropoleos,ArMaC-Ak,34.86155896393,33.5948647398522,6184
6185,20388,Archiep. Makariou C´ Ave. - Agiou Andronikou,ArMaC-AAn,34.861047980987,33.5942484186861,6185
6186,20390,Archiep. Makariou C´ Ave. - Georg. Griva Digeni 2,ArMaC-GeGD,34.8598666039567,33.5905641213744,6186
6187,20392,Archiep. Makariou C´ Ave. - Geraniou 1,ArMaC-Ge,34.8576378541096,33.5871350400825,6187
6188,20393,Archiep. Makariou C´ Ave. - Chanion,ArMaC-Ch,34.8551564711597,33.5837152987733,6188
6189,20396,Kiti Elementary School 1,KitEleSch,34.8540836542376,33.5798899668872,6189
6190,20398,Kiti High School 1,KitHigSch,34.8516788623873,33.5754866315823,6190
6191,20401,Meneou Ave. - Samou,MeAv-Sa,34.8478049503317,33.5670371692117,6191
6192,20406,Alaminos Village Centre - Elementary School,AlViCe-ElS,34.8071582752417,33.43448062211,6192
6193,20407,Alaminos Village Centre - Elementary School,AlViCe-ElS,34.80724856702,33.4344482969116,6193
6194,20408,Georgiou Griva Digeni - 2nd Stop,GeGDi-2S,34.8069963279491,33.436895961874,6194
6195,20409,Archiep. Makariou C´ - 3rd Stop,ArMaC-3S,34.8066070006679,33.4398348660803,6195
6196,20410,Alaminos - Mazotos Road - 2nd Stop,Al-MaR-2S,34.8064126993164,33.4654058846559,6196
6197,20411,Archiep. Makariou C´ - 4thStop,ArMaC-4t,34.8062784458629,33.4458680739213,6197
6198,20412,Alaminos - Mazotos Road - 1st Stop,Al-MaR-1S,34.8062958489687,33.465306831896,6198
6199,20413,Archiep. Makariou C´ - 5thStop,ArMaC-5t,34.8062211213968,33.4442824979346,6199
6200,20415,Kiti - Mazotos Road - 6th Stop,K-MaR-6S,34.804869492907,33.5149550230645,6200
6201,20416,Kiti - Mazotos Road - 5th Stop,K-MaR-5S,34.8048327294256,33.5151187842355,6201
6202,20420,Mazotos Village Centre - Ag. Georgios Church,MaViCe-AGe,34.8036962083767,33.488961143101,6202
6203,20421,Costas Argyrou Museum 2,CosArgMus,34.8036739449035,33.5010851695077,6203
6204,20422,Georg. Griva Digeni Ave. - Archiep. Makariou C´,GeGDi-ArMa,34.8036429345097,33.4909942758584,6204
6205,20423,Costas Argyrou Museum 1,CosArgMus,34.8031224150365,33.4992451821951,6205
6206,20424,Georg. Griva Digeni Ave. - 28 Oktovriou,GeGDi-2Ok,34.8025596048865,33.4935241613995,6206
6207,20425,Georg. Griva Digeni Ave. - Evropis,GeGDi-Ev,34.8024781787363,33.4958085385233,6207
6208,20440,Kalo Chorio Community Stadium 2,KaChCoSt,34.9290992934985,33.5327230822244,6208
6209,20445,Agios Vasileios Church,AgiVasChu,34.9275462257371,33.537289682361,6209
6210,20507,Grigori Afxentiou Ave. - Pigis,GrAfAv-Pi,34.9305466827222,33.5337288247095,6210
6211,20510,Grigori Afxentiou Ave. - Angastinas,GrAfAv-An,34.9298543465796,33.5353229245344,6211
6212,20512,Assias - Lefkonoikou,Ass-Lef,34.9287693121309,33.5380312430093,6212
6213,20514,Aigialousas - Vitsadas,Aig-Vit,34.9279862622025,33.5397341676824,6213
6215,20517,Department of Road Transport,DeofRoTr,34.9407619857672,33.584956383554,6215
6216,20518,Anexartisias Ave. - Highway Exit 2,AnAv-HiEx,34.86650117679,33.4962362678988,6216
6217,20519,Anexartisias Ave. - Eirinis Avenue 2,AnAv-EiAv,34.865674941296,33.4931897861284,6217
6218,20521,Anexartisias Ave. - Filias Ave. 2,AnAv-FiAv,34.8646542567515,33.4891466183131,6218
6219,20522,Anexartisias Ave. - Filias Ave. 1,AnAv-FiAv,34.8645187329887,33.489211459248,6219
6220,20523,Aglisides - Alethriko Road - 1st Stop,Ag-AlR-1S,34.8627795910665,33.4798471734722,6220
6221,20534,Archiep. Makariou C´ Ave. - Solomou Solomou,ArMaC-SoSo,34.8541426869154,33.4583124292326,6221
6222,20536,Anglisides Community Board,AngComBoa,34.8534187806958,33.4565800351531,6222
6223,20538,Archiep. Makariou C´ Ave. - Grigori Afxentiou,ArMaC-GrAf,34.852687058946,33.4545194578562,6223
6224,20539,Archiep. Makariou C´ Ave. - Zalongou,ArMaC-Za,34.8521142337381,33.4533677188999,6224
6225,20540,Archiep. Makariou C´ Ave. - Kyriakou Matsi,ArMaC-KyM,34.8521238626443,33.4532036875843,6225
6226,20547,5th Stop Klavdia,5thStoKla,34.8934138423976,33.5146861145392,6226
6228,20549,6th Stop Klavdia,6thStoKla,34.8932093844903,33.5161185493289,6228
6229,20550,1st Stop Klavdia,1stStoKla,34.8931046583875,33.5174202703619,6229
6230,20551,3rd Stop Klavdia,3rdStoKla,34.8927889748507,33.5131828487583,6230
6231,20552,2nd Stop Klavdia,2ndStoKla,34.8922511285759,33.5145584764786,6231
6232,20553,Pizavou - Artas,Piz-Art,34.8698018889999,33.4983677609673,6232
6233,20554,Anexartisias Ave. - Ag. Georgiou Xorinou 1,An-AGeXo,34.8686074879855,33.5015553552256,6233
6234,20555,Pizavou - Ioannou Georgiou,Pi-IoGe,34.8688876330651,33.4970164846634,6234
6235,20556,Anexartisias Ave. - Ag. Georgiou Xorinou 2,An-AGeXo,34.8686445948394,33.5013039351747,6235
6236,20557,Ioannou Georgiou - Agiou Georgiou Xorinou,IoGe-AGeXo,34.8672363941059,33.4972691310926,6236
6237,20558,Anexartisias Ave. - Highway Exit 1,AnAv-HiEx,34.8664194405835,33.4963780074301,6237
6238,20562,Salaminas Ave. - Mesolongiou,SaAv-Me,34.8630182989606,33.4945414715758,6238
6239,20563,Salaminas Ave. - Apost. Varnava,SaAv-ApVa,34.8630097265132,33.4944320166529,6239
6240,20564,Ammochostou Ave. - Morfou 1,AmAv-Mo,34.8596952521322,33.4956702730682,6240
6241,20565,Ammochostou Ave. - Morfou 2,AmAv-Mo,34.859569188112,33.4956257571992,6241
6242,20566,Georg. Griva Digeni Ave. - 3rd Stop,GeGDi-3S,34.8406669882452,33.5047435930337,6242
6243,20567,Gianni Fotiadi - 2nd Stop,GiFo-2nSt,34.8396068264021,33.5059730315338,6243
6244,20570,Anexartisias Ave. - Eirinis Avenue 1,AnAv-EiAv,34.8656027584722,33.493200295883,6244
6245,20571,Eirinis Ave. - Salaminos Ave.,EiAv-SaAv,34.8637276464565,33.4930687562396,6245
6246,20574,Aglisides - Alethriko Road - 2nd Stop,Ag-AlR-2S,34.8628339971958,33.479770907049,6246
6247,20576,Eirinis Ave. 1,EirinAve.,34.8627086460512,33.493073614939,6247
6248,20578,Filias Ave. - Chrysanthemon,FiAv-Ch,34.8594448221074,33.4929447384413,6248
6249,20579,Filias Ave. - Kyriakou Chatzichristou,FiAv-KyCh,34.8593550479974,33.4928457439578,6249
6250,20580,Poseidonio 2,Poseidonio,34.8549077194886,33.4610843166874,6250
6251,20581,Poseidonio 1,Poseidonio,34.8547993866909,33.4611165301379,6251
6252,20582,Grigori Afxentiou Ave. - Olympou 2,GrAfAv-Ol,34.8545092423978,33.4936810432804,6252
6253,20583,Grigori Afxentiou Ave. - Olympou 1,GrAfAv-Ol,34.8543012666487,33.4938220106019,6253
6254,20584,Archiep. Makariou C´ Ave. - Petraki Kyprianou,ArMaC-PeKy,34.8540252137622,33.4583774129158,6254
6255,20587,Alethriko - Anafotia Road - 2nd Stop,Al-AnR-2S,34.8505100734333,33.4925414076006,6255
6256,20588,Alethriko - Anafotia Road - 1st Stop,Al-AnR-1S,34.85045565935,33.4926176542435,6256
6257,20592,Anglisides Elementary School 1,AngEleSch,34.8482518673763,33.4589360711177,6257
6258,20597,Michalaki Paridi - 7th Stop,MiPa-7tSt,34.8289381080204,33.4702459398794,6258
6259,20598,Michalaki Paridi - 8th Stop,MiPa-8tSt,34.8289839134171,33.4700602904448,6259
6261,20601,Michalaki Paridi - 6th Stop,MiPa-6tSt,34.8275651269221,33.4661591244153,6261
6262,20602,Archiep. Makariou C´ Ave. - 2nd Stop,ArMaC-2S,34.8273444204146,33.4649221513986,6262
6263,20604,Agia Marina Church 1,AgiMarChu,34.8246177794481,33.4634305634064,6263
6264,20605,Agia Marina Church 2,AgiMarChu,34.8245818764233,33.4633866211234,6264
6265,20607,Tasou Konstantinou Ave. - 1st Stop,TKo-1S,34.8227207469491,33.46430567669,6265
6266,20627,Agios Georgios Church,AgiGeoChu,35.0618203064028,33.5399336042497,6266
6270,20651,Avdellero Cemetery 2,AvdelCemet,35.0105374325109,33.5679826086375,6270
6271,20652,Avdellero Cemetery 1,AvdelCemet,35.010492552736,33.5679384587092,6271
6272,20653,Avdellero Community Board 1,AvdComBoa,35.0098458778546,33.5693149275722,6272
6273,20654,Avdellero Community Board 2,AvdComBoa,35.0097820906467,33.5694569632947,6273
6274,20655,4th Stop Avdellero,4thStoAvd,35.0086777480509,33.5703589627005,6274
6275,20656,3rd Stop Avdellero,3rdStoAvd,35.0082267960078,33.5703777517226,6275
6276,20657,2nd Stop Avdellero,2ndStoAvd,35.0057133721296,33.5717850121565,6276
6277,20658,1st Stop Avdellero,1stStoAvd,35.0056146498789,33.5716856918555,6277
6278,20659,Aradippou Livestock Area,AraLivAre,34.9650566877598,33.5845484515896,6278
6279,20660,Akropoleos Ave. - Athinon Ave. 2,AkAv-AtAv,34.9489235196208,33.5753439913036,6279
6280,20661,Akropoleos Ave. - Athinon Ave. 1,AkAv-AtAv,34.9481181987031,33.5759297517376,6280
6281,20662,Akropoleos Ave. - Stadiou Ave. 1,AkAv-StAv,34.9433213047759,33.5815359563742,6281
6282,20663,Akropoleos Ave. - Stadiou Ave. 2,AkAv-StAv,34.942148810207,33.5834659714127,6282
6283,20665,Akropoleos Ave. - Foti Pitta Ave.,Ak-FP,34.9394898794957,33.5869622335633,6283
6284,20666,Akropoleos Ave. - Aradippou Ind. Area,Ak-ArIA,34.9382665922812,33.5881909002962,6284
6285,20667,Eleftherias Ave. - Archiep. Makariou C´ Ave.,El-ArMaC,34.9362407999217,33.5912643422732,6285
6286,20668,Eleftherias Ave. - Petraki Giallourou,ElAv-PeGi,34.9312462540472,33.598411276935,6286
6287,20669,Eleftherias Ave. - Giorgou Christodoulidi Ave.,El-GiCh,34.9290161344417,33.6026323651284,6287
6288,20671,G.S.Z. Stadium 2,G.S.ZStadi,34.9254124078872,33.6019819468802,6288
6289,20675,Archiep. Makariou C´ Ave. - 1st Stop,ArMaC-1S,34.8640089038179,33.5972783345142,6289
6290,20677,Agiou Fanouriou - 5th Stop,AgFa-5tSt,34.7924800067922,33.3369529313488,6290
6292,20689,Kyriakou Matsi Ave. - Archiep. Makariou C´ Ave.,KyM-ArMaC,34.8244988711287,33.3864563027744,6292
6293,20690,Agiou Epiktitou - Agias Varvaras 1,AgEp-AgVa,34.8236228413155,33.3952878551857,6293
6294,20691,Agiou Epiktitou - Agias Varvaras 2,AgEp-AgVa,34.823208747158,33.3950671739066,6294
6295,20692,Kyriakou Matsi Ave. - Kantaras,KyMaAv-Ka,34.8231075687711,33.3872699395159,6295
6296,20693,Kyriakou Matsi Ave. - Agiou Epiktitou,KyM-AEp,34.8226416036004,33.3947692189889,6296
6297,20694,Kofinou Municipal Stadium 2,KofMunSta,34.8225160257027,33.3917724145267,6297
6298,20695,Kofinou Municipal Stadium 1,KofMunSta,34.8225090348347,33.3939375223475,6298
6299,20696,Kyriakou Matsi Ave. - Karaoli kai Dimitriou,KyM-KakDi,34.8223580692813,33.3904157221569,6299
6300,20697,1 Apriliou - 17th Stop,1Ap-17St,34.8047840122511,33.3843307743993,6300
6301,20698,1 Apriliou - 18th Stop,1Ap-18St,34.8046580775459,33.3842317955202,6301
6302,20699,Panagias Astadiotissas - 16th Stop,PaAs-16St,34.8022130145477,33.3846358798588,6302
6303,20700,Panagias Astadiotissas - 15th Stop,PaAs-15St,34.8019152286661,33.3847000906497,6303
6304,20701,Panagias Astadiotissas - 13th Stop,PaAs-13St,34.8005674972116,33.385994756581,6304
6305,20702,Panagias Astadiotissas - 14th Stop,PaAs-14St,34.800486512762,33.3859397183474,6305
6306,20703,Agios Theodoros Church 2,AgiTheChu,34.7993196982264,33.3842070251821,6306
6307,20704,Agios Theodoros Church 1,AgiTheChu,34.7989227885558,33.3842489115375,6307
6308,20705,Antonaki Manoli - 12th Stop,AnMa-12St,34.7968995423089,33.385288965325,6308
6309,20706,Antonaki Manoli - 11th Stop,AnMa-11St,34.7965835477202,33.3854077432817,6309
6310,20707,Antonaki Manoli - 9th Stop,AnMa-9tSt,34.7926448529344,33.3847663429744,6310
6311,20708,7th Stop Agios Theodoros,7tStAgTh,34.7634059596127,33.4053049903656,6311
6312,20709,8th Stop Agios Theodoros,8tStAgTh,34.763353308329,33.404867643325,6312
6313,20710,Agion Trion Paidon - 2nd Stop,ATPa-2S,34.7605618006224,33.4090717883827,6313
6314,20711,Agion Trion Paidon - 1st Stop,ATPa-1S,34.7605620942556,33.4089843748486,6314
6315,20712,5th Stop Agios Theodoros,5tStAgTh,34.7603682450521,33.4129826446436,6315
6316,20713,4thStop Agios Theodoros,4thAgiThe,34.7603210814595,33.4214834890273,6316
6317,20714,3rd Stop Agios Theodoros,3rStAgTh,34.7603117991313,33.4215599296891,6317
6318,20715,6th Stop Agios Theodoros,6tStAgTh,34.7603323971357,33.4129169050889,6318
6319,20716,Pentaschoinos Tourist Area - 6th Stop,PeToA-6S,34.7577128194771,33.4194925392345,6319
6320,20717,Pentaschoinos Tourist Area - 5th Stop,PeToA-5S,34.7575864230767,33.4195356058681,6320
6321,20718,Pentaschoinos Tourist Area - 4th Stop,PeToA-4S,34.7517691099168,33.4118691130145,6321
6322,20719,Pentaschoinos Tourist Area - 3rd Stop,PeToA-3S,34.7516879517248,33.4118687100934,6322
6323,20720,Archiep. Makariou C Ave. - 1st Stop,ArMaC-1S,34.7957123150969,33.3387697847011,6323
6324,20724,G.S.Z. Stadium 1,G.S.ZStadi,34.9251981674185,33.6015424405138,6324
6325,20725,Archiepiskopou Paisiou,ArchiPaisi,34.9218408687037,33.6002917535577,6325
6326,20726,Agios Georgios Church 1,AgiGeoChu,34.9228559002927,33.6083351448841,6326
6327,20727,New Hospital 1,NewHospi,34.922015733272,33.6050335619743,6327
6328,21001,Kalogera Elementary School,KalEleSch,34.9155862150089,33.6333726038018,6328
6333,21006,Sintika Chanoum 1,SintiChano,34.9255629867088,33.6186796367258,6333
6334,21007,Sintika Chanoum 2,SintiChano,34.9255622061786,33.6188329109529,6334
6335,21008,Smyrnis - Granikou,Smy-Gra,34.9277779500993,33.6175575809534,6335
6336,21009,Smyrnis - Attaleias,Smy-Att,34.9277595264974,33.6176340849932,6336
6337,21020,Dim. Papanikoli Ave. - Spyridonos Trikoupi,DPa-SpTr,34.9329206783876,33.6223044299922,6337
6338,21021,Dim. Papanikoli Ave. - Agias Theklis,DPa-ATh,34.9343571294675,33.621778741428,6338
6339,21026,Kykliki Ave. - Michail Kasialou 1,KyAv-MiKa,34.940181250121,33.6237499895044,6339
6340,21027,Kykliki Ave. - Michail Kasialou 2,KyAv-MiKa,34.9401000971682,33.6237493750246,6340
6341,21028,Agioi Anargyroi Church 1,AgiAnaChu,34.93970302001,33.6255641435744,6341
6342,21029,Agioi Anargyroi Church 2,AgiAnaChu,34.9396129064711,33.6255525088339,6342
6344,21033,Kykliki Ave. - Agion Anargyron Ave. 2,Ky-AAn,34.9369699121312,33.6257295418701,6344
6345,21036,Pancyprian Lyceum,PancyLyceu,34.917629845022,33.6305419493315,6345
6347,21038,Agia Faneromeni Church,AgiFanChu,34.9112052362994,33.6278765697611,6347
6348,21039,Faneromenis Ave. - Makedonias,FaAv-Ma,34.9110972357034,33.6208151565927,6348
6350,21042,Faneromenis Ave. - Kalymnou,FaAv-Ka,34.9121040211255,33.6053549156625,6350
6354,21046,Giannou Kranidioti Ave. - Stratigou Timagia Ave.,GiKr-StTi,34.9278018451571,33.6146234609617,6354
6355,21047,Stratigou Timagia Ave. - Granikou,StTiAv-Gr,34.9289752101073,33.6179607177231,6355
6356,21048,Lysou Santama - Rafail Santi,LySa-RaSa,34.9322280965681,33.6148754633137,6356
6357,21050,Agias Sofias Ave. - Ag. Panteleimonos 1,ASo-APa,34.9396130773116,33.609553908906,6357
6358,21052,Lysis - Amaltheias,Lys-Ama,34.9392734115981,33.6161106875787,6358
6359,21053,Lysis - Milias,Lys-Mil,34.9410571681638,33.61644159721,6359
6360,21054,Lysis - Trikomou,Lys-Tri,34.9410865722648,33.614196935388,6360
6361,21055,Filomilas - Lysis,Fil-Lys,34.9406332858161,33.6128904361232,6361
6362,21056,Kekropos - Proknis,Kek-Pro,34.9391173777606,33.6130872152022,6362
6363,21057,Kekropos - Poti 1,Kek-Pot,34.9385688325384,33.6145723750085,6363
6365,21061,Afstralias Ave. - Chiou,AfAv-Ch,34.9303649735847,33.6052043477343,6365
6367,21063,Georg. Griva Digeni Ave. - Ag. Georgios Church 1,GeGDi-AGeC,34.9232927989392,33.6111192329806,6367
6368,21064,G. Christodoulidi Ave. - Ieronymou Varlaam,GCh-IeVa,34.9199013347645,33.6004527957373,6368
6369,21065,K Cineplex,KCinep,34.9160574127341,33.6009612200853,6369
6370,21066,Nikou kai Despoinas Pattichi Ave. - I. Kondylaki,NkDePa-IKo,34.9166611267941,33.6046877386619,6370
6371,21067,Georg. Griva Digeni Ave. - Thessalonikis Ave.,GeGDi-Th,34.9180133596127,33.6208562831158,6371
6372,21068,Municipal Library 2,MunicLibra,34.916724235321,33.6243059543314,6372
6373,21069,Neas Ionias 1,NeasIonia,34.953256928835,33.5665905315849,6373
6374,21070,Neas Ionias 2,NeasIonia,34.9526185043049,33.566202811091,6374
6375,21071,Pascal English School 1,PasEngSch1,34.9529781277762,33.5683628787852,6375
6376,21072,Athinon Ave. - Akropoleos Ave. 2,AtAv-AkAv,34.9500364429354,33.5764469530229,6376
6377,21074,Athinon Ave. - Olympou 2,AtAv-Ol,34.9515414999517,33.5822949362559,6377
6378,21084,Megalou Alexandrou,MegalAlexa,34.9530297752757,33.5933891388573,6378
6379,21085,Athinagorou,Athinagoro,34.9522804523614,33.5935699252745,6379
6380,21086,Palaion Patron Germanou 2,PalPatGer,34.9517992001615,33.5924055352392,6380
6381,21087,Agias Lavras,AgiasLavra,34.9503263781404,33.593019197046,6381
6382,21091,Agios Thomas Church 1,AgiThoChu,34.953469954663,33.5900299530203,6382
6383,21097,25 Martiou - Vas. Konstantinou 1,25Ma-VaKo,34.9515946765539,33.5936635502766,6383
6384,21102,Agias Sofias Ave. - Konstantinou Davaki 1,ASo-KoDa,34.9487742361733,33.5950997906306,6384
6385,21104,Agias Sofias Ave. - Akanthous 1,AgSoAv-Ak,34.9457446286683,33.5987246739161,6385
6386,21106,Agias Sofias Ave. - Ammochostou 1,AgSoAv-Am,34.9446790387169,33.6008633495644,6386
6387,21108,Agias Sofias Ave. - Agiou Dimitriou 2,ASo-ADi,34.9412665124243,33.6071022425875,6387
6389,21111,Archiep. Makariou C´ Ave. - Foti Pitta Ave. 2,ArMaC-FP,34.9446351924097,33.5914231569093,6389
6390,21112,Archiep. Makariou C´ Ave. - Foti Pitta Ave. 1,ArMaC-FP,34.944617638117,33.5913244706933,6390
6391,21113,Archiep. Makariou C´ Ave. - Kon. Kanari 2,ArMaC-KKa,34.9423174389269,33.5914831707057,6391
6392,21114,Archiep. Makariou C´ Ave. - Kon. Kanari 1,ArMaC-KKa,34.941723966209,33.5911394361108,6392
6393,21115,Georg. Griva Digeni Ave. - Ag. Georgios Church 2,GeGDi-AGeC,34.9232552988576,33.6114036101475,6393
6394,21116,Georg. Griva Digeni Ave. - Kon. Palaiologou Ave. 1,GeGDi-KPa,34.9192814590881,33.617975628774,6394
6395,21117,Fire Station 2,FireStati,34.9212721837046,33.6148375251659,6395
6398,21122,Louther King - Psiloreiti,LoKi-Ps,34.9327612591961,33.6322234983811,6398
6399,21123,Louther King - Thiras,LoKi-Th,34.932797896869,33.632114284196,6399
6400,21124,Pavlou Valdaseridi - Kleov. Papakyriakou,PaVa-KlPa,34.9285629976409,33.6332204928081,6400
6401,21125,Pavlou Valdaseridi - 9 Iouliou,PaVa-9Io,34.9284732841286,33.6331322118618,6401
6402,21126,Zakynthou - Pavlou Valdaseridi,Za-PaVa,34.9258928821558,33.6334080018483,6402
6403,21127,Zakynthou - Kefallinias,Zak-Kef,34.9261457576172,33.633333304708,6403
6404,21128,Leontiou Machaira - Kerkyras,LeMa-Ke,34.9244581991325,33.6318532492988,6404
6405,21129,Leontiou Machaira - Zakynthou,LeMa-Za,34.9244667037208,33.6319518502956,6405
6406,21130,Leontiou Machaira - Konst. Amantou,LeMa-KoAm,34.9255732127799,33.6289823229071,6406
6407,21131,Leontiou Machaira - Diomidous,LeMa-Di,34.9256448954175,33.6290704585854,6407
6408,21137,Spyrou Kyprianou Ave. - Pavlou Valdaseridi,SpKy-PaVa,34.9302262305105,33.6341749028703,6408
6409,21138,Lands and Surveys Office 2,LaanSuOf,34.9303692950304,33.6292050639076,6409
6410,21139,Debenhams 1,Debenhams,34.9301392307916,33.6231046138417,6410
6411,21140,Stratigou Timagia Ave. - Mavromichali,StTiAv-Ma,34.9286157540654,33.61771714473,6411
6412,21141,Stratigou Timagia Ave. - Sintika Chanoum,StTi-SiCh,34.9275225160337,33.6163622434525,6412
6413,21142,Agios Georgios Elementary School,AgGeElSc,34.9225981069696,33.6165443836226,6413
6414,21143,Ammochostou Ave. - Athinon 1,AmAv-At,34.9587872927012,33.6556545787598,6414
6415,21144,Georgiou Griva Digeni - Artemis,GeGrDi-Ar,34.9849393718193,33.6536169355694,6415
6416,21145,Ammochostou - Taki Sofokleous,Am-TaSo,34.9784598406573,33.6595691076228,6416
6417,21146,Princess Beach Hotel 2,PriBeaHot,34.9697138693175,33.6693141525442,6417
6418,21148,Oroklini Fire Station 1,OroFirSta,34.9617170868278,33.6591391761901,6418
6419,21149,Oroklini Park 2,OroklPark,34.9767855658795,33.6573646111417,6419
6420,21150,Ammochostou Ave. - Galaxia 2,AmAv-Ga,34.9670065564412,33.6664221709246,6420
6421,21153,Ammochostou Ave. - Kalliskala 1,AmAv-Ka,34.9641437428232,33.6622694541844,6421
6422,21154,T. Papadopoulou,T.Papadopo,34.9746639211988,33.6561754645891,6422
6423,21155,Ammochostou Ave. - Kalliskala 2,AmAv-Ka,34.9639100800552,33.6621251765952,6423
6424,21157,Michail Karaoli - 25 Martiou,MiKa-25Ma,34.9764993181115,33.6552698566124,6424
6425,21158,Ammochostou Ave. - Galaxia 1,AmAv-Ga,34.9679861487431,33.6670216298259,6425
6426,21159,Christou Afxentiou Ave. - Agias Triados,ChAf-ATr,34.9726706325679,33.652916941495,6426
6427,21160,Oroklini Fire Station 2,OroFirSta,34.9617338126212,33.6593802839924,6427
6428,21161,25 Martiou - 1 Maiou,25Ma-1Ma,34.9776627488322,33.6535591133232,6428
6429,21162,Princess Beach Hotel 1,PriBeaHot,34.9697600402302,33.6691173485713,6429
6430,21163,T. Papadopoulou (EKO),Papado.EKO,34.971091961429,33.6547119245044,6430
6431,21164,Ammochostou Ave. - Athinon 2,AmAv-At,34.9586429038747,33.6556753346415,6431
6432,21165,1 Maiou - Tefkrou Anthia,1Ma-TeAn,34.9780446407148,33.6529705486173,6432
6433,21166,Oroklini Lake 2,OroklLake,34.9685441903461,33.6572878144671,6433
6434,21167,1 Maiou - Pentadaktylou 1,1Ma-Pe,34.9796421609536,33.6526983805477,6434
6435,21168,Akropoleos Ave. - Kantaras,AkAv-Ka,34.9756647815467,33.6807559723753,6435
6436,21169,S. Kyprianou - Henipa Hotel 2,HenipHotel,34.9631952136015,33.6576065624762,6436
6437,21170,1 Maiou - Antistaseos,1Ma-An,34.9823888251822,33.6516903021564,6437
6438,21172,Henipa Hotel 1,HenipHotel,34.9631148917062,33.6574525711284,6438
6439,21174,Georgiou Griva Digeni - Andrea Karyou,GeGDi-AnKa,34.9849841612846,33.6536720738337,6439
6440,21176,1 Maiou - Artemis,1Ma-Ar,34.9843107732036,33.6514535350262,6440
6441,21177,Chr. Afxentiou Ave. - Larnaka - Ag. Napa Road 1,CAf-La-ANR,34.9709480454512,33.6546450518527,6441
6442,21179,1 Maiou - Pentadaktylou 2,1Ma-Pe,34.9805642968745,33.6522565071928,6442
6443,21182,1 Maiou - Ilektras,1Ma-Il,34.9788106636428,33.6530533187441,6443
6444,21190,Paideias - Apostolou Andreou,Pa-ApAn,34.9808964191231,33.6592161448159,6444
6445,21191,Oroklini Elementary School 1,OroEleSch,34.9817969322277,33.6577771663422,6445
6446,21192,Oroklini Elementary School 2,OroEleSch,34.9823054364056,33.6571238672127,6446
6447,21193,Akropoleos Ave. - Mesaorias Ave.,AkAv-MeAv,34.9724933979327,33.6738063131729,6447
6448,21194,Georgiou Griva Digeni - Michail Koutsofta,GeGDi-MiKo,34.9834242819018,33.6553250256492,6448
6449,21195,Paideias - 28 Oktovriou,Pa-28Ok,34.981423083524,33.6585410951571,6449
6450,21196,Palm Beach Hotel,PalBeaHot,34.9712518273965,33.6716709505678,6450
6451,21198,Ag. Panteleimonos Ave. - Akropoleos Ave. 1,APa-Ak,34.8695935700126,33.5911588384027,6451
6452,21199,Ag. Panteleimonas Old Church 2,AgPaOlCh,34.8668084981547,33.5890273309408,6452
6453,21202,Ag. Panteleimonas Old Church 1,AgPaOlCh,34.8670684054985,33.5893574094592,6453
6454,21203,Agiou Panteleimonos Ave. - Archiep. Kyprianou,APa-ArKy,34.8654607420683,33.5880221236996,6454
6455,21207,Ermou - Antistaseos,Erm-Ant,34.8696773059322,33.5850323741532,6455
6456,21208,Timiou Prodromou - Dromolaxia - Airport Road 2,TiPr-Dr-Ai,34.8767401417597,33.5975673676746,6456
6457,21210,Artemidos - Vyzantiou,Art-Vyz,34.8726287686417,33.5863334460537,6457
6459,21212,Dimokratias - Stadiou,Dim-Sta,34.8735549175714,33.5906072840172,6459
6460,21213,B´ Dromolaxia Elementary School 2,BDrElSc,34.8765979982516,33.5897427388105,6460
6461,21214,Timiou Prodromou - Dimokratias,TiPr-Di,34.8763117311613,33.5929795445818,6461
6463,21220,Timiou Prodromou - Dromolaxia - Airport Road 1,TiPr-Dr-Ai,34.8766678433577,33.5975996707748,6463
6464,21221,Timiou Prodromou - Omonoias,TiPr-Om,34.8764018492077,33.5929911338116,6464
6465,21222,B´ Dromolaxia Elementary School 1,BDrElSc,34.8765261795045,33.5896765733283,6465
6467,21224,Kellia Community Park 1,KelComPar,34.9733257552989,33.6226098859021,6467
6468,21225,Kellia Village Centre 1,KelVilCen,34.9767669685023,33.6232713414984,6468
6469,21226,Kellia Village Centre 2,KelVilCen,34.9768291872755,33.6234470991943,6469
6470,21227,Kellia Community Park 2,KelComPar,34.9738129512582,33.6225587977856,6470
6471,21228,Eleftherias Ave. - 2nd Stop,ElAv-2nSt,34.9681630429974,33.627051106276,6471
6472,21229,Archiep. Makariou C´ Ave. - Gypsou,ArMaC-Gy,34.8533895712274,33.5817228542324,6472
6473,21231,Kiti Municipal Stadium 1,KitMunSta,34.850711628236,33.5778864068306,6473
6474,21232,Archiep. Makariou C´ Ave. - Grigori Afxentiou,ArMaC-GrAf,34.8485355286219,33.5746881204538,6474
6475,21233,Kiti Police Station 1,KitPolSta,34.8460382352448,33.5726581552762,6475
6476,21234,Archagelos Michail Church,ArcMicChu,34.8444839757917,33.5733474119548,6476
6477,21236,Pervolion Ave. - Mikinón,Pe-  Miki,34.8425258464368,33.5736291478206,6477
6478,21238,Pervolion Ave. - Apostolou Pavlou 1,PeAv-ApPa,34.8406121311408,33.574053364791,6478
6479,21240,Pervolion Ave. - Lakonias 2,PeAv-La,34.8365924371042,33.5755128666936,6479
6480,21241,Pervolion Ave. - Lakonias 1,PeAv-La,34.8367093506045,33.5755793013119,6480
6481,21243,Pervolion Ave. - Apostolou Pavlou 2,PeAv-ApPa,34.8409196456974,33.5738586268238,6481
6482,21244,Arch. Makaríou,Arch.Maka,34.8455613523489,33.5724360917782,6482
6483,21247,Panagia Angeloktisti Church,PanAngChu,34.8476397362168,33.5715097922727,6483
6484,21248,Archiep. Makariou C´ Ave. - Stadiou,ArMaC-St,34.8484375793827,33.5744249183064,6484
6485,21249,Kiti Municipal Stadium 2,KitMunSta,34.8500409969951,33.5766894115041,6485
6486,21250,Archiep. Makariou C´ Ave. - Spartis,ArMaC-Sp,34.8517244843586,33.5791733298619,6486
6487,21254,Filopappou - Nitse 2,Fil-Nit,34.8927673620808,33.6343027814733,6487
6488,21255,Agiou Mina - Agias Zonis,AgMi-AgZo,34.9241813283442,33.5863495727846,6488
6489,21256,Psarolimano 2,Psaroliman,34.8994929186797,33.6380210951261,6489
6490,21257,Archiep. Paisiou - Anoixeos,ArPa-An,34.9241017839718,33.5897430124985,6490
6491,21258,Istiklal,Istiklal,34.9038355056036,33.6370257878647,6491
6492,21260,Oum Charam - Papoutsialik,OuCh-Pa,34.9052118827101,33.6359308853095,6492
6493,21261,Peiraios - Vouliagmenis,Pei-Vou,34.9111238253631,33.5975208496099,6493
6495,21266,A´ Agios Lazaros Elementary School 1,AAgLaElSc,34.9112276463267,33.6305148869678,6495
6496,21272,Dryadon - Panos,Dry-Pan,34.9159282137192,33.5997341795681,6496
6498,21274,Antheon - Archiep. Paisiou,An-ArPa,34.9220636428672,33.5953338740396,6498
6499,21275,Umm Charam Mosque 1,UmmChaMos,34.8801948165749,33.6172233329756,6499
6500,21276,Pentadaktylou - Kormakiti,Pen-Kor,34.9238448824834,33.5943504374437,6500
6501,21277,Umm Charam Mosque Tekke,UmChMoTe,34.884996302607,33.6092378688062,6501
6502,21279,Pentadaktylou - Epikourou,Pen-Epi,34.9260441052812,33.5927130484186,6502
6503,21280,Umm Charam Mosque 2,UmmChaMos,34.8800226028248,33.6173971260936,6503
6505,21282,Agiou Prokopiou,AgiouProko,34.9276078837378,33.5900856171411,6505
6506,21283,Orthodoxias - Trion Ierarchon,Or-TrIe,34.9264621931785,33.5883256195631,6506
6507,21284,Makenzy 2,Makenzy,34.8915763496606,33.6361650604304,6507
6508,21285,Orthodoxias - Archiep. Paisiou,Or-ArPa,34.9248385894632,33.5884235154843,6508
6509,21286,Tasou Mitsopoulou Ave. - Sioumpert 1,TaMiAv-Si,34.8941246800532,33.638570582961,6509
6510,21287,Archiep. Paisiou - Agion Panton,ArPa-AgPa,34.9253123175008,33.5855583729979,6510
6511,21288,Kastella Beach,KasteBeach,34.8977606718564,33.6381937623755,6511
6512,21289,Agiou Epiktitou,AgiouEpikt,34.9036675159451,33.5880535418273,6512
6513,21290,Tasou Mitsopoulou Ave. - Sioumpert 2,TaMiAv-Si,34.8951886903709,33.6385788170326,6513
6514,21291,Kyrineias,Kyrineias,34.9043969756917,33.5863840363429,6514
6515,21292,Makenzy 1,Makenzy,34.8912708008394,33.6359657128507,6515
6517,21295,Apost. Andrea - Agias Triados,ApAn-AgTr,34.9066081815405,33.5915663066339,6517
6518,21296,Apostolos Varnavas Church 2,ApoVarChu,34.9068361722786,33.5928924210942,6518
6519,21297,Kastalias,Kastalias,34.9097156550209,33.5941391282103,6519
6520,21298,Artemidos Ave. - Old G.S.Z. 2,ArAv-OlG.,34.9127267380276,33.6283479229143,6520
6521,21299,Voulas - Manou Chatzidaki,Vo-MaCh,34.9096441625378,33.5976852726067,6521
6522,21301,Voulas - Agion Apostolon,Vo-AgAp,34.9082592145719,33.5987589190947,6522
6523,21303,Agion Apostolon - Agiou Vasileiou,AgAp-AgVa,34.9069999486199,33.5981149019376,6523
6524,21305,Touzchane - ELDYK park,To-ELDYK,34.8947757643552,33.633048659962,6524
6525,21306,Agiou Vasileiou - Agiou Grigoriou 1,AgVa-AgGr,34.9080486337029,33.5957362206136,6525
6526,21307,Touzchane - Saixpir,Tou-Sai,34.8992738432202,33.6333567989643,6526
6527,21308,Agiou Savva - Agiou Konstantinou,AgSa-AgKo,34.907387639739,33.5944507430893,6527
6528,21309,Kotza Tepe - Istampoul,KoTe-Is,34.9069104715454,33.6335686801334,6528
6529,21310,Touzchane - Onoufriou Kliridi,To-OnKl,34.9026480944544,33.6347508950628,6529
6530,21311,Agiou Savva - Agiou Theodorou,AgSa-AgTh,34.9053998363496,33.5934184466062,6530
6531,21312,Touzchane - Papoutsialik,Tou-Pap,34.9057829320954,33.6353660991749,6531
6532,21313,Agiou Theodorou,AgiouTheod,34.9048370983988,33.5923198137638,6532
6534,21317,Apolloniou Kitieos,ApollKitie,34.9093172753791,33.6337294725468,6534
6535,21318,1 Apriliou Ave. - Nazaret 1,1ApAv-Na,34.9143181045098,33.6151688156229,6535
6536,21320,Larnaka Community Centre,LarComCen,34.9120294525845,33.6323929153643,6536
6537,21323,Municipal Park 1,MunicPark,34.9167370826448,33.62706479651,6537
6538,21324,Odysseos - Savva Rotsidi,Od-SaRo,34.9158309569942,33.6226570983173,6538
6539,21326,Georg. Griva Digeni Ave. - Kon. Palaiologou Ave. 2,GeGDi-KPa,34.9194167146212,33.6179766426449,6539
6540,21327,Fire Station 1,FireStati,34.9211460005634,33.6148256360473,6540
6541,21329,Evryviadeio High School 1,EvrHigSch,34.9180855066626,33.6313555548262,6541
6542,21331,Filopappou - Nitse 1,Fil-Nit,34.8929114063948,33.6343476655872,6542
6543,21332,Chrysopolitissis - Rigainis,Chr-Rig,34.9199270332819,33.6292348326816,6543
6544,21333,Odissos Municipal Park 2,OdiMunPar,34.914787723794,33.6060533413613,6544
6545,21334,Panagia Chrisopolitissa Church 1,PanChrChu,34.9222101876161,33.6271502202292,6545
6547,21341,Agiou Georgiou Makri - Igoumenitsas,AgGeMa-Ig,34.913762511174,33.6073047133395,6547
6548,21342,Touzchane - Sechit Ozat Ali,To-SeOzAl,34.9039902025888,33.6350348650134,6548
6549,21343,Alex. Panagouli Ave. - Pan. Kanellopoulou,APa-PKa,34.9365100389382,33.6292191074952,6549
6550,21344,Agiou Georgiou Makri - Agias Triados,AGeM-ATr,34.9143315507439,33.608918127114,6550
6551,21346,Istampoul,Istampoul,34.907926598283,33.6341128507713,6551
6552,21347,Ammochostou Ave. - Thyras,AmAv-Th,34.9565364411918,33.6533365917294,6552
6553,21348,Larnaka Nautical Club,LarNauClu,34.9530069587741,33.6506691038844,6553
6554,21349,Oil and Gas Storages 2,OianGaSt,34.9502605428027,33.648259901138,6554
6555,21350,Ammochostou Ave. - Katinas Paxinou,AmAv-KaPa,34.9461118544692,33.6450075654844,6555
6556,21351,Ammochostou Ave. - Thetidos,AmAv-Th,34.9461674095319,33.6447342181427,6556
6557,21352,Oil and Gas Storages 1,OianGaSt,34.9503430392395,33.6480086580294,6557
6558,21355,Alex. Panagouli Ave. - Anexartisias 2,AlPaAv-An,34.9437695699201,33.6325817588128,6558
6559,21358,Agiou Savva - Andrea Stylianou Ave.,AS-AnSt,34.9465176810708,33.6347274284339,6559
6560,21362,Archiep. Makariou C´ Ave. - Profiti Ilia,ArMaC-PrI,34.9594281192274,33.6299857034447,6560
6561,21363,Archiep. Makariou C´ Ave. - Tefkrou Anthia,ArMaC-TeAn,34.9512798678447,33.6258382645838,6561
6562,21364,Agia Paraskevi Church 1,AgiParChu,34.9562557116096,33.6261718091945,6562
6563,21365,Archiep. Makariou C´ Ave. - Mantheou,ArMaC-Ma,34.9528307872745,33.6258500526197,6563
6564,21366,Archiep. Makariou C´ Ave. - Vyzantiou,ArMaC-Vy,34.9537682701473,33.6259119401726,6564
6565,21367,Agia Paraskevi Church 2,AgiParChu,34.9559950664021,33.6260055375042,6565
6566,21368,Archiep. Makariou C´ Ave. - Afroditis,ArMaC-Af,34.9512793035329,33.6259477802063,6566
6567,21369,Archiep. Makariou C´ Ave. - Gravias,ArMaC-Gr,34.9589580510435,33.6284705905868,6567
6568,21370,Tefkrou Anthia - Pentadaktylou,TeAn-Pe,34.9503834135147,33.6248129272042,6568
6569,21372,Grigori Afxentiou Ave. - Arist. Valaoriti,GrAf-ArVa,34.9492147263857,33.6223618266792,6569
6570,21373,Kyriakou Matsi - Karpasias,KyMa-Ka,34.9479039644308,33.6212348632052,6570
6571,21374,Andrea Stylianou Ave. - Agiou Dimitriou,AnSt-ADi,34.9464984030796,33.6332378963441,6571
6572,21375,Karpasias - Archiep. Leontiou,Ka-ArLe,34.9462308333248,33.6221969101406,6572
6573,21376,Trion Ierarchon Church,TriIerChu,34.9479391924015,33.6249148493857,6573
6574,21377,Agiou Nikolaou - Thiseos,AgNi-Th,34.9477612714581,33.6261948275333,6574
6575,21378,Agiou Nikolaou - Athinon,AgNi-At,34.9455535220586,33.6259042606085,6575
6576,21379,Achaion - Agiou Dometiou,Ac-AgDo,34.9448187424217,33.6267528649692,6576
6577,21380,Galilaiou Galilei,GalilGalil,34.945245393148,33.6279497911162,6577
6578,21381,Petraki Kyprianou Ave. - Apost.Andreou,PeKyAv-Ap,34.9489272590297,33.630891011117,6578
6579,21382,Andrea Stylianou Ave. - Agiou Savva,AnSt-AS,34.9459379235395,33.6335073688234,6579
6580,21383,Livadia Lyceum,LivadLyceu,34.9514833364468,33.6352804478739,6580
6581,21384,Petraki Kyprianou Ave. - Lordou Vyronos,PeKy-LoVy,34.9488157213136,33.6297949905967,6581
6582,21385,Livadia Community Stadium,LivComSta,34.9601066917913,33.6347445685445,6582
6583,21386,Eleftherias Ave. - 1st Stop,ElAv-1sSt,34.9683175751729,33.62681129013,6583
6584,21393,Alex. Panagouli Ave. - Anexartisias 1,AlPaAv-An,34.943726252304,33.6322419456897,6584
6585,21395,1 Apriliou Ave. - Nazaret 2,1ApAv-Na,34.9144173474478,33.6151586089278,6585
6586,21398,Agiou Georgiou Makri - Ko,AgGeMa-Ko,34.9142178011423,33.610022941935,6586
6587,21399,Technical School Roundabout,TecSchRou,34.9375619060799,33.6298294001087,6587
6588,21400,Agiou Georgiou Makri - Parou,AgGeMa-Pa,34.9135743014376,33.6070734403184,6588
6590,21408,Odissos Municipal Park 1,OdiMunPar,34.9148783857164,33.6059554832268,6590
6591,21409,Panagia Chrisopolitissa Church 2,PanChrChu,34.922291962239,33.6270304128689,6591
6592,21411,Chrysopolitissis - Michail Partella,Ch-MiPa,34.9199988859494,33.6292901202679,6592
6593,21413,Evryviadeio High School 2,EvrHigSch,34.918193312671,33.6314330135244,6593
6594,21414,Intercollege 2,Intercolle,34.9413730343365,33.6424956075423,6594
6595,21415,Tassou Papadopoulou - Aristoteli Valaoriti,TaPa-ArVa,34.9334211459855,33.6388092769418,6595
6596,21416,Archiep. Makariou C´ Ave. - Nigritis,ArMaC-Ni,34.9259656563968,33.636736941393,6596
6597,21417,Archiep. Makariou C´ Ave. - Filiou Tsigaridi 1,ArMaC-FiTs,34.9187528603531,33.6365279619346,6597
6598,21418,Archiep. Makariou C´ Ave. - Dimitras,ArMaC-Di,34.9222879264604,33.6364786211071,6598
6599,21419,Archiep. Makariou C´ Ave. - Kleov. Papakyriakou,ArMaC-KlPa,34.9283904237115,33.6369089601145,6599
6600,21420,Odysseos - Agias Lavras,Od-AgLa,34.9161598862291,33.6218166382117,6600
6601,21421,Tassou Papadopoulou,TassoPapad,34.9327117968735,33.638234402941,6601
6602,21422,Thessalonikis Ave. - -Thiseos,ThAv--T,34.9165284559601,33.6202758378422,6602
6603,21423,Intercollege 1,Intercolle,34.9399431574488,33.6417617240314,6603
6604,21427,Onasagorou - Mpoumpoulinas 1,Ona-Mpo,34.8630018394265,33.5836832022205,6604
6605,21429,Georgiou Griva Digeni - Andrea Miaouli 2,GeGDi-AnMi,34.8605881894435,33.5886657225148,6605
6606,21430,Meneou - Pervolia Road - 1st Stop,Me-PeR-1S,34.8574989791997,33.5989706665489,6606
6607,21431,Onasagorou - Agiou Panteleimonos Ave. 1,On-AgPaAv,34.8617531701797,33.5864422352892,6607
6608,21433,Meneou - Pervolia Road - 4th Stop,Me-PeR-4S,34.8520327006827,33.6083931431375,6608
6610,21435,Meneou - Pervolia Road - 2nd Stop,Me-PeR-2S,34.8580987954702,33.5980232654332,6610
6611,21436,Agiou Panteleimonos Ave. - Grigori Afxentiou,APa-GrAf,34.8636542102182,33.5867839414686,6611
6612,21443,Georgiou Griva Digeni - Andrea Miaouli 1,GeGDi-AnMi,34.8605887718932,33.5885453868757,6612
6613,21445,Pervolia Tourist Area - 2nd Stop,PeToA-2S,34.8443072924624,33.6150521006807,6613
6614,21446,Pervolia Tourist Area - 1st Stop,PeToA-1S,34.8447552173696,33.6156351400195,6614
6615,21449,Onasagorou - Agiou Panteleimonos Ave. 2,On-AgPaAv,34.8617525897943,33.5865625726696,6615
6616,21452,Agiou Panteleimonos Ave. - Michail Karaoli,APa-MiKa,34.8636269475397,33.5868275093647,6616
6617,21458,Pervolion Ave. - Protomagias 1,PeAv-Pr,34.8336720483512,33.5771439446984,6617
6618,21462,Ammochostou - Dimitriou Glinou,Am-DiGl,34.8316420472057,33.5811542851489,6618
6619,21463,Keryneias,Keryneias,34.8335994119586,33.5810368017907,6619
6620,21464,Antistaseos - Ifigeneias,Ant-Ifi,34.8340693213607,33.5827133839199,6620
6621,21465,Spirou Ttantí,Spirou Tta,34.8326749011931,33.583906551485,6621
6622,21466,Eirinis kai Filias - Agiou Filonos,EikFi-AFi,34.8304696556984,33.5849408395492,6622
6623,21467,Venetikou Pyrgou - Vasilissas Karlotas,VePy-VaKa,34.8281688436404,33.5852198334754,6623
6624,21468,Anexartisias - Venetikou Pyrgou,An-VePy,34.8271720862002,33.5824679558895,6624
6625,21469,Agia Eirini Church,AgiEirChu,34.8280413644611,33.5798276421845,6625
6626,21470,Pervolia Community Board,PerComBoa,34.828714522966,33.5785966186474,6626
6627,21471,Andrea Zakou,AndreZakou,34.8307968479292,33.5768504809604,6627
6628,21473,Kyriakou Matsi,KyriaMatsi,34.8318684464199,33.5771641677538,6628
6629,21474,Pervolion Ave. - Protomagias 22,PeAv-Pr22,34.8335639972367,33.5771103814508,6629
6630,21476,Pervolia Tourist Area - 3rd Stop,PeToA-3S,34.8400287537397,33.610525066564,6630
6631,21478,Pervolia Tourist Area - 5th Stop,PeToA-5S,34.8377329460529,33.6061880238689,6631
6632,21479,Pervolia Tourist Area - 14th Stop,PeToA-1S,34.8215961735776,33.5887271602943,6632
6633,21480,Rigaina Tower 1,RigaiTower,34.8324764332501,33.6042356518461,6633
6634,21481,Pervolia Tourist Area - 12th Stop,PeToA-1S,34.8195995728184,33.5932070576969,6634
6635,21482,Faros Beach 1,FarosBeach,34.8222666385746,33.6009899610398,6635
6636,21483,Pervolia Tourist Area - 9th Stop,PeToA-9S,34.8177392483305,33.5974471678458,6636
6637,21484,Faros Beach 2,FarosBeach,34.8206696201672,33.6011751859175,6637
6638,21485,Pervolia Tourist Area - 11th Stop,PeToA-1S,34.8198578068584,33.592027973238,6638
6639,21486,Pervolia Tourist Area - 6th Stop,PeToA-6S,34.8366136364227,33.604604920235,6639
6640,21487,Pervolia Tourist Area - 4th Stop,PeToA-4S,34.8400831311919,33.6104707818138,6640
6641,21488,Pervolia Tourist Area - 10th Stop,PeToA-1S,34.8175617943565,33.5986923949268,6641
6642,21489,Pervolia Tourist Area - 8th Stop,PeToA-8S,34.8243942671946,33.6010928974528,6642
6643,21490,Archiep. Makariou C´ Ave. - Kyriakou Matsi,ArMaC-KyM,35.002151662198,33.6881751728983,6643
6644,21491,Archiep. Makariou C´ Ave. - Kyriakou Christou,ArMaC-KyCh,35.0011519790066,33.6879585892619,6644
6645,21492,1 Avenue - 16 Odos,1Av-16Od,35.0059485967536,33.6896426274922,6645
6646,21493,Archiep. Makariou C´ Ave. - Michail Koutsofta,ArMaC-MiKo,34.9967120631341,33.6853791744783,6646
6647,21495,Archiep. Makariou C´ Ave. - Mesolongiou,ArMaC-Me,34.9942052728806,33.6837803715901,6647
6648,21497,Archiep. Makariou C´ Ave. - Tilou 2,ArMaC-T,34.9919847187191,33.682589464956,6648
6649,21499,Archiep. Makariou C´ Ave. - 4th Stop,ArMaC-4S,34.9883428130875,33.6807951734098,6649
6650,21500,Akropoleos Ave. - Ithakis,AkAv-It,34.9738980258788,33.6758006653445,6650
6651,21502,Archiep. Makariou C´ Ave. - Mpoumpoulinas,ArMaC-Mp,34.9850704443854,33.679026007296,6651
6652,21504,Mon. Ypax. Ethn. Frouras Ave. - Nafpaktou,MYEFr-Na,34.982958773157,33.6777047885195,6652
6653,21505,Pyla Beach Park 1,PylBeaPar,34.9774279899023,33.6863030546131,6653
6654,21506,Pyla Elementary School 1,PylEleSch,35.0105116426822,33.692749679761,6654
6655,21507,Mesaorias Ave. - Vergi,MeAv-Ve,34.9773662837483,33.6747883909687,6655
6656,21508,Akropoleos Ave. - Lordos - Sandy - Golden Bay,Ak-Lo-S-Go,34.978150542462,33.6908665793858,6656
6657,21509,Dasaki Pylas Beach 1,DasPylBea,34.9791648261302,33.6964186578063,6657
6658,21511,K.O.T. Beach 1,K.O.TBeach,34.9795098220434,33.6991495465459,6658
6659,21512,Georg. Griva Digeni Ave. - Sp. Kyprianou Ave.,GeGDi-SKy,34.9815052376417,33.7002621037039,6659
6660,21513,Mesaorias Ave. - Spyrou Kyprianou Ave.,Me-SpKy,34.9778341247298,33.6749784719686,6660
6661,21514,Dasaki Pylas Beach 2,DasPylBea,34.9790570014533,33.696352011111,6661
6662,21516,Spyrou Kyprianou Ave.,SpyKypAve,34.9792810249085,33.6790877690444,6662
6663,21517,Akropoleos Ave. - Sandy - Golden Bay Hotels,Ak-S-GoBHo,34.978171417342,33.6919513512797,6663
6664,21519,Mon. pax. Ethn. Frouras Ave. - Epidavrou,MYEFr-Ep,34.9830044076429,33.6776065589695,6664
6665,21520,Akropoleos Ave. - Lordos Beach Hotel,Ak-LoBH,34.9779217109195,33.6898786635676,6665
6666,21522,Archiep. Makariou C´ Ave. - Markou Mpotsari,ArMaC-MaMp,34.9855835456679,33.6791836351607,6666
6667,21523,Pyla Beach Park 2,PylBeaPar,34.9773115760011,33.6861596630513,6667
6668,21525,Archiep. Makariou C´ Ave. - 3rd Stop,ArMaC-3S,34.9885683564705,33.6807751269298,6668
6669,21526,Akropoleos Ave. - Kantaras 2,AkAv-Ka,34.9755389142608,33.6806891997664,6669
6670,21528,Archiep. Makariou C´ Ave. - Tilou 1,ArMaC-T,34.9925247415749,33.6827692674611,6670
6671,21529,Akropoleos Ave. - Yanathes Beach,AkAv-YaBe,34.9744034414537,33.6773385212545,6671
6672,21530,1 Avenue - 3 Avenue 2,1Av-3Av,35.0094023731506,33.6911950116429,6672
6673,21531,Archiep. Makariou C´ Ave. - Char. Mouskou,ArMaC-CMo,34.9951857586778,33.6842049230692,6673
6674,21532,1 Avenue - 16 Odos,1Av-16Od,35.0070994427132,33.6902331331659,6674
6675,21533,Archiep. Makariou C´ Ave. - Agiou Nikolaou,ArMaC-ANi,34.9976559182049,33.6859020759273,6675
6676,21534,1 Avenue - 10 Street,1Av-10St,35.005948036347,33.6897412558118,6676
6677,21535,Archiep. Makariou C´ Ave. - Grigori Afxentiou,ArMaC-GrAf,34.852917927911,33.5533219440082,6677
6678,21536,Archiep. Makariou C´ Ave. - Dios,ArMaC-D,34.8527175386653,33.5517782086637,6678
6679,21537,Trion Ierarchon - Markou Drakou,TrIe-MaDr,34.852719399676,33.5453679873331,6679
6680,21538,Trion Ierarchon - Vyzantiou,TrIe-Vy,34.8545773849807,33.5432689799664,6680
6682,21540,Tersefanou Village Centre 1,TerVilCen,34.8551202261969,33.5468934520506,6682
6683,21541,Dionysiou Solomou - Dimitri Liperti,DiSo-DiLi,34.8567313594375,33.5475604844931,6683
6684,21542,Georgiou Seferi,GeorgSefer,34.8573457630365,33.5512840120713,6684
6685,21543,Grigori Afxentiou - Eleftheriou Venizelou,GrAf-ElVe,34.8551034443783,33.5506126965093,6685
6686,21545,Andrea Souroukli - Agias Marinas,AnSo-AgMa,35.0313343098996,33.6154304363344,6686
6687,21546,Andrea Souroukli - 1st Stop,AnSo-1sSt,35.0249463431334,33.6179476224128,6687
6688,21547,Andrea Souroukli - Makedonias,AnSo-Ma,35.0276755742773,33.6167623220886,6688
6689,21548,Andrea Souroukli - Agiou Georgiou,AnSo-AgGe,35.0308831326189,33.6154928298596,6689
6690,21549,Agios Mamas Church,AgiMamChu,35.0325503642158,33.6156807348056,6690
6691,21550,Andrea Souroukli - 1 Apriliou,AnSo-1Ap,35.0285426426122,33.6164838155469,6691
6692,21551,Andrea Souroukli - 4th Stop,AnSo-4tSt,35.0263277668883,33.6175962722781,6692
6693,21552,Andrea Souroukli - 2nd Stop,AnSo-2nSt,35.0250090147169,33.6180357886066,6693
6694,21553,Ammochostou Ave. - Dafnis,AmAv-Da,34.9555679119241,33.6523431769861,6694
6695,21602,Oron - Dryadon,Oro-Dry,34.9149390812037,33.5955013729626,6695
6696,21609,Chrysoupoleos - Anafis,Chr-Ana,34.9127634305571,33.5941610866996,6696
6697,21610,Chrysoupoleos - Fanariou,Chr-Fan,34.9130952617942,33.5926856408127,6697
6698,21611,Kalymnou - Ikarias,Kal-Ika,34.9128671878714,33.5895203442767,6698
6699,21612,Kalymnou - Patmou,Kal-Pat,34.9128973563985,33.5870137159842,6699
6700,21613,Nikiforou Foka - Patmou,NiFo-Pa,34.9117899977062,33.5866445898555,6700
6701,21614,Nikiforou Foka - Lemesou Ave.,NiFo-LeAv,34.9108525363765,33.5865722411378,6701
6702,21615,Agias Eirinis - Agiou Epiktitou,AgEi-AgEp,34.9042816884739,33.5897107319141,6702
6703,21619,Rizokarpasou - Varosion,Riz-Var,34.9299071088578,33.5397029509778,6703
6704,21624,Dromolaxias Ave. - Falirou,DrAv-Fa,34.8547091604216,33.5753983408211,6704
6705,21625,Dromolaxias Ave. - Volou,DrAv-Vo,34.8556358092874,33.5758533055911,6705
6706,21626,Kiti Industrial Area,KitIndAre,34.8590622405164,33.5758990639372,6706
6707,21627,25 Martiou Ave. - Leonidou,25MaAv-Le,34.8702665218472,33.5806272173012,6707
6708,21628,25 Martiou Ave. - Yuri Gagarin,2Ma-YGa,34.8716304358108,33.5820373113433,6708
6709,21629,25 Martiou Ave. - Artemidos,25MaAv-Ar,34.874094058713,33.5835318141091,6709
6710,21630,25 Martiou Ave. - Thiveon,25MaAv-Th,34.8743288724212,33.5834568807264,6710
6712,21635,Archiep. Makariou C´ Ave. - Tinou,ArMaC-T,34.8489915558273,33.5658967708714,6712
6713,21636,Archiep. Makariou C´ Ave. - Kosti Palama,ArMaC-KPa,34.8499286633626,33.5641092586508,6713
6714,21637,Archiep. Makariou C´ Ave.,ArMaCAv,34.8534703656766,33.548818748596,6714
6715,21639,Keryneias,Keryneias,34.851380182347,33.5463983354965,6715
6716,21640,Dryadon - Georgiou Sourri,Dr-GeSo,34.9150105094061,33.5974833305465,6716
6717,21709,Troodous - Aradippou Ind. Area 1,Tr-ArInAr,34.9357931072608,33.5887535892615,6717
6719,21711,Pentadaktylou - 1st Stop,Pe-1sSt,34.937050855185,33.5859921953003,6719
6721,21713,Pentadaktylou - 3rd Stop,Pe-3rSt,34.9383584875211,33.5859686454571,6721
6723,21715,Pygmalionos 1,Pygmaliono,34.9412875867879,33.5825400130333,6723
6729,21747,Panagioti Koumeni Roundabout 1,PanKouRou,35.0502855340403,33.5423467913182,6729
6730,21748,Panagioti Koumeni Roundabout 2,PanKouRou,35.0504654810849,33.5424357030877,6730
6733,21811,Grigori Afxentiou Ave. - Foinikoudes 2,GrAfAv-Fo,34.9178223662695,33.6351304406883,6733
6734,21812,Grigori Afxentiou Ave. - Foinikoudes 1,GrAfAv-Fo,34.9176764344531,33.6354467945138,6734
6735,21815,Kiti - Mazotos Road - 3rd Stop,K-MaR-3S,34.8160584446512,33.525936899759,6735
6736,21816,Kiti - Mazotos Road - 4th Stop,K-MaR-4S,34.8160857329418,33.5258824024999,6736
6737,21817,Kyriakou Matsi Ave. - Nikod. Mylona,KyM-NiMy,34.946755793131,33.5929606313889,6737
6738,21818,Papaflessa,Papaflessa,34.9498133695562,33.5928183698951,6738
6739,21819,A´ Aradippou Elementary School,AArElSc,34.9488795503938,33.5920012220558,6739
6740,21820,Klavdia - Highway Exit 2,Kl-HiEx,34.8891217895089,33.5334498588694,6740
6741,21821,Klavdia - Highway Exit 1,Kl-HiEx,34.889870890507,33.5333014860752,6741
6742,21822,Klavdia - Alethriko Road - 1st Stop,Kl-AlR-1S,34.8776959452803,33.5126513344363,6742
6743,21823,Klavdia - Alethriko Road - 2nd Stop,Kl-AlR-2S,34.8776335163933,33.5124868125232,6743
6744,21824,Aplanta Military Camp 1,AplMilCam,34.8300058084804,33.4739593156873,6744
6745,21825,Aplanta Military Camp 2,AplMilCam,34.8301584648424,33.4741242307649,6745
6746,21826,Agios Dimitrios Church,AgiDimChu,34.8254267615678,33.4641130900727,6746
6747,21827,Agios Dimitrios Church,AgiDimChu,34.8253815493975,33.4641456426375,6747
6748,21828,Anglisides Elementary School 2,AngEleSch,34.8482342865621,33.4588156508396,6748
6749,21829,Anglisides Public Kindergarden 1,AngPubKin,34.8518943927994,33.4566919419264,6749
6750,21830,Anglisides Public Kindergarden 2,AngPubKin,34.8513808131166,33.4565797157109,6750
6751,21831,Archiep. Makariou C´ Ave. - Tasou Isaak,ArMaC-TI,34.8529203656834,33.454827034241,6751
6752,21832,Anglisides - Menogeia Road - 1st Stop,An-MeR-1S,34.8464931628139,33.4394781890186,6752
6753,21833,Anglisides - Menogeia Road - 2nd Stop,An-MeR-2S,34.8466193274217,33.4395007361835,6753
6754,21834,Mazotos Community Stadium 1,MazComSta,34.8025770540829,33.4869539099516,6754
6755,21835,Mazotos Community Stadium 2,MazComSta,34.8025593254394,33.4868772790915,6755
6756,21836,1st Stop Mazotos,1stStoMaz,34.7972205798777,33.4869552081744,6756
6757,21837,2nd Stop Mazotos,2ndStoMaz,34.797320077592,33.4868792714398,6757
6760,21840,Grigori Afxentiou Ave. - Agion Anargyron,GrAf-AAn,34.7564977809141,33.3595553845807,6760
6761,21841,Zygi Elementary School,ZygEleSch,34.728936246342,33.3354059718492,6761
6762,21842,Grigori Afxentiou - Andrea Dimitriou 1,GrAf-AnDi,34.7275104577781,33.3324729680443,6762
6763,21843,Vasiliko Cement Works - 1st Stop,VaCeW-1S,34.720365932127,33.3164551175681,6763
6766,21846,Zygi - Kalavasos Road - 2nd Stop,Z-KaR-2S,34.7544234008147,33.3174918534318,6766
6767,21847,Zygi - Kalavasos Road - 1st Stop,Z-KaR-1S,34.7542612821691,33.3174147503713,6767
6768,21853,Trion Ierarchon Church,TriIerChu,34.9489366950245,33.6255795196472,6768
6769,21854,Potamou Ifasou - Kyklopon,PoIf-Ky,34.9168579330673,33.5977156666873,6769
6770,21855,Kyriakou Matsi Ave. - Granikou,KyMaAv-Gr,34.9392624231702,33.6021159876574,6770
6771,21856,Kastorias - Kirkis,Kas-Kir,34.927319502649,33.6119264553874,6771
6772,21857,Kastorias - Kosta Krystalli,Ka-KoKr,34.9271852490472,33.6099327772097,6772
6773,21858,Pavlou Mela - Ippolytis,PaMe-Ip,34.928111355669,33.6086695560068,6773
6774,21859,Pavlou Mela - Kastorias,PaMe-Ka,34.9281110265704,33.6087352471164,6774
6775,21860,Pavlou Nirvana,PavloNirva,34.9302651893071,33.6071306761159,6775
6776,21861,Spetson,Spetson,34.9307806372969,33.6068388431357,6776
6777,21862,Omirou - Afstralias Ave.,Om-AfAv,34.9304791168368,33.6040117187538,6777
6778,21863,Omirou - Kalamou,Omi-Kal,34.9309852684463,33.6037745439034,6778
6779,21864,D´ Elementary School Aradippou - Ag. Fanourios 1,DElScAr-AF,34.9328263195599,33.6016528706024,6779
6780,21865,D´ Elementary School Aradippou - Ag. Fanourios 2,DElScAr-AF,34.9328340350163,33.6019157162771,6780
6781,21866,Omirou - Falirou,Omi-Fal,34.9386857776038,33.5965380523428,6781
6782,21867,Omirou - Kassandras,Omi-Kas,34.9393540064082,33.596345783481,6782
6783,21868,Agios Fanourios Church 2,AgiFanChu,34.9439116938272,33.5955465017038,6783
6784,21869,Agios Fanourios Church 1,AgiFanChu,34.9450776818517,33.594985470846,6784
6785,21870,Coop Bank Allileggie 1,CooBanAll,34.947390973339,33.593994645374,6785
6786,21871,Coop Bank Allileggie 2,CooBanAll,34.9480589298951,33.5938570925411,6786
6787,21872,B´ Aradippou Elementary School 1,BArElSc,34.948251908976,33.5894121294244,6787
6788,21873,Aradippou City Hall,AraCitHal,34.9480135844158,33.5864863509319,6788
6789,21874,Stadiou Ave. - Akropoleos Ave.,StAv-AkAv,34.9435387517085,33.5832020424099,6789
6790,21875,Aradippou Police Station,AraPolSta,34.9448822340285,33.5794553034608,6790
6791,21876,Ioanni Makrygianni - Panagias Aimatousis,IoMa-PaAi,34.9481022535994,33.5716694659924,6791
6792,21877,Agiou Georgiou Ptochou - Cosmyria,AgGePt-Co,34.9498783466416,33.5698199822865,6792
6793,21878,1 Apriliou Ave. - Sofokleous,1ApAv-So,34.9524062055697,33.5862438325121,6793
6794,21879,Leonidou,Leonidou,34.9509174974958,33.5956847816365,6794
6795,21880,Kyriakou Karnera,KyriaKarne,34.9222311017319,33.5905835849591,6795
6796,21881,Alvanikou Epous,AlvanEpous,34.9194338912753,33.5909576660794,6796
6797,21882,Nikou Gkatsou,NikouGkats,34.918114336643,33.5897220753905,6797
6798,21883,Agioi Afxentios and Efstathios Church,AgAfanEfCh,34.9157496998557,33.5920040940899,6798
6799,21884,Peiraia Park,PeiraPark,34.9191342938408,33.5987393620505,6799
6800,21885,Mystra - Pol Darras 1,My-PoDa,34.9203761695852,33.6065213905799,6800
6801,21886,Mystra - Pol Darras 2,My-PoDa,34.9202676917191,33.6065753318933,6801
6802,21887,Konstantinoupoleos - Alexandreias,Kon-Ale,34.918576388559,33.6093873835314,6802
6803,21888,Konstantinoupoleos - Karyatidon,Kon-Kar,34.9188475039192,33.6092689628956,6803
6804,21889,Kaisareias - Agiou Nektariou,Ka-AgNe,34.9132465954234,33.6112856029904,6804
6805,21890,1 Apriliou Ave. - Faneromeni Roundabout,1Ap-FaRo,34.9127174331246,33.6125077304739,6805
6806,21891,1 Apriliou Ave. - Dimitriou Chamatsou,1Ap-DiCh,34.9161100769448,33.6174373339658,6806
6807,21892,1 Apriliou Ave. - Nikou Nikolaidi,1Ap-NNi,34.9160376068757,33.6175024751534,6807
6808,21893,Aigyptou Ave. - Petraki Giallourou,AiAv-PeGi,34.9138343201447,33.6233973651045,6808
6809,21894,Aigyptou Ave. - Tzenis Karezi,AiAv-TzKa,34.9132561066584,33.6236119325667,6809
6810,21895,Archim. Makariou Machairiotou - Frixou Panagiotou,ArMaMa-FrP,34.9288344301256,33.6243319862623,6810
6811,21896,Archim. Makariou Machairiotou - Elefsinos,ArMaMa-El,34.9288786711794,33.6244965566336,6811
6812,21897,Agia Thekla Church 2,AgiTheChu,34.9351955806622,33.6235698951201,6812
6813,21898,Agia Thekla Church 1,AgiTheChu,34.935108633895,33.6246970708346,6813
6814,21899,Kykliki Ave. - Agion Anargyron Ave. 1,Ky-AAn,34.9368710635333,33.6256630906635,6814
6815,21900,Ant. Papadopoulos Stadium 2,AntPapSta,34.9372817098633,33.6229615268664,6815
6816,21901,Agioi Anargyroi Elementary School,AgAnElSc,34.9390357769495,33.6220440097538,6816
6817,21902,Ethn. Makarios C´ Elementary School 1,EtMaCElSc,34.936886304484,33.613837118182,6817
6818,21903,Ethn. Makarios C´ Elementary School 2,EtMaCElSc,34.9367691385922,33.6138252951547,6818
6819,21904,Agias Sofias Ave. - Delfon,AgSoAv-De,34.9372042039514,33.6115947103123,6819
6820,21905,Lysou Santama - Strati Myrivili,LySa-StMy,34.9345084287057,33.6168634382776,6820
6821,21906,Lysou Santama - Kithaironos,LySa-Ki,34.9345343676727,33.6170826278964,6821
6824,21909,Efxeinou Pontou - Chourmouziou,EfPo-Ch,34.9436599890208,33.6276310766301,6824
6825,21910,Efxeinou Pontou - Solonos Michailidi,EfPo-SoMi,34.9435693099589,33.6277289443379,6825
6826,21911,Agios Savvas Church,AgiSavChu,34.9490243399355,33.6347577000799,6826
6827,21912,Archagelos Michail Church 1,ArcMicChu,34.98389624395,33.6530827422528,6827
6828,21913,Oroklini Municipal Stadium,OroMunSta,34.9865605563851,33.6556458475833,6828
6829,21914,Kyriakou Matsi - Anexartisias,KyMa-An,34.9882196269475,33.6523172246395,6829
6830,21915,Kyriakou Matsi - Evagora Papachristoforou,KyMa-EvPa,34.9870182629433,33.6527021368988,6830
6832,21917,4 Avenue - 17 Street 1,4Av-17St,35.0076847534814,33.6919586842969,6832
6833,21918,4 Avenue - 17 Street 2,4Av-17St,35.0075399228398,33.6920560995808,6833
6834,21919,1 Apriliou Ave. - Stadiou,1ApAv-St,34.9977388100266,33.6919516556911,6834
6835,21921,Georg. Griva Digeni Ave. - 2nd Stop,GeGDi-2S,34.9867330936939,33.6990685168025,6835
6836,21922,Georg. Griva Digeni Ave. - 1st Stop,GeGDi-1S,34.9861000886816,33.6993808762533,6836
6837,21923,Agias Elenis - Old Hospital,AgEl-OlHo,34.9170718690278,33.6303296806537,6837
6838,21924,Meneou Health Centre,MenHeaCen,34.865405830531,33.5919056521587,6838
6839,21925,Meneou Elem. School - Ag. Panteleimonas Church,MeESc-APaC,34.8635872913451,33.5912909017345,6839
6840,21926,Grigori Afxentiou - Michail Karaoli,GrAf-MiKa,34.8630755509894,33.5889678935492,6840
6843,21929,25 Martiou Ave. - Antistaseos,25MaAv-An,34.872952447642,33.5827797171793,6843
6845,21931,Dios - Aigialousis,Dio-Aig,34.8493007422974,33.5496005121648,6845
6846,21932,Syneseio,Syneseio,34.9318796261455,33.6160225521027,6846
6847,21933,Eleftheriou Venizelou - Georgiou Skourou,ElVe-GeSk,35.0631523865148,33.5343821198436,6847
6848,21934,Archiep. Makariou C´ Ave. - Petrou Vrachimi,ArMaC-PeVr,35.064499919423,33.5334806277854,6848
6849,21935,Archiep. Makariou C´ Ave. - G. Griva Digeni Ave.,ArMaC-GGDi,35.0640391145617,33.5357368509662,6849
6851,21937,Athienou Old High School,AtOlHiSc,35.0594468581284,33.5423854349429,6851
6852,21938,Athienou Elementary School,AthEleSch,35.0584429349625,33.5430587087837,6852
6853,21939,Athienou Sports Centre,AthSpoCen,35.0584762088016,33.5456908514403,6853
6854,21940,25 Martiou - Kosti Palama,25Ma-KoPa,35.0604214042657,33.5442452362495,6854
6855,21941,Meg. Konstantinou - Meg. Alexandrou,MeKo-MeAl,35.0625541735624,33.5411776948695,6855
6856,21942,Archiep. Makariou C´ Ave. - 9 Iouliou,ArMaC-9Io,35.0632624320364,33.5400747035483,6856
6858,21944,Archiep. Makariou C´ Ave. - Pan. Matsouka,ArMaC-PMa,35.0641514799795,33.5347944138414,6858
6859,21945,Eleftheriou Venizelou - Panagioti Matsouka,ElVe-PaMa,35.0637257632963,33.5331794807603,6859
6860,21946,Eleftheriou Venizelou - Konst. Toumpa,ElVe-KoTo,35.0629051572447,33.5352359301452,6860
6861,21947,Mpoumpoulinas - Theokritou,Mpo-The,35.0609891554301,33.5362213930971,6861
6862,21948,Mpoumpoulinas - Ifaistou,Mpo-Ifa,35.0598787121732,33.536521195495,6862
6864,21956,EAC Dekeleia Roundabout 1,EACDekRou,34.9837549724442,33.7390663544524,6864
6865,21957,EAC Dekeleia Roundabout 2,EACDekRou,34.98359287166,33.7390320291316,6865
6866,21958,Dekeleia Customs Office 1,DekCusOff,34.9818383762155,33.7264388040385,6866
6867,21960,Larnaca Station,LarnaStati,34.9192327751747,33.6378672895804,6867
6868,21973,Lefkara Health Centre,LefHeaCen,34.8682610266543,33.3039569428548,6868
6869,22000,Eleftherias Ave. - Ellados Ave.,ElAv-ElAv,34.9317212281835,33.5971774427588,6869
6871,22004,Panagias Aimatousis - Ag. Georgiou Ptochou,PaAi-AGePt,34.9507313694201,33.5705925220225,6871
6872,22008,Kyriakou Matsi Ave. - Evagorou,KyMaAv-Ev,34.9454359486006,33.5954808645913,6872
6873,22012,Archiep. Makariou C´ Ave. - Ierou Lochou,ArMaC-ILo,34.9393372175395,33.5905528866084,6873
6874,22013,Archiep. Makariou C´ Ave. - Dim. Koumantari,ArMaC-DKo,34.9393648541562,33.5904326299772,6874
6875,22017,Kyriakou Matsi Ave. - Estias,KyMaAv-Es,34.9369411734651,33.60469419646,6875
6876,22021,Rafail Santi - Kato Varosion,RaSa-KaVa,34.9354479489948,33.6129613602026,6876
6877,22022,Kato Varosion - Lefkonoikou,KaVa-Le,34.9349413173577,33.611501263919,6877
6878,22024,Agios Eleftherios Church 2,AgiEleChu,34.9339315281741,33.6096761202669,6878
6879,22034,Efxeinou Pontou - Mpratislavas,EfPo-Mp,34.9411952392495,33.6282145820707,6879
6880,22035,Efxeinou Pontou - Fragkiskou List,EfPo-FrLi,34.9410871486729,33.6281918564653,6880
6881,22036,Ant. Papadopoulos Stadium 1,AntPapSta,34.9372094615635,33.6229828808067,6881
6882,22037,Olympic Swimming Pool,OlySwiPoo,34.9238488050625,33.6008866395403,6882
6883,22048,Kalo Chorio Roundabout 1,KalChoRou,34.9091212728412,33.5656303652845,6883
6884,22049,Kalo Chorio Roundabout 2,KalChoRou,34.9086679185883,33.566163628203,6884
6885,22065,Mystra - Konstantinoupoleos 1,Mys-Kon,34.9199870535549,33.6085986183092,6885
6886,22066,Mystra - Konstantinoupoleos 2,Mys-Kon,34.9199060097568,33.6085761243469,6886
6887,22067,Electricity Authority 1,ElectAutho,34.9173206364458,33.608053455552,6887
6888,22070,1 Apriliou Ave. - Kaisareias,1ApAv-Ka,34.9128527441145,33.6124977886452,6888
6889,22074,Old G.S.Z.,OldG.S.Z,34.913394111229,33.6283311144079,6889
6890,22075,P.A. College 2,P.A.Colle,34.9111408386422,33.6263763875409,6890
6891,22076,P.A. College 1,P.A.Colle,34.9113113158793,33.6265418826048,6891
6892,22082,Larnaka Municipal Theatre 2,LarMunThe,34.9163464684592,33.627620140444,6892
6893,22083,Andrea Souroukli - Stylianou Lena,AnSo-StLe,34.9149513361195,33.6306090429697,6893
6894,22084,Municipal Park 2,MunicPark,34.9168095577485,33.6269996632646,6894
6895,22085,Georg. Griva Digeni Ave. - Chr. Iakovidou,GeGDi-CIa,34.918561253722,33.6195138485714,6895
6896,22086,Nikou kai Despoinas Pattichi Ave. - Panidos,NkDePa-Pa,34.9181184257099,33.6125916436575,6896
6897,22088,Larnaka Cemetery,LarnaCemet,34.9232541632788,33.6134180844135,6897
6898,22089,Saint Raphael Hospital,SaiRapHos,34.9245303616431,33.616044259835,6898
6899,22090,Agriniou - Kavalas,Agr-Kav,34.9268782372968,33.6135983388953,6899
6901,22094,Mitropoleos Square,MitroSquar,34.9224331365609,33.6241302251364,6901
6902,22096,Dim. Papanikoli Ave.- Spyrou Kyprianou Ave.,DPaASpKy,34.9313756839955,33.6228949762847,6902
6904,22102,Archiep. Makariou C´ Ave. - Georgiou Georgiadi,ArMaC-GeGe,34.9238185788252,33.6369174251071,6904
6905,22103,Livadia Elementary School 1,LivEleSch,34.9494876722576,33.6271498058528,6905
6906,22104,Livadia Elementary School 2,LivEleSch,34.9501753362706,33.6266950656272,6906
6907,22110,Oroklini Lake 1,OroklLake,34.9689794904337,33.6568312098688,6907
6908,22111,Michail Karaoli - Kosta Anaxagora,MiKa-KoAn,34.9764715579855,33.6554010993649,6908
6909,22113,Grigori Afxentiou - Nikis,GrAf-Ni,34.9860786708055,33.6547106943939,6909
6910,22115,K.O.T. Beach 2,K.O.TBeach,34.9793037601176,33.6989177261062,6910
6911,22116,G. Griva Digeni Ave. - Larnaka-Dekeleia Ave.,GGDi-La,34.9814860033922,33.7004701030967,6911
6912,22117,Georg. Griva Digeni Ave. - Gyarou 2,GeGDi-Gy,34.9940156988757,33.6949336661339,6912
6913,22118,Georg. Griva Digeni Ave. - Gyarou 1,GeGDi-Gy,34.9939892129778,33.6948348236142,6913
6914,22123,1 Avenue - 3 Avenue 1,1Av-3Av,35.009673125859,33.6911534504491,6914
6915,22124,Pyla Elementary School 2,PylEleSch,35.0104122706119,33.6927817213465,6915
6916,22125,4 Avenue - 3 Avenue,4Av-3Av,35.0092531715092,33.6920595699718,6916
6917,22126,4 Avenue - 17 Street,4Av-17St,35.0042496127419,33.6918859229987,6917
6918,22127,1 Apriliou Ave. - 5th Pyla,1Ap-5P,35.0042397838657,33.6920283071842,6918
6919,22130,Dekeleia Customs Office 2,DekCusOff,34.9819014934073,33.7264393615085,6919
6920,22131,Larnaka - Dekeleia Ave. - 4th Stop,La-De-4S,34.9826556679201,33.7163664163668,6920
6921,22132,Larnaka - Dekeleia Ave. - 2nd Stop,La-De-2S,34.9796717597997,33.7023390355508,6921
6922,22133,Larnaka - Dekeleia Ave. - 1st Stop,La-De-1S,34.9797626880691,33.7022083432584,6922
6923,22134,Dekeleia Garrison,DekelGarri,34.9835708562098,33.7201871519167,6923
6924,22135,Kellia Community Stadium 2,KelComSta,34.9798631668187,33.6243903810951,6924
6925,22136,Kellia Community Stadium 1,KelComSta,34.979890837255,33.6242700773284,6925
6927,22138,Eleftherias Avenue - Archiep. Makariou C´ Ave. 1,El-ArMaC,34.8670504600204,33.5985694627484,6927
6928,22142,Grigori Afxentiou Ave. - Ammochostou,GrAfAv-Am,34.8312664837095,33.5823764901645,6928
6930,22145,Archiep. Makariou C´ Ave. - Andrea Miaouli,ArMaC-AnMi,34.825141788889,33.5846297849319,6930
6931,22146,Pervolia Tourist Area - 13th Stop,PeToA-1S,34.8219155307398,33.5879530571983,6931
6932,22147,Faros (Lighthouse),Faros(Ligh,34.8186009487264,33.6019146318565,6932
6933,22148,Rigaina Tower 2,RigaiTower,34.8299490592259,33.6029158151011,6933
6934,22149,Eleftherias Ave. - Sofokleous 1,ElAv-So,34.8693247136459,33.5945158425576,6934
6935,22150,Dimokratias - Dimitras,Dim-Dim,34.8734464991846,33.5906502753704,6935
6937,22152,Kofinou Kindergarden,KofinKinde,34.8253793907331,33.3930872899501,6937
6938,22153,Agios Modestos Church,AgiModChu,34.8253962274471,33.3906597028824,6938
6939,22154,Dafermou Winery,DaferWiner,34.8552150756649,33.3205368613607,6939
6940,22159,Lefkara High School - Lyceum 1,LeHiSc-Ly,34.8678302253563,33.3067343937838,6940
6941,22160,Lefkara High School - Lyceum 2,LeHiSc-Ly,34.8680289692441,33.3065928973298,6941
6942,22161,4thStop Vavla,4thStVavla,34.8408029125195,33.2692934192406,6942
6943,22162,Archiep. Makariou C Ave. - 2nd Stop,ArMaC-2S,34.7955754982775,33.3393267326611,6943
6944,22163,Agios Fanourios Church,AgiFanChu,34.7952207771555,33.3436213483527,6944
6945,22164,Agiou Fanouriou - 6th Stop,AgFa-6tSt,34.7921036553405,33.336087846418,6945
6951,22171,Kalavasos - Mari Road - 1st Stop,Ka-MR-1S,34.7512572304482,33.3143768412003,6951
6952,22172,Kalavasos - Mari Road - 2nd Stop,Ka-MR-2S,34.7511855119975,33.3142126842636,6952
6953,22173,Vasiliko - Zygi Road - 2nd Stop,Va-ZR-2S,34.7258363537642,33.3211944136839,6953
6954,22174,Vasiliko - Zygi Road - 1st Stop,Va-ZR-1S,34.7257459750892,33.3212705204001,6954
6955,22175,Grigori Afxentiou - Andrea Dimitriou 2,GrAf-AnDi,34.7275064046818,33.3306488851858,6955
6956,22176,Kofinou - Ag. Theodoros Road - 2nd Stop,Ko-AThR-2S,34.8212313879909,33.375932610825,6956
6957,22177,Kofinou - Ag. Theodoros Road - 1st Stop,Ko-AThR-1S,34.8211678937026,33.3760526060965,6957
6958,22178,G. Griva Digeni Ave. - Archiep. Makariou C´ Ave.,GGDi-ArMaC,34.852751412966,33.4565982263555,6958
6959,22179,Georg. Griva Digeni Ave. - Anexartisias,GeGDi-An,34.8526609106642,33.4566852384574,6959
6960,22180,Tasou Konstantinou Ave. - 3th Stop,TKo-3S,34.8296276602623,33.4644538017244,6960
6961,22181,Tasou Konstantinou Ave. - 4th Stop,TKo-4S,34.8296640638187,33.4643665184033,6961
6962,25231,Eirinis Ave. 2,EirinAve.,34.862681993306,33.492974993006,6962
6963,25323,Grigori Afxentiou Ave. - Kyriakou Matsi,GrAf-KyM,34.7577239314758,33.356577759408,6963
6964,20039,Agioi Vavatsinias Square,AgiVavSqu,34.878698952985,33.1909369835691,6964
6965,20041,1st Stop Kato Drys,1sStKaDr,34.8507612048968,33.3026127314953,6965
6966,20154,Odou Square,OdouSquar,34.8856087660392,33.1507794480956,6966
6967,20155,1st Stop Odou,1stStoOdo,34.8835697855182,33.1515855217806,6967
6968,20156,2nd Stop Odou,2ndStoOdo,34.8838130691394,33.151739173944,6968
6969,20157,2nd Stop Melini,2ndStoMel,34.8665638411767,33.1576703053531,6969
6970,20161,Apostolos Andreas Church 2,ApoAndChu,34.8617310851485,33.2001095050896,6970
6971,20164,Ora - Lageia Road - 1st Stop,O-LaR-1S,34.8570965985302,33.1997591510228,6971
6972,20165,Lageia 2,Lageia,34.8438974300757,33.2473729395703,6972
6973,20166,Lageia 1,Lageia,34.8438615154037,33.2472962665799,6973
6974,20171,Kofinou Police Station,KofPolSta,34.8302653116882,33.3935916947298,6974
6975,20173,Archiep. Makariou C´ Ave. - Evgeniou Panagiotou,ArMaC-EvPa,34.8286384079375,33.3919545098653,6975
6976,20189,Agioi Vavatsinias Elem. School 1,AgVaElSc,34.8793817862553,33.1925252469703,6976
6977,20190,Agioi Vavatsinias Elem. School 2,AgVaElSc,34.8798601676394,33.1922418518821,6977
6978,20191,1st Stop Agioi Vavatsinias,1sStAgVa,34.8789828744469,33.1938702563178,6978
6979,20194,3rd Stop Ora,3rdStoOra,34.8620225515793,33.1983378744294,6979
6980,20195,2nd Stop Ora,2ndStoOra,34.8620140866482,33.1979987033053,6980
6981,20196,Apostolos Andreas Church 1,ApoAndChu,34.8618586071258,33.1993330506935,6981
6982,20197,1st Stop Ora,1stStoOra,34.8618101190943,33.1958757920802,6982
6983,20198,Ora - Lageia Road - 2nd Stop,O-LaR-2S,34.8533423240652,33.2121441885009,6983
6984,20199,3rd Stop Kato Drys,3rStKaDr,34.8530353939821,33.3055199272695,6984
6985,20200,4th Stop Kato Drys,4tStKaDr,34.8523408516343,33.3055939330894,6985
6986,20203,2nd Stop Kato Drys,2nStKaDr,34.8508342427979,33.3022520172435,6986
6987,20206,Vavla Community Board 2,VavComBoa,34.8419308115332,33.2689799002571,6987
6988,20207,Vavla Community Board 1,VavComBoa,34.8415160997107,33.2689348006758,6988
6989,20208,1st Stop Vavla,1stStoVav,34.8416078264711,33.2641116045662,6989
6990,20209,Agios Minas Monastery 2,AgiMinMon,34.8410640922363,33.2852630984212,6990
6991,20210,Agios Minas Monastery 1,AgiMinMon,34.8409741986627,33.2851424753561,6991
6992,20211,3rd Stop Vavla,3rdStoVav,34.8406569824736,33.2700366941359,6992
6993,20219,Environmental Education Centre 2,EnvEduCen,34.8218024899775,33.36003575502,6993
6994,20220,Environmental Education Centre 1,EnvEduCen,34.8214788938781,33.3596844291258,6994
6995,20221,Skarinou Cemetery 2,SkariCemet,34.8180440544375,33.3593852029986,6995
6996,20222,Wax Museum,WaxMuseu,34.8169859951987,33.3603975018541,6996
6997,20235,Lefkara Square 2,LefkaSquar,34.8675269072864,33.305431282871,6997
6998,20236,Lefkara Square 1,LefkaSquar,34.8674275497696,33.3054965616938,6998
6999,20237,Timios Stavros Church 1,TimStaChu,34.8659659667322,33.3093532728483,6999
7000,20238,Timios Stavros Church 2,TimStaChu,34.866028783073,33.3094738574058,7000
7001,20239,Christaki Stefanou Ave. 1,ChrSteAve,34.8647244117847,33.3082217340695,7001
7002,20240,Christaki Stefanou Ave. 2,ChrSteAve,34.8646611228015,33.3082871419402,7002
7003,20241,Agios Timotheos Church 1,AgiTimChu,34.8635370461535,33.3141142426502,7003
7004,20242,Kato Lefkara Square 1,KatLefSqu,34.862207563226,33.3156189547681,7004
7005,20243,Kato Lefkara Square 2,KatLefSqu,34.8619814721702,33.3158697181773,7005
7006,20244,Agiou Georgiou - 1st Stop Kato Lefkara,AGe-1SKLe,34.858744923815,33.315572908451,7006
7007,20258,Skarinou Cemetery 1,SkariCemet,34.8177282146389,33.3594603724684,7007
7008,20428,Larnakos Ave. - Dorou Loizou,LaAv-DoLo,34.9456492012547,33.4638477104156,7008
7009,20432,Stavrovouniou - Nikou Kazantzaki 1,St-NiKa,34.9435887964947,33.4506510140157,7009
7010,20433,Stavrovouniou - Nikou Kazantzaki 2,St-NiKa,34.9434532127853,33.4507378806911,7010
7011,20436,Agia Anna Cemetery,AgiAnnCem,34.9421971492276,33.4819629289134,7011
7012,20438,Ioakeim kai Annas Ave. - Agiou Arseniou 1,IokA-AAr,34.9413890696925,33.4856157571219,7012
7013,20441,Kalo Chorio Community Stadium 1,KaChCoSt,34.9290654800025,33.5322082559227,7013
7014,20442,Kalo Chorio Square,KalChoSqu,34.9285115625681,33.5351390178621,7014
7015,20443,Kalo Chorio - Agia Anna Road - 2nd Stop,KCh-AAR-2S,34.9282982446214,33.5261704019443,7015
7016,20444,Kalo Chorio - Agia Anna Road - 1st Stop,KCh-AAR-1S,34.9282249216475,33.5264436586357,7016
7017,20455,Pyrga Cemetery,PyrgaCemet,34.9250700271948,33.4374770888538,7017
7019,20472,Kornos - Delikipos Road - 4th Stop,Ko-DeR-4S,34.9191540391784,33.3637885253617,7019
7022,20493,Ioakeim kai Annas Ave. - Agiou Arseniou 2,IokA-AAr,34.9412978468133,33.4858780374387,7022
7023,20496,Agios Ioannis Church 1,AgiIoaChu,34.9472951387392,33.4625975506141,7023
7024,20516,Agios Timotheos Church 2,AgiTimChu,34.8636087622163,33.3142786231999,7024
7025,20638,Theokritou - Mpoumpoulinas,The-Mpo,35.0589303791457,33.5368659166879,7025
7026,20642,Athienou Cemetery,AthieCemet,35.0578725336997,33.5354662762423,7026
7027,20645,Theokritou - Ioanni Kai Marias Kramvi 1,Th-IoKMaKr,35.0561130856791,33.5336673264605,7027
7028,21267,Vergina Lyceum,VergiLyceu,34.9211554385646,33.5948127586923,7028
7029,21268,Vergina High School 1,VerHigSch,34.9201435374831,33.5970497716807,7029
7031,21717,Lefkosia - Lemesos Old Road - 3rd Stop,Le-LeOR-3S,34.8213148744709,33.3751784816719,7031
7032,21718,Lefkosia - Lemesos Old Road - 4th Stop,Le-LeOR-4S,34.8213785364242,33.3750038117046,7032
7033,21720,Archiep. Makariou C´ Ave. - Larnakos Ave.,ArMaC-La,34.8312626024158,33.3947228700224,7033
7034,21721,Political Asylum,PolitAsylu,34.8440010570309,33.4147234549166,7034
7035,21746,28 Oktovriou,28Oktov,35.060975473977,33.5413317768793,7035
7036,21851,Lefkosias Ave. - Digeni Akrita,LeAv-DiAk,34.9443118094293,33.4574556475396,7036
7037,21852,Lefkosias Ave. - Appidakiou,LeAv-Ap,34.944203932464,33.4573674391526,7037
7038,21936,Athienou City Hall 1,AthCitHal,35.0634568607955,33.5389354148312,7038
7039,21943,Athienou City Hall 2,AthCitHal,35.063514808774,33.5380694010607,7039
7040,21949,Theokritou - Ioanni Kai Marias Kramvi 2,Th-IoKMaKr,35.0562474716559,33.5338655897507,7040
7041,22182,Kofinou - Political Asylum Road - 1st Stop,Ko-PoAsR-1,34.8436105802776,33.4075243994762,7041
7042,22183,Kofinou - Political Asylum Road - 2nd Stop,Ko-PoAsR-2,34.8436459902881,33.4077214551973,7042
7043,22194,1 Apriliou - Archiep. Makariou C´,1Ap-ArMaC,34.9516583892803,33.4207629244707,7043
7044,26000,Vergina High School 2,VerHigSch,34.9201261487427,33.596918271296,7044
7046,21700,Aradippou - Athienou Road - 2n Stop,Ar-AtR-2S,34.9778740391644,33.5224008653586,7046
7047,21701,Aradippou - Athienou Road - 1st Stop,Ar-AtR-1S,34.977783962438,33.5223783821593,7047
7048,21702,Panagia Aimatousa 2,PanagAimat,34.9593024446527,33.5638171921247,7048
7049,21703,Panagia Aimatousa 1,PanagAimat,34.9592669356262,33.5636964648547,7049
7054,21771,Dali Lyceum 2,DaliLyceu,35.0201170272926,33.4288629582485,7054
7058,21779,Agios Epifanios Church 2,AgiEpiChu,34.9957242041035,33.4658176074651,7058
7060,21972,Alampra Bus Station,AlaBusSta,35.0024263795883,33.3938664298765,7060
7236,22195,Dimitras- Apollonos,DimitApoll,34.9217931087833,33.6345369930831,7236
7238,22197,Ammochostou-Tersefanou,Ammochos.,34.8495617123168,33.547720817237,7238
7240,22199,Kimwnos- Alexandrou Ypsilanti,Kimwnos- A,34.856956484434,33.5415889934516,7240
7241,22200,Achilleos- Konstantinou,Achilleos-,34.8558484263168,33.5433648508831,7241
7244,22203,28th October-Athienou,28th Octob,35.0542369019222,33.5399165808899,7244
7245,22204,Panayioti Koumeni-Athienou,Panayioti ,35.0533968261714,33.5422686697639,7245
7251,22205,Dekeleia Power Station 1,EACDekSt1,34.9818950086295,33.7438921819222,7251
7252,22206,Dekeleia Power Station 2,ACEDekSta,34.9817515466976,33.7437594129266,7252
7253,22207,Apostolos Andreas,AposAnd,34.9280793881689,33.5308770626229,7253
7255,22209,Mall Metropolis,Metropolis,34.924193545739,33.6077209580138,7255
7380,26001,San Remo Hotel 1,SanReHo1,34.9005210228704,33.6362778077562,7380
7381,26002,San Remo Hotel 2,SanReHo2,34.9008276019475,33.6362801722847,7381
7382,26003,Trion Ierarchon - Stadio,TriIe-Std,34.8559952893906,33.5407622385784,7382
7383,26004,Larnaka Courthouse 2,LarCourt2,34.8992905675737,33.630139073783,7383
7384,26005,Archaeological Museum,ArchMus,34.9201560701946,33.6337470951532,7384
7385,26006,Pascal English School 2,PasEngSch2,34.9535135660529,33.567632768845,7385
7441,26009,Menogeia 1,Men1,34.8444134587682,33.441042195122,7441
7442,26010,Menogeia 2,Men2,34.8440887925185,33.4410514010105,7442
7443,26011,Onisilou,Oni,34.9091764829228,33.6330606608266,7443
7444,26012,Faneromenis - Miki Theodoraki,Fane-Miki,34.9112814033087,33.6129568251034,7444
7445,26013,Faneromenis - Estiadon,Fane-Esti,34.9119553281883,33.6062405132844,7445
7726,20366,Thiras - Rembrandt,Thi-Rem,34.9342514783667,33.6300340383407,7726
7727,20367,Thiras - Delmouzou,Thi-Del,34.9343957502475,33.6300351415177,7727
7740,20568,Akanthous,Akan,34.8359657105483,33.5119659785202,7740
7741,20446,Kalo chorio - Panagias Eleousas,KalPan,34.9298527758612,33.5211655887,7741
7843,26015,Everest,Everest,34.9022045651731,33.5657033367668,7843
7844,26016,Pigasou,Pigasou,34.8988427981284,33.5653300433116,7844
7845,26017,Alpeon,Alpeon,34.9045882481357,33.56504104236,7845
8022,26018,Uclan University,Uclan Univ,35.0085022022801,33.6956589407333,8022
8023,26019,10 Odos - 1st Ave,OdoAve,35.0048265918559,33.6903236331628,8023
