stop_id,stop_code,stop_name,stop_desc,stop_lat,stop_lon,zone_id
1742,30535,3rd Agios Nikolaos Pafou 1,3rdAgNiPa,34.8604249230161,32.7561878303891,1742
1912,30750,Petra tou Romiou ,Petra tou ,34.6653628237004,32.6280907854719,1912
3903,10001,MY MALL,MYMALL,34.6512127016143,32.9954930950808,3903
3904,10002,Kathetos Limaniou - Lady´s Mile Junction,KaLi-LaMJu,34.6497158034051,32.9999454379672,3904
3905,10003,New Port,NewPort,34.6537446196729,33.0232227244472,3905
3906,10004,New Port - Passenger Building,NePo-PaBu,34.6556927006373,33.0221319488309,3906
3907,10005,Ave. Omonoias - Optikou Nikolaidi,AvOm-OpNi,34.6615189433628,33.0182153884961,3907
3908,10006,Fragklinou Rousvelt - New Port Traffic Lights,FrRo-NPTrL,34.6635480288833,33.0178884059459,3908
3909,10007,Fragklinou Rousvelt - Galilaiou,FrRo-Ga,34.6659910008168,33.0231715682533,3909
3910,10008,Fragklinou Rousvelt - Social Insurance,FrRo-SoIn,34.6677399450672,33.0258352588422,3910
3911,10009,Fragklinou Rousvelt - Water Board 2,FrRo-WaBo,34.6691642028609,33.0284225455108,3911
3912,10010,Fragklinou Rousvelt - KEO 2,FrRo-KE,34.6711832773642,33.0322108166503,3912
3913,10011,Tzelal Bagiar - Agios Antonios Church 2,TzBa-AAnCh,34.6718760191865,33.0379088772409,3913
3914,10012,Agias Theklis - Old Port,AgTh-OlPo,34.6716856136187,33.0410851387219,3914
3916,10014,Spyrou Araouzou - Agia Napa Church,SpAr-ANCh,34.6732624152377,33.0448735932546,3916
3917,10015,Christodoulou Chatzipavlou - Christodoulou Sozou,ChCh-ChSo,34.6767417616956,33.0489580347666,3917
3918,10016,Christodoulou Chatzipavlou - Zinas Kanther,ChCh-ZiKa,34.6781568924941,33.0506290361378,3918
3919,10017,28 Oktovriou - Sotiri Michailidi,28Ok-SoMi,34.6807075676039,33.0538836963295,3919
3920,10018,28 Oktovriou - Municipal Art Gallery,2Ok-MuAGa,34.6832758089981,33.0579464118658,3920
3921,10019,28 Oktovriou - Olympic Residence,28Ok-OlRe,34.6865822109648,33.064269797254,3921
3922,10020,28 Oktovriou - Debenhams 2,28Ok-De,34.6885545404173,33.0690095156999,3922
3923,10021,Promachon Eleftherias - Kosta Pitsillidi,PrEl-KoPi,34.6897428875577,33.0724823157706,3923
3924,10022,Promachon Eleftherias - KEAN 2,PrEl-KE,34.6909223618055,33.0755621658399,3924
3925,10023,Vasileos Georgiou A´ - Panagioti Tsagkari,VaGeA-PaTs,34.6927586425113,33.0808154161997,3925
3926,10024,Vasileos Georgiou A´ - Park Beach Hotel,VaGeA-PBH,34.6938659197996,33.0836661411318,3926
3927,10025,Vasileos Georgiou A´ - Germasogeia Police Station,VaGeA-GePo,34.6951532392487,33.0868665169204,3927
3928,10026,Vasileos Georgiou A´ - Ampelakion,VaGeA-Am,34.6966654515964,33.0907005119513,3928
3929,10027,Vasileos Georgiou A´ - Apollonia Hotel 2,VaGeA-ApH,34.6981326140916,33.0943271388461,3929
3930,10028,Vasileos Georgiou A´ - Profiti Ilia,VaGeA-PrI,34.698879180217,33.0967738086477,3930
3931,10029,Vasileos Georgiou A´ - McDonald´s,VaGeA-Mc,34.7002911311858,33.1015143141621,3931
3932,10030,Vasileos Georgiou A´ - Ariadnis,VaGeA-Ar,34.7017042673695,33.1046716950113,3932
3933,10031,Amathountos Ave. - Aquarius Hotel,AmAv-AqHo,34.7032520368812,33.1084517650169,3933
3934,10032,Amathountos Ave. - Aphrodite Amathusia Park,Am-ApAmP,34.7038993500777,33.1106474309853,3934
3935,10033,Amathountos Ave. - Prousis,AmAv-Pr,34.7053029444309,33.114110842363,3935
3936,10034,Amathountos Ave. - Navarria,AmAv-Na,34.7065972201167,33.118611602898,3936
3937,10035,Amathountos Ave. - Onisilou,AmAv-On,34.7079912514499,33.1223919282694,3937
3938,10036,Amathountos Ave. - Ellados,AmAv-El,34.7091052378266,33.1265323214247,3938
3939,10037,Amathountos Ave. - Mediterranean Hotel 2,AmAv-MeHo,34.7100749730428,33.1305087937926,3939
3940,10038,Amathountos Ave. - Pasalimani,AmAv-Pa,34.7097367732011,33.1346798067563,3940
3941,10039,Amathountos Ave. - Agias Varvara Church,Am-AVaCh,34.7124458047438,33.1471009513147,3941
3942,10040,Amathountos Ave. - Iras,AmAv-Ir,34.7139626389631,33.1529353576537,3942
3943,10041,Amathountos Ave. - Elias Hotel,AmAv-ElHo,34.7145569263821,33.1606356876417,3943
3944,10042,Amathountos Ave. - Hawaii Hotel,AmAv-HaHo,34.7143264108286,33.1644357049357,3944
3945,10043,Paradromos Amathountos,ParadAmath,34.7158626094606,33.1751086322517,3945
3946,10044,Megalou Alexandrou - Ex Le Meridien,MeAl-ELMe,34.7139780570463,33.1749845309631,3946
3947,10046,Megalou Alexandrou - Periyiali Gardens,MeAl-PeGa,34.7140183582068,33.172014150617,3947
3948,10047,Paradromos Amathountos - St. Raphael Hotel,PaAm-SRaH,34.7143195882148,33.1694156076817,3948
3949,10048,Paradromos Amathountos - Grand Resort Hotel,PaAm-GReH,34.7137668332857,33.1647840628768,3949
3950,10049,Paradromos Amathountos - Elias Hotel,PaAm-ElHo,34.7142845985891,33.1619893483961,3950
3951,10050,Amathountos Ave. - Atlantic Bay Hotel,Am-AtBH,34.7136837975638,33.1523669633735,3951
3952,10051,Amathountos Ave. - Ancient Amathounta,AmAv-AnAm,34.7095809993761,33.136896365365,3952
3953,10052,Amathountos Ave. - Amathus hotel,AmAv-Amho,34.7095213552864,33.1337621570935,3953
3954,10053,Amathountos Ave. - Mediterranean Hotel 1,AmAv-MeHo,34.7100586346049,33.1289144020793,3954
3955,10054,Amathountos Ave. - Four Seasons Hotel,Am-FSeH,34.7085467306172,33.1259527047505,3955
3956,10055,Amathountos Ave. - Armonia Beach,AmAv-ArBe,34.7076849182811,33.1221184769696,3956
3957,10056,Amathountos Ave. - Poseidonia Hotel,AmAv-PoHo,34.7059852321227,33.1173440347264,3957
3958,10057,Amathountos Ave. - Sailing Centre,AmAv-SaCe,34.705104510564,33.114154248566,3958
3959,10058,Amathountos Ave. - Marathon Hotel,AmAv-MaHo,34.7034582549087,33.1097842071301,3959
3960,10059,Vasileos Georgiou A´ - Pervolas,VaGeA-Pe,34.7013348530156,33.104299977933,3960
3961,10060,Vasileos Georgiou A´ - Stymfalion,VaGeA-St,34.6993725987447,33.0999517875182,3961
3962,10061,Vasileos Georgiou A´ - Apollonia Hotel 1,VaGeA-ApH,34.6982220026645,33.0953426854081,3962
3963,10062,Vasileos Georgiou A´ - Amerikanas,VaGeA-Am,34.6964850370689,33.0907767448744,3963
3964,10063,Vasileos Georgiou A´ - Ydras,VaGeA-Yd,34.6957383421426,33.0883411175976,3964
3965,10064,Vasileos Georgiou A´ - Dasoudi Beach,VaGeA-DaB,34.6938025165958,33.084070050195,3965
3966,10065,Vasileos Georgiou A´ - Andrea Zappa,VaGeA-AnZ,34.692776264035,33.0814377622389,3966
3967,10066,Promachon Eleftherias - KEAN 1,PrEl-KE,34.6905888888998,33.0752561654003,3967
3968,10067,28 Oktovriou - Debenhams 1,28Ok-De,34.6880320242089,33.0680811006019,3968
3969,10068,28 Oktovriou - Kerkyras,28Ok-Ke,34.6864018586877,33.0642587406617,3969
3970,10069,28 Oktovriou - Akti Olympion B´ Beach,2Ok-AOlBB,34.6836270785222,33.0588418384404,3970
3971,10070,28 Oktovriou - Zoo,28Ok-Zo,34.6816446556904,33.055609124882,3971
3972,10071,Christodoulou Chatzipavlou - Mistral Hotel,ChCh-MiHo,34.6775889083291,33.0502793765553,3972
3973,10072,Christodoulou Chatzipavlou - Anexartisias,ChCh-An,34.6756329138125,33.0480622863795,3973
3974,10073,Spyrou Araouzou - Molos Parking Place,SpAr-MPaP,34.6729738255774,33.0449170994356,3974
3975,10074,Tzelal Bagiar - Agios Antonios Church 1,TzBa-AAnCh,34.6717678514845,33.0377560138059,3975
3976,10075,Fragklinou Rousvelt - KEO 1,FrRo-KE,34.6706513540189,33.0316975986689,3976
3977,10076,Fragklinou Rousvelt - Water Board 1,FrRo-WaBo,34.6689838059398,33.0285862078789,3977
3978,10077,Fragklinou Rousvelt - Synergatismou,FrRo-Sy,34.6664867793441,33.0242413375462,3978
3979,10078,Fragklinou Rousvelt - Aimilou Veaki,FrRo-AiVe,34.6641429617571,33.0195256784279,3979
3980,10079,Omonoias Ave. - Tsiflikoudion,OmAv-Ts,34.6625110053161,33.0176153309949,3980
3981,10080,Kathetos Limaniou - Kosta Monti,KaLi-KoMo,34.6497428567047,32.9996180656463,3981
3982,10081,EMEL Bus Station Leontiou A´,EMBuStLeA,34.6792348518186,33.0372354212458,3982
3983,10082,Dodekanisou - Archiep. Leontiou A´ 1,Do-ArLeA,34.6807414343687,33.0352492973061,3983
3984,10083,Dodekanisou - Katholiki High School 1,Do-KaHiSc,34.6833929067955,33.0345299106883,3984
3985,10084,Ioanni Tsirou - Post Office 1,IoTs-PoOf,34.6851783126075,33.0350219194879,3985
3986,10085,Archiep. Makariou C´ Ave. - Ioanni Tsirou,ArMaC-IoTs,34.6863054088023,33.0355136683255,3986
3987,10086,Archiep. Makariou C´ Ave. - Larnakos,ArMaC-La,34.6842233453819,33.0316154347584,3987
3988,10087,Archiep. Makariou C´ Ave. - Fire Station 1,ArMaC-FSt,34.6819785912338,33.0287653392861,3988
3989,10088,Archiep. Makariou C´ Ave. - Nikolaou Skoufa,ArMaC-NiSk,34.678426506456,33.024288480921,3989
3990,10089,Archiep. Makariou C´ Ave. - Souez 1,ArMaC-S,34.6767045091013,33.0220502094444,3990
3991,10090,Archiep. Makariou C´ Ave. - Agios Ioannis Church,ArMaC-AIoC,34.6755865370387,33.0206199435505,3991
3992,10091,Agios Ioannis Police Station 1,AgIoPoSt,34.6740538047787,33.018665671764,3992
3993,10092,Pafou - Vasileos Pavlou A´ 1,Pa-VaPaA,34.6738827936264,33.0163733626552,3993
3994,10093,Pafou - Omonoias Ave.,Pa-OmAv,34.6748120474387,33.0129896794722,3994
3995,10094,Pafou - Evgeniou Voulgareos,Pa-EvVo,34.6757773149791,33.009136544433,3995
3996,10095,Pafou - Miltonos,Paf-Mil,34.6759758721961,33.0066150049513,3996
3997,10096,Pafou - Apostolou Vakalopoulou,Pa-ApVa,34.6757595695826,33.0035585577702,3997
3998,10097,Pafou - Sotirias Skipi,Pa-SoSk,34.6759760446396,33.0013099019743,3998
3999,10098,Pafou - 28th Elementary School 1,Pa-28ElSc,34.6773467574147,32.9978822902509,3999
4000,10099,Pafou - Monovolikos 1,Paf-Mon,34.6789879110542,32.9944545475505,4000
4001,10100,Ilia Kannaourou - Ymittou,IlKa-Ym,34.6809984771997,32.9883630016125,4001
4002,10101,Ilia Kannaourou - Dimitriou Papanikoli,IlKa-DiPa,34.6807815232888,32.983778110261,4002
4003,10102,Ilia Kannaourou - Danais,IlKa-Da,34.6812857280735,32.9786035689758,4003
4004,10103,Ilia Kannaourou - Menelaou,IlKa-Me,34.6820598471002,32.9716385485763,4004
4005,10104,Ilia Kannaourou - Lefkosias,IlKa-Le,34.6832670409223,32.9668565759133,4005
4006,10105,Agios Georgios Church 1,AgiGeoChu,34.6838159114305,32.9626315254588,4006
4007,10106,Agiou Georgiou Ave. - Smyrnis,AgGeAv-Sm,34.6841569033264,32.9574785848706,4007
4008,10107,Agiou Georgiou Ave. - Iakovou Patatsou,AGe-IaPa,34.6831724293266,32.9533197900453,4008
4009,10108,Kolossi Community Stadium 1,KolComSta,34.6746721901774,32.9409570975215,4009
4010,10109,Apostolou Louka Ave. - Archiep. Makariou C´,ApL-ArMaC,34.6722447894699,32.9377824507898,4010
4011,10110,Kolossi Elementary School A´ 1,KoElScA,34.6707362444976,32.9329699932043,4011
4012,10111,Pafou - 1 Maiou,Pa-1Ma,34.6737328890035,32.9223140000444,4012
4013,10112,14 Street - 30 Street,14St-30St,34.6678082695911,32.9094728417389,4013
4014,10113,Episkopi Community Park 1,EpiComPar,34.6673832829458,32.9079452435462,4014
4015,10114,Episkopi Police Station 1,EpiPolSta,34.6700699112624,32.9070035756323,4015
4016,10115,Mykinon 1,Mykinon,34.6714230803799,32.9076351477158,4016
4017,10116,Nikou Georgiou - 31 Street,NiGe-31St,34.673008847369,32.9058214218518,4017
4018,10117,Episkopi Community Council 1,EpiComCou,34.6709953045417,32.9025818890903,4018
4019,10118,9 Street 1,9Stree,34.6662691428577,32.9016269391849,4019
4020,10119,14 Street - 29 Street,14St-29St,34.6648083006157,32.9017050664618,4020
4021,10120,Agios Ermogenis 2,AgiosErmog,34.6623824918516,32.8911103783733,4021
4022,10121,Kourion Beach,KouriBeach,34.6651847159342,32.8790462711465,4022
4023,10122,9 Street 2,9Stree,34.6663141619919,32.9015395693598,4023
4024,10123,1 Street - Karpasias,1St-Ka,34.6683986393572,32.9032070753038,4024
4025,10124,Episkopi Community Council 2,EpiComCou,34.6710583252237,32.9024508329229,4025
4026,10125,Episkopiana,Episkopian,34.6781449453354,32.890129131509,4026
4030,10129,14 Street - 16 Street,14St-16St,34.6657738584198,32.9025006850635,4030
4031,10130,Nikou Georgiou - Trofimou Koulle,NiGe-TrKo,34.6731793992823,32.9048060893945,4031
4032,10131,Mykinon 2,Mykinon,34.6715313863049,32.9077550953738,4032
4033,10132,Episkopi Police Station 2,EpiPolSta,34.6699437103237,32.9070692069859,4033
4034,10133,Episkopi Community Park 2,EpiComPar,34.667401425849,32.908087114838,4034
4035,10134,14 Street - 28 Street,14St-28St,34.6677630826458,32.909341913681,4035
4036,10135,Cyprus Wine Museum,CypWinMus,34.6753797754139,32.9171602199446,4036
4037,10136,Pafou - Fountain,Paf-Fou,34.6741016756379,32.9208400496814,4037
4038,10137,Ellados - Enoseos 1,Ell-Eno,34.6823538521537,32.9220548654075,4038
4039,10138,Ellados - Enoseos 2,Ell-Eno,34.6823088254154,32.9221531576967,4039
4040,10139,Ellados - Irlandias 1,Ell-Irl,34.6859172732647,32.9241912874337,4040
4041,10140,Gallias - Club Aphrodite,Ga-ClAp,34.6876127874361,32.924429924074,4041
4042,10141,Ellados - Irlandias 2,Ell-Irl,34.6857189744195,32.9243443079387,4042
4043,10142,Kolossi Elementary School A´ 2,KoElScA,34.6708448891661,32.9337557982178,4043
4044,10143,Apostolou Louka Ave. - Iakovou Patatsou,ApL-IaPa,34.6719829730705,32.9372041344041,4044
4045,10144,Kolossi Community Stadium 2,KolComSta,34.6748706425127,32.9410770294209,4045
4046,10145,Kolossi Castle,KolosCastl,34.6650740320009,32.9349064054231,4046
4047,10146,Griva Digeni - Galilaiou,GrDi-Ga,34.6731271632649,32.9351293309064,4047
4048,10147,Griva Digeni - Thessalonikis,GrDi-Th,34.6730370304871,32.9352167248709,4048
4049,10148,Griva Digeni - Agiou Epiktitou.,GrDi-AgEp,34.6779883226685,32.9360752421941,4049
4050,10149,Griva Digeni - Vasili Michailidi,GrDi-VaMi,34.6812531145133,32.9366622264463,4050
4051,10150,Dimitri Liperti - Griva Digeni,DiLi-GrDi,34.6828858457582,32.9376107407736,4051
4052,10151,Dimitri Liperti - Davlou,DiLi-Da,34.6832743775617,32.9391169684667,4052
4053,10152,Citizen Service Centre,CitSerCen,34.6829862483706,32.9400123543128,4053
4054,10153,Kolossi Elementary School B´,KoElScB,34.6821839006399,32.940515099435,4054
4055,10154,Ammochostou - Apostolou Andreou,Am-ApAn,34.6800293873684,32.9421104315828,4055
4056,10155,Ammochostou - Agiou Memnonos,Am-AgMe,34.6803358768803,32.9418591406326,4056
4057,10156,Ammochostou - Ag. Foteini & Ap. Andreas Church 2,Am-AFo&Aan,34.6792359661178,32.9424384719939,4057
4058,10157,Ammochostou - Ag. Foteini & Ap. Andreas Church 1,Am-AFo&Aan,34.6784965743727,32.9426027262869,4058
4059,10158,Ammochostou - Ethnikis Antistaseos,Am-EtAn,34.6768735849093,32.9431059804565,4059
4060,10159,Ammochostou - Agiou Georgiou Ave.,Am-AgGeAv,34.6770359379669,32.9431713653496,4060
4061,10160,Agiou Georgiou Ave. - Agiou Vichianou,AGe-AVi,34.6834250225223,32.9535598184541,4061
4062,10161,Agiou Georgiou Ave. - Kassianou,AgGeAv-Ka,34.6842292357911,32.958024394481,4062
4063,10162,Agiou Georgiou Ave. - Kassianou,AgGeAv-Ka,34.6840587978197,32.9607318740582,4063
4064,10163,Agios Georgios Church 2,AgiGeoChu,34.6840776199816,32.9632536718684,4064
4065,10164,Ilia Venezi - Griva Digeni,IlVe-GrDi,34.6851664488341,32.9561789392108,4065
4066,10165,Ilia Venezi,IliaVenez,34.6885209988961,32.9558714817094,4066
4067,10166,Ilia Venezi - Archiep. Makariou C´ 2,IVe-ArMaC,34.6895761760948,32.9561001920638,4067
4068,10167,Ilia Venezi - Archiep. Makariou C´ 1,IVe-ArMaC,34.6894680044893,32.9562203429843,4068
4069,10168,Archiep. Makariou C´ - Chrysopolitissis,ArMaC-Ch,34.6889459491287,32.9590482635365,4069
4070,10169,Archiep. Makariou C´ - Agiou Sila,ArMaC-AS,34.688468553641,32.9607297918492,4070
4071,10170,Archiep. Makariou C´ - Apostolou Varnava,ArMaC-ApVa,34.6884594368628,32.9604241065115,4071
4072,10171,Archiep. Makariou C´ - Trion Ierarchon,ArMaC-TIe,34.6871614675361,32.9623461719799,4072
4073,10172,Archiep. Makariou C´ - Griva Digeni,ArMaC-GDi,34.6871614066692,32.962149660303,4073
4074,10173,Trion Ierarchon - Ifaistou,TrIe-If,34.6867380691692,32.9638092767069,4074
4077,10176,Michalaki Karaoli - Lefkados,MiKa-Le,34.6892913486272,32.9681533690034,4077
4078,10177,Michalaki Karaoli - Evrota,MiKa-Ev,34.6906358735988,32.9716247060016,4078
4080,10179,Argonafton - Afrikis,Arg-Afr,34.6883369249553,32.9744094457389,4080
4082,10181,Trion Ierarchon - Keryneias,TrIe-Ke,34.6871461281834,32.972422860782,4082
4083,10182,Trion Ierarchon - Troodous,TrIe-Tr,34.6870728005338,32.9676083533299,4083
4084,10183,Ammochostou - Iroon 2,Amm-Iro,34.6858459768743,32.966178685239,4084
4086,10185,Ilia Kannaourou - Kronou,IlKa-Kr,34.6833482936683,32.96719496485,4086
4087,10186,Ilia Kannaourou - Aigyptou,IlKa-Ai,34.6825733542023,32.9695096140556,4087
4088,10187,Petraki Giallourou - Ilia Kannaourou,PeGi-IlKa,34.6837375054404,32.9730790030773,4088
4089,10188,Ilia Kannaourou - Akanthous,IlKa-Ak,34.6819071194171,32.9742367580326,4089
4090,10189,Ilia Kannaourou - Oresti,IlKa-Or,34.6814210044456,32.9786472004348,4090
4091,10190,Ilia Kannaourou - Kyparissona,IlKa-Ky,34.6809167627678,32.9835597539281,4091
4092,10191,Ilia Kannaourou - 9 Street,IlKa-9St,34.6811517660152,32.9881992322345,4092
4093,10192,Pafou - Monovolikos 2,Paf-Mon,34.6795920652345,32.9935157033909,4093
4094,10193,Pafou - 28 Elementary School 2,Pa-8ElSc,34.6779870140949,32.9971181459976,4094
4095,10194,Pafou - Christou Keli,Pa-ChKe,34.6758768063371,33.0034275727436,4095
4096,10195,Pafou - Omonoias Ave.,Pa-OmAv,34.6760209945225,33.0059818889107,4096
4097,10196,Pafou - Evgeniou Voulgareos,Pa-EvVo,34.6757772831842,33.0095513457284,4097
4098,10197,Pafou - Dimosthenous,Paf-Dim,34.6749834247207,33.0126404032058,4098
4099,10198,Pafou - Vasileos Pavlou A´ 2,Pa-VaPaA,34.6739729552189,33.0165043674397,4099
4100,10199,Agios Ioannis Police Station 2,AgIoPoSt,34.67454972814,33.0190696625303,4100
4101,10200,Archiep. Makariou C´ Ave. - Souez 2,ArMaC-S,34.6762176885773,33.0212204734455,4101
4102,10201,Archiep. Makariou C´ Ave. - Vyzantiou,ArMaC-Vy,34.6788863567926,33.0246051858907,4102
4103,10202,Archiep. Makariou C´ Ave. - Fire Station 2,ArMaC-FSt,34.681518858102,33.0279901033579,4103
4104,10203,Archiep. Makariou C´ Ave. - Ammochostou,ArMaC-Am,34.6845840077666,33.0318229944535,4104
4105,10204,Ioanni Tsirou - Post Office 2,IoTs-PoOf,34.6858454381703,33.035709980505,4105
4106,10205,Dodekanisou - Katholiki High School 2,Do-KaHiSc,34.6834830673247,33.034595449124,4106
4107,10206,Dodekanisou - Archiepiskopou Leontiou A´ 2,Do-ArLeA,34.6805069084406,33.0354566103523,4107
4108,10207,Archiep. Makariou C´ Ave. - Agias Fylaxeos,ArMaC-AFy,34.6865397108503,33.036070547384,4108
4109,10208,Laniteio School 2,LanitSchoo,34.6870438265049,33.0389529336289,4109
4110,10209,Archiep. Makariou C´ Ave. - Platonos,ArMaC-Pl,34.6875747883206,33.0422393110185,4110
4111,10210,Archiep. Makariou C´ Ave. - Kimonos,ArMaC-Ki,34.6877175955059,33.0463115698808,4111
4112,10211,Archiep. Makariou C´ Ave. - Alasias,ArMaC-Al,34.6874010936318,33.0485603672913,4112
4113,10212,Archiep. Makariou C´ Ave. - Griva Digeni 2,ArMaC-GDi,34.686876524564,33.0522610185188,4113
4114,10213,Agios Nikolaos Church 2,AgiNikChu,34.6891647065961,33.0575138120151,4114
4115,10214,Griva Digeni - Griva Digeni Hideout 2,GDi-GDiHi,34.6918135842314,33.062363203529,4115
4116,10215,Griva Digeni - Georgiou Neofytou,GrDi-GeNe,34.6938051985473,33.0649304714732,4116
4117,10216,Linopetra High School 2,LinHigSch,34.6956166173062,33.0671046528369,4117
4118,10217,Kolonakiou - Petrompei Mavromichali,Ko-PeMa,34.6979766083109,33.0718343701403,4118
4119,10218,Health Centre 2,HealtCentr,34.6995620757721,33.0746309896614,4119
4120,10219,Spyrou Kyprianou Ave. - Dodekanison,SpKyAv-Do,34.7023549708026,33.0788374315713,4120
4121,10220,Spyrou Kyprianou Ave. - Samou,SpKyAv-Sa,34.7047867729789,33.0833823038881,4121
4122,10221,Spyrou Kyprianou Ave. - Christaki Kranou,SpKy-ChKr,34.7059036356265,33.0853380642205,4122
4123,10222,Spyrou Kyprianou Ave. - Methanon,SpKyAv-Me,34.7040479317145,33.0824643219773,4123
4124,10223,Spyrou Kyprianou Ave. - Akarnanias,SpKyAv-Ak,34.7025346026578,33.0799513739199,4124
4125,10224,Kolonakiou - Pelasgon,Kol-Pel,34.7007693754548,33.0764009680701,4125
4126,10225,Health Centre 1,HealtCentr,34.6992646392521,33.0743795878281,4126
4127,10226,Kolonakiou - Andrea kai Annas Poupoutsi,Ko-AnkAPo,34.6979314157932,33.072009030751,4127
4128,10227,Linopetra High School 1,LinHigSch,34.6956343997182,33.0675632411505,4128
4129,10228,Griva Digeni - Stratigou Timagia,GrDi-StTi,34.693201300988,33.0643622582278,4129
4130,10229,Griva Digeni - Griva Digeni Hideout 1,GDi-GDiHi,34.6916422609963,33.0623303213213,4130
4131,10230,Agios Nikolaos Church 1,AgiNikChu,34.6887681600871,33.0570004139943,4131
4132,10231,Griva Digeni - Archiep. Makariou C´ Ave.,GDi-ArMaC,34.6872090893536,33.054761294322,4132
4133,10232,Archiep. Makariou C´ Ave. - Griva Digeni 1,ArMaC-GDi1,34.6867049916607,33.0527085182304,4133
4134,10233,Archiep. Makariou C´ Ave. - Kosta Partasidi,ArMaC-KPa,34.6873833341999,33.0478616468077,4134
4135,10234,Archiep. Makariou C´ Ave. - Ipparchou,ArMaC-Ip,34.6875115795247,33.0424794608923,4135
4136,10235,Laniteio School 1,LanitSchoo,34.6870615943218,33.0397826570356,4136
4137,10236,Kathetos Limaniou - Georgiou Varnakioti 1,KaLi-GeVa,34.6752180593346,32.9891060811873,4137
4138,10237,Kathetos Limaniou - Georgiou Varnakioti 2,KaLi-GeVa,34.6752721401832,32.9888113486574,4138
4139,10238,Kathetos Limaniou - Epimitheos 1,KaLi-Ep,34.6680398571687,32.9899147167545,4139
4140,10239,Kathetos Limaniou - Epimitheos 2,KaLi-Ep,34.6679857294604,32.9896745976795,4140
4141,10240,Kathetos Limaniou - Fragklinou Rousvelt 1,KaLi-FrRo,34.6592657556255,32.996114737672,4141
4142,10241,Kathetos Limaniou - Fragklinou Rousvelt 2,KaLi-FrRo,34.6592026213638,32.9958528130199,4142
4143,10242,Taki Christodoulou,TakiChris,34.693637104378,33.0749859702662,4143
4144,10244,Griva Digeni - 28 Oktovriou,GrDi-28Ok,34.6895731651435,33.0697090894552,4144
4145,10245,Griva Digeni - Agios Nikolaos Fire Station 1,GDi-ANiFSt,34.6906737521967,33.0690003566633,4145
4146,10246,Griva Digeni - Armonias 1,GrDi-Ar,34.6931638474355,33.0669279835135,4146
4147,10247,Georgiou Neofytou - Kolonakiou,GeNe-Ko,34.6949687728889,33.0644291365462,4147
4148,10248,Georgiou Neofytou - Meletiou Metaxaki 1,GeNe-MeMe,34.6971535842667,33.0595502032712,4148
4149,10249,Spyrou Kyprianou Ave. - Eptanisou,SpKyAv-Ep,34.6983302393291,33.0499097611408,4149
4150,10250,Spyrou Kyprianou Ave. - Grigori Afxentiou 1,SpKy-GrAf,34.6982051479932,33.0469943753652,4150
4151,10251,21 Elementary School - Kontovatheia 1,21ElSc-Ko,34.6979992736136,33.0428233004097,4151
4152,10252,9 Elementary School - Kapsalos,9ElSc-Ka,34.6975505278726,33.0361954298527,4152
4153,10253,Spyrou Kyprianou Ave. - Inachou,SpKyAv-In,34.695991739607,33.0314888877765,4153
4154,10254,26 Elementary School - Panagia Tricherousa 2,2ElSc-PaTr,34.6938555489595,33.0271208002246,4154
4155,10255,Spyrou Kyprianou Ave. - Vasileos Konstantinou A´ 1,SpKy-VaKoA,34.6925935896022,33.0245437333689,4155
4156,10256,Spyrou Kyprianou Ave. - Iakchou,SpKyAv-Ia,34.6911963577971,33.0216828449698,4156
4157,10257,Spyrou Kyprianou Ave. - Nikou & Despoinas Pattichi,SpKy-N&DeP,34.6899793911186,33.0189858588262,4157
4158,10258,Spyrou Kyprianou Ave. - Nafsikas,SpKyAv-Na,34.6884376593107,33.016736504893,4158
4159,10259,Spyrou Kyprianou Ave. - Theodorou Potamianou,SpKy-ThPo,34.685299724983,33.014410536802,4159
4160,10260,15Elementary School - Agios Neofytos 1,15Sc-AgNe,34.6822067990434,33.0124340841501,4160
4161,10262,Omonoias Ave. - Kamirou,OmAv-Ka,34.6727921780726,33.0115376116823,4161
4162,10263,Omonoias Ave. - Esperidon,OmAv-Es,34.6702941325341,33.0123449830409,4162
4163,10264,Omonoias Ave. - Aiginis,OmAv-Ai,34.6675344719583,33.0139490407962,4163
4164,10265,Fragklinou Rousvelt - Dekeleias,FrRo-De,34.6616277140389,33.0140135347199,4164
4165,10266,Fragklinou Rousvelt - Evrypolou,FrRo-Ev,34.6601853806488,33.0080761962948,4165
4166,10267,Fragklinou Rousvelt - Oinouson 1,FrRo-Oi,34.6594821549923,33.0047692810409,4166
4167,10268,16 Elementary School - Zakaki 1,16ElSc-Za,34.6583279339969,33.002029917563,4167
4168,10269,Fragklinou Rousvelt - Renouar,FrRo-Re,34.6572548132146,32.9993670231124,4168
4169,10270,Fragklinou Rousvelt - Andrea Iordanous,FrRo-AnIo,34.6573810646342,32.9993888489748,4169
4170,10271,16 Elementary School - Zakaki 2,16ElSc-Za,34.6585082893475,33.0022372795802,4170
4171,10272,Fragklinou Rousvelt - Oinouson 2,FrRo-Oi,34.6595362714255,33.0045400965739,4171
4172,10273,Fragklinou Rousvelt - Pierias,FrRo-Pi,34.6602935894571,33.0081744309292,4172
4173,10274,Fragklinou Rousvelt - Saronikou,FrRo-Sa,34.6614294023094,33.013271353294,4173
4174,10275,Omonoias Ave. - Ilioupoleos,OmAv-Il,34.6647747946146,33.0155093346789,4174
4175,10276,Omonoias Ave. - Evas,OmAv-Ev,34.6673270644331,33.0139053471724,4175
4176,10277,Omonoias Ave. - Vakchou,OmAv-Va,34.6725937918982,33.0114502609261,4176
4177,10278,Spyrou Kyprianou Ave. - Nikotsara,SpKyAv-Ni,34.6808632493734,33.011200319829,4177
4178,10279,15Elementary School - Agios Neofytos 2,15Sc-AgNe,34.6834782608151,33.0130456169391,4178
4179,10280,Spyrou Kyprianou Ave. - 71 Street,SpKy-7St,34.6869859673086,33.0152842125567,4179
4180,10281,Spyrou Kyprianou Ave. - Damareos,SpKyAv-Da,34.690231844357,33.0192916126456,4180
4181,10282,Spyrou Kyprianou Ave. - Vasileos Konstantinou A´ 2,SpKy-VaKoA,34.6910521805245,33.0210604911595,4181
4182,10283,Spyrou Kyprianou Ave. - Taxiarchon,SpKyAv-Ta,34.6927919811442,33.0245547099891,4182
4183,10284,26 Elementary School - Panagia Tricherousa 1,2ElSc-PaTr,34.6943333697317,33.0276887055594,4183
4184,10285,Spyrou Kyprianou Ave. - Sporadon,SpKyAv-Sp,34.6960639557604,33.0312050344902,4184
4185,10286,Spyrou Kyprianou Ave. - Kosti Palama,SpKy-KPa,34.6978835319183,33.0383465636477,4185
4186,10287,21 Elementary School - Kontovatheia 2,21ElSc-Ko,34.6981796428722,33.0427906370358,4186
4187,10288,Spyrou Kyprianou Ave. - Grigori Afxentiou 2,SpKy-GrAf,34.6983765004699,33.0469617158679,4187
4188,10289,Spyrou Kyprianou Ave. - Ioanni Tsimiski,SpKy-IoTs,34.698456596777,33.0496477858176,4188
4189,10290,Spyrou Kyprianou Ave. - Iridos,SpKyAv-Ir,34.6985723890623,33.0530654439522,4189
4190,10292,Georgiou Neofytou - Meletiou Metaxaki 2,GeNe-MeMe,34.6973159382188,33.0594848076777,4190
4191,10293,Georgiou Neofytou - Dimitriou Nikolaou,GeNe-DiNi,34.695744957322,33.0631959540801,4191
4192,10294,Griva Digeni - Armonias 2,GrDi-Ar,34.6926855558398,33.067549926811,4192
4193,10295,Griva Digeni - Agios Nikolaos Fire Station 2,GDi-ANiFSt,34.6906826648733,33.0691859662723,4193
4194,10296,Omonoias Ave. - Ivis,OmAv-Iv,34.670285125607,33.0122358306734,4194
4231,2688,Lefkosias - Troodous - Karvounas 1,Le-Tr-Ka,34.9417082387721,32.9299577618315,4231
4232,2690,Troodos Camping Site 1,TroCamSit,34.9311673134329,32.883672071618,4232
4314,4010,Troodos Square,TroodSquar,34.9237254138149,32.8811644088428,4314
4328,11194,Archiep. Makariou C´ Ave. - 12th Kyperounta,ArMaC-1Ky,34.949129420956,32.9473431147341,4328
4329,11195,Archiep. Makariou C´ Ave. - 11th Kyperounta 2,ArMaC-1Ky,34.9499960183095,32.9495001135699,4329
4330,11196,Archiep. Makariou C´ Ave. - 11th Kyperounta 1,ArMaC-1Ky,34.9499058158471,32.9494344566838,4330
4331,11197,Kyperounta Hospital,KyperHospi,34.950619411433,32.9524349017202,4331
4332,11198,Archiep. Makariou C´ Ave. - 10th Kyperounta 1,ArMaC-10K,34.948609579414,32.9552616427959,4332
4333,11199,Archiep. Makariou C´ Ave. - 9th Kyperounta 2,ArMaC-9Ky,34.9420108335886,32.9613211211968,4333
4334,11200,Archiep. Makariou C´ Ave. - 9th Kyperounta 1,ArMaC-9Ky,34.9419927461268,32.9611568649604,4334
4335,11202,Archiep. Makariou C´ Ave. - 7th Kyperounta 2,ArMaC-7Ky,34.9413365168504,32.9682095506847,4335
4336,11203,Archiep. Makariou C´ Ave. - 7th Kyperounta 1,ArMaC-7Ky,34.941219112353,32.9675415923505,4336
4337,11204,Grigori Afxentiou - 6th Kyperounta,GrAf-6tKy,34.9393349621421,32.9695243985513,4337
4338,11205,1 Apriliou - 5th Kyperounta 1,1Ap-5tKy,34.9386868956006,32.9747370967164,4338
4339,11206,1 Apriliou - 5th Kyperounta 2,1Ap-5tKy,34.9387590789425,32.9749451350812,4339
4340,11315,Stylianou Lena - Cyta 2,StLe-Cy,34.9445490979587,32.9789844119253,4340
4341,11316,Stylianou Lena - 2nd Kyperounta 2,StLe-2nKy,34.9427454872926,32.9783825625439,4341
4342,11317,Stylianou Lena - 3rd Kyperounta 1,StLe-3rKy,34.9418160011267,32.9748456467083,4342
4343,11318,Georgiou Charalampous - 4th Kyperounta 2,GeCh-4tKy,34.9404091312028,32.9741999807552,4343
4344,11320,Georgiou Griva Digeni Ave. - 3rd Chandria 1,GeGDi-3Ch,34.9444873843057,32.9900343038382,4344
4345,11321,Georgiou Griva Digeni Ave. - 2nd Chandria 1,GeGDi-2Ch,34.9435317670774,32.9936045065459,4345
4346,11323,Chandria Square 2,ChandSquar,34.9419176399911,32.9938017493779,4346
4347,11422,Kyperounda Winery 1,KyperWiner,34.944414307376,32.9819193959345,4347
4349,2606,Archiepiskopou Makariou C´ Avenue - Karvounas 2,ArMaC-Ka,34.9423130453557,32.9310633008533,4349
4350,2607,Archiepiskopou Makariou C´ Avenue - Karvounas 1,ArMaC-Ka,34.9424213734973,32.9312712798999,4350
4351,2608,Platania - Forest Station 2,Pl-FoSt,34.9496151017684,32.92739922302,4351
4354,2687,Lefkosias - Troodous - Karvounas 2,Le-Tr-Ka,34.9420058800674,32.930067018569,4354
4355,2689,Troodos Camping Site 2,TroCamSit,34.9317094187279,32.8847772168075,4355
4404,2253,Apliki,Apliki,34.9313372009438,33.1178282577396,4404
4659,10297,Archiep. Leontiou A´ - Panagioti Diomidous,ArLeA-PaDi,34.6813100525199,33.0335138069715,4659
4660,10298,Archiep. Leontiou A´ - Karatza 1,ArLeA-Ka,34.6819325517798,33.0325424776436,4660
4661,10299,Archiep. Leontiou A´ - Karatza 2,ArLeA-Ka,34.6823114227731,33.0320950419712,4661
4662,10300,Archiepiskopou Leontiou A´ - Filiou Zanettou,ArLeA-FiZa,34.6816798914142,33.0331318750662,4662
4663,10301,Enoseos,Enoseos,34.6759780900451,33.0412509960873,4663
4664,10302,Municipal Market - TEPAK,MuMa-TE,34.676815672063,33.0443406277466,4664
4665,10303,Anexartisias - District Office 1,An-DiOf,34.6797737657,33.0437418053673,4665
4667,10305,Gladstonos - Vragadinou,Gla-Vra,34.6792603888362,33.0419076004369,4667
4668,10306,Gladstonos - Leontiou Machaira,Gl-LeMa,34.6792604150831,33.0418311864922,4668
4669,10307,Navarinou - Simou Menardou 1,Na-SiMe,34.676276557087,33.0385767514481,4669
4670,10308,Navarinou - Simou Menardou 2,Na-SiMe,34.6762315191909,33.0384129923283,4670
4671,10309,Mpagiazit ,Mpagiazit,34.6745457089164,33.0366547925301,4671
4672,10310,Fevzi Pasa - Agkyras,FePa-Ag,34.6724711921543,33.0379418945615,4672
4673,10311,Koumandarias,Koumandari,34.6730282753899,33.043978399107,4673
4674,10312,Archiepiskopou Kyprianou,ArchiKypri,34.6745340145838,33.0446777971919,4674
4675,10313,Sokratous,Sokratous,34.6748591211617,33.0434008346241,4675
4676,10314,Kitiou Kyprianou ,KitioKypri,34.6755718637679,33.0424733637941,4676
4677,10315,Agia Zoni Church,AgiZonChu,34.6838226109254,33.0442897785214,4677
4678,10316,Gladstonos - Zinonos,Gla-Zin,34.681170955881,33.0453472700374,4678
4679,10317,Gladstonos - Christodoulou Karydi,Gl-ChKa,34.6818470538361,33.0460026357652,4679
4680,10318,B´ Elementary School 1,BEleSch,34.6830007173559,33.0476407893716,4680
4681,10319,B´ Elementary School 2,BEleSch,34.6828563923632,33.0477389574681,4681
4682,10320,Gladstonos - Aristodimou Pilavaki,Gl-ArPi,34.6837388024438,33.0510581915224,4682
4683,10321,Gladstonos - Michail Koutsofta,Gl-MiKo,34.6840813268848,33.0514295767971,4683
4684,10322,Kalogries - Courthouses,Kal-Cou,34.6849555181869,33.0527074094777,4684
4685,10323,Zoo - PASHDY,Zoo-PAS,34.6846393759327,33.0538862435104,4685
4686,10324,Agias Fylaxeos - Orfeos,AgFy-Or,34.6797659187806,33.0403468176243,4686
4687,10325,Agias Fylaxeos - Athinaidos Lanitou,AgFy-AtLa,34.6807851830011,33.0396159078497,4687
4688,10326,Agias Fylaxeos - Ethnikis Antistaseos,AgFy-EtAn,34.6818586230703,33.0386557564619,4688
4689,10327,Agias Fylaxeos - Episkopou Lavrentiou 1,AgFy-EpLa,34.6852677207983,33.037609302347,4689
4690,10328,Agias Fylaxeos - Episkopou Lavrentiou 2,AgFy-EpLa,34.6854660810192,33.037718562991,4690
4691,10329,Gilntiz - Mestzit,Gil-Mes,34.6739872221707,33.0345150912213,4691
4692,10330,Gilntiz - Mpemper Mechmet,Gi-MpMe,34.6742396868872,33.0346461834065,4692
4693,10331,Misiaouli kai Kavazoglou - Peloponnisou,MikaKa-Pe,34.6741054907409,33.0306401009535,4693
4694,10332,Misiaouli kai Kavazoglou - Palaipafou,MikaKa-Pa,34.6742317224524,33.0307165567819,4694
4695,10333,Misiaouli kai Kavazoglou - Ionos Dragoumi,MikKa-IDr,34.6743858670028,33.0271799461152,4695
4696,10334,D´ Elementary School,DEleSch,34.6744131686009,33.0260447280247,4696
4697,10335,Misiaouli kai Kavazoglou - Aristonikou,MikaKa-Ar,34.6738365023415,33.0236867846708,4697
4698,10336,Misiaouli kai Kavazoglou - Ippokratous,MikaKa-Ip,34.6738546243294,33.0232392514133,4698
4699,10337,Misiaouli kai Kavazoglou - Soranou 1,MikaKa-So,34.6733412395346,33.01961516075,4699
4700,10338,Misiaouli kai Kavazoglou - Soranou 2,MikaKa-So,34.6735215520626,33.0198990069736,4700
4701,10339,Vasileos Pavlou A´ - Pafou 1,VaPaA-Pa,34.6731071607218,33.0170390538917,4701
4702,10340,Vasileos Pavlou A´ - Pafou 2,VaPaA-Pa,34.6727645352742,33.0166351128825,4702
4703,10341,Vasileos Pavlou A´ - Kyriakou Katoli 1,VaPaA-KyKa,34.6700863333352,33.0157067959377,4703
4704,10342,Vasileos Pavlou A´ - Kyriakou Katoli 2,VaPaA-KyKa,34.6701494770532,33.0155649117474,4704
4705,10343,Vasileos Pavlou A´ - Thyestou,VaPaA-Th,34.6670924307553,33.0153023875657,4705
4706,10344,Vasileos Pavlou A´ - Aiginis,VaPaA-Ai,34.6669571821565,33.0151386426989,4706
4707,10345,Department of Lands and Surveys 2,DeofLaanSu,34.668515864309,33.0239908865553,4707
4708,10346,Department of Lands and Surveys 1,DeofLaanSu,34.6686240579786,33.0241000665956,4708
4709,10347,Dimokratias - Pragas,Dim-Pra,34.6712575762628,33.0226272731857,4709
4710,10348,Dimokratias - Kopernikou,Dim-Kop,34.6708877840446,33.0229327977263,4710
4711,10349,Dimokratias - Zacharia Papantoniou,Di-ZaPa,34.6719068893592,33.0225073812797,4711
4712,10350,Dimokratias - Artemidos,Dim-Art,34.67235784776,33.0221691266413,4712
4713,10351,Markoni - Filellinon,Mar-Fil,34.6752963166793,33.0287521130018,4713
4714,10352,Markoni - Solon,Mar-Sol,34.6753413779134,33.0288722020004,4714
4715,10353,Asklipiou - Areos,Ask-Are,34.6785878395651,33.0288296639255,4715
4716,10354,Asklipiou - Gian Zimpelious,As-GiZi,34.6785697179992,33.0291898919025,4716
4717,10355,Dimitriou Charalampous - Monis Machaira,DiCh-MoMa,34.6789211532071,33.0302707225517,4717
4718,10356,Dimitriou Charalampous - Dimitriou Chamatsou,DiCh-DiCh,34.6791374381709,33.0308493632494,4718
4719,10357,Aiolou - Panagioti Diomidous 2,Ai-PaDi,34.6805890757129,33.0318105495945,4719
4720,10358,Aiolou - Panagioti Diomidous 1,Ai-PaDi,34.6806612047737,33.0318651594978,4720
4721,10360,Nikou & Despoinas Pattichi - Vas. Konstantinou 2,N&DePa-VKo,34.6842149398374,33.0291591222144,4721
4722,10361,Nikou & Despoinas Pattichi - Vas. Konstantinou 1,N&DePa-VKo,34.6845128197195,33.0279256090837,4722
4723,10362,Nikou & Despoinas Pattichi - Dikaiarchou 1,N&DePa-Di,34.6862361771836,33.0234828890117,4723
4724,10363,Nikou & Despoinas Pattichi - Annis Marias,N&DePa-AMa,34.6874811173972,33.0209067437208,4724
4725,10364,Nikou & Despoinas Pattichi - Dikaiarchou 2,N&DePa-Di,34.6863624089101,33.023581179568,4725
4726,10365,Nikou & Despoinas Pattichi - Nafsikas,N&DePa-Na,34.6883290651579,33.0193020886893,4726
4727,10366,Nikou & Despoinas Pattichi - Epidamnou,N&DePa-Ep,34.6882839198098,33.0196514370874,4727
4728,10367,Agios Neofytos High School 1,AgNeHiSc,34.6870854860558,33.0124566481579,4728
4729,10368,Agios Neofytos High School 2,AgNeHiSc,34.6872027098786,33.0125440043012,4729
4730,10369,30 Street 2,30Stree,34.6887809517385,33.011441571809,4730
4731,10370,30 Street 1,30Stree,34.6894122262774,33.0112123887901,4731
4732,10371,23 Street 2,23Stree,34.6904491840875,33.0122606325485,4732
4733,10372,23 Street 1,23Stree,34.6903499860738,33.0122715356583,4733
4734,10373,26 Street 1,26Stree,34.6897997792481,33.013363220865,4734
4735,10374,26 Street 2,26Stree,34.6898538710169,33.0135051592825,4735
4736,10375,28 Street 2,28Stree,34.6889610974317,33.0135159318432,4736
4737,10376,28 Street 1,28Stree,34.6890422694188,33.0134176869553,4737
4738,10377,Theodorou Potamianou - Troodos Roundabout 1,ThPo-TrRo,34.6882309384423,33.0105680994863,4738
4739,10378,Theodorou Potamianou - Troodos Roundabout 2,ThPo-TrRo,34.6883752286932,33.010524447915,4739
4740,10381,Panagias Evangelistrias - Kydonion,PaEv-Ky,34.6938312649678,33.007773753766,4740
4741,10382,Panagias Evangelistrias - Agiou Nikolaou 2,PaEv-AgNi,34.6938765698218,33.0028168954585,4741
4744,10385,Panagia Evagelistria Church 2,PanEvaChu,34.6941922273154,33.0005895850089,4744
4745,10386,Patriarchou Fotiou - 3 Street,PaFo-3St,34.6950849853955,32.9980892873243,4745
4746,10387,B´ Kato Polemidia Elementary School 1,BKaPoElSc,34.6962482804951,32.9973795573782,4746
4747,10388,B´ Kato Polemidia Elementary School 2,BKaPoElSc,34.6963114089358,32.9975324146573,4747
4748,10389,Politismou - 100 Street 1,Po-10St,34.6999366157372,32.9984385836606,4748
4749,10390,Politismou - 100 Street 2,Po-10St,34.70040554303,32.9982311127694,4749
4750,10391,100 Street - 101 Street 1,10St-10St,34.7004506080377,32.9969863386402,4750
4751,10392,100 Street - 101 Street 2,10St-10St,34.7005137329734,32.9969754172803,4751
4752,10393,102 Street 1,102Stree,34.7011088316115,32.9946059402153,4752
4753,10394,102 Street 2,102Stree,34.7011629408506,32.9946496133297,4753
4754,10395,103 Street - 120 Street 1,10St-12St,34.7024795427143,32.9944420613179,4754
4755,10396,103 Street - 120 Street 2,10St-12St,34.7024795510393,32.9946276899176,4755
4756,10397,Timios Stavros Church 1,TimStaChu,34.7044904839746,32.9935028417869,4756
4757,10398,Timios Stavros Church 2,TimStaChu,34.7044995087713,32.993633876219,4757
4758,10399,120 Street - 127 Street 2,12St-12St,34.7055454869653,32.9920067559922,4758
4759,10400,120 Street - 127 Street 1,12St-12St,34.7057528865931,32.9918320198923,4759
4760,10401,130 Street - 131 Street 1,13St-13St,34.7067990112602,32.9926290695476,4760
4761,10402,130 Street - 131 Street 2,13St-13St,34.7068982505631,32.9933716146245,4761
4762,10403,104 Street - Zodeias 1,10St-Zo,34.7089813168853,32.9923012704593,4762
4763,10404,104 Street - Zodeias 2,10St-Zo,34.7091165891149,32.9923667791352,4763
4764,10405,143 Street - 141 Street 1,14St-14St,34.7097387713318,32.9915913818675,4764
4765,10406,143 Street - 141 Street 2,14St-14St,34.7096214952487,32.990979858736,4765
4766,10407,143 Street - Konteas 1,14St-Ko,34.7083498273585,32.9891672600599,4766
4767,10408,143 Street - Konteas 2,14St-Ko,34.7082686359195,32.9888287478533,4767
4768,10409,143 Street - Eptakomis,14St-Ep,34.7067804856129,32.986819687328,4768
4769,10410,143 Street - Karava,14St-Ka,34.7067624212292,32.9865576127835,4769
4770,10411,General Hospital 2,GenerHospi,34.7071225147914,32.9817746211046,4770
4771,10412,General Hospital 1,GenerHospi,34.7052831120946,32.9834894170244,4771
4772,10413,Karmiotissa Stadium 1,KarmiStadi,34.7032276457608,32.9888731031728,4772
4773,10414,Karmiotissa Stadium 2,KarmiStadi,34.7024792223488,32.9895611211157,4773
4774,10415,Grigori Afxentiou - 103 Street 2,GrAf-10St,34.7010275126452,32.9917778885804,4774
4775,10416,Grigori Afxentiou - 103 Street 1,GrAf-10St,34.700829123559,32.9918434228803,4775
4776,10417,Grigori Afxentiou - 100 Street 1,GrAf-10St,34.7001708802994,32.9928371188497,4776
4777,10418,Grigori Afxentiou - 100 Street 2,GrAf-10St,34.6996839282643,32.9930773779788,4777
4778,10419,Synergatismou - 55 Street 2,Sy-55St,34.6976728417938,32.991538009039,4778
4779,10420,Synergatismou - 55 Street 1,Sy-55St,34.6978081146837,32.9916035075637,4779
4784,10425,22 Street - 14 Street 2,22St-14St,34.6914143849348,32.9910145879522,4784
4785,10426,22 Street - 14 Street 1,22St-14St,34.6913061693292,32.9910036817844,4785
4786,10427,Agios Nikolaos Church 2,AgiNikChu,34.6932540960576,32.9918660023153,4786
4787,10428,Agios Nikolaos Church 1,AgiNikChu,34.6932721398084,32.9919860998705,4787
4794,10435,7 Street 2,7Stree,34.6914236604408,32.9957638635876,4794
4795,10436,7 Street 1,7Stree,34.6914236569859,32.9956656026917,4795
4796,10437,10 Street - Dimocharous,10St-Di,34.6902513688772,32.9969539551629,4796
4797,10438,10 Street - Andrea Lontou,10St-AnLo,34.6900980800052,32.9976526937895,4797
4798,10439,Polemidia Lyceum 2,PolemLyceu,34.6833436513803,32.9969214577125,4798
4799,10440,Polemidia Lyceum 1,PolemLyceu,34.6835871324784,32.9968231970632,4799
4800,10441,Melinas Merkouri - Polemidia Post Office 2,MeMe-PoPOf,34.6808997904342,32.9966813852526,4800
4801,10442,Melinas Merkouri - Polemidia Post Office 1,MeMe-PoPOf,34.6809719307378,32.9965722173211,4801
4802,10443,35 Street - 49 Street 2,35St-49St,34.6805391129504,32.9987882742112,4802
4803,10444,35 Street - 49 Street 1,35St-49St,34.6807014414308,32.9999126682412,4803
4804,10445,35 Street - Panagioti Anagnostopoulou 2,35St-PaAn,34.6811974206864,33.0012226519135,4804
4805,10446,35 Street - Panagioti Anagnostopoulou 1,35St-PaAn,34.6810441173697,33.0010916514822,4805
4806,10447,Adamantiou Adamantiou - Dimitriou Kissonergi,AdAd-DiKi,34.6807284529581,33.0032094431778,4806
4807,10448,Adamantiou Adamantiou - Panagioti Anagnostopoulou,AdAd-PaAn,34.6806382743715,33.0031876067753,4807
4808,10449,Adamantiou Adamantiou - Evgeniou Voulgareos 2,AdAd-EvVo,34.6813055055211,33.0057639379354,4808
4809,10450,Adamantiou Adamantiou - Evgeniou Voulgareos 1,AdAd-EvVo,34.6812423764785,33.0058403493467,4809
4810,10451,Evgeniou Voulgareos - Defkalionos,EvVo-De,34.6824056946405,33.0056875973197,4810
4811,10452,Evgeniou Voulgareos - 85 Street,EvVo-85St,34.68254997972,33.0057203573232,4811
4812,10453,Evgeniou Voulgareos - Athinokleous 2,EvVo-At,34.685002893755,33.0047379929331,4812
4813,10454,Evgeniou Voulgareos - Athinokleous 1,EvVo-At,34.684876637421,33.0048799069723,4813
4814,10455,Marinou Geroulanou - Mpizaniou,MaGe-Mp,34.685589017734,33.0056768978987,4814
4815,10456,Marinou Geroulanou - Iolis,MaGe-Io,34.6854627670116,33.005676889281,4815
4816,10457,Agios Ioannis High School 2,AgIoHiSc,34.6827030047012,33.010043393918,4816
4817,10458,Agios Ioannis High School 1,AgIoHiSc,34.6826759634598,33.0098905564477,4817
4818,10459,Marinou Geroulanou - Agaristis 1,MaGe-Ag,34.6809351892147,33.0132307985972,4818
4819,10460,Marinou Geroulanou - Agaristis 2,MaGe-Ag,34.6809532059616,33.0134054655075,4819
4820,10461,Georgiou Averof - Georgiou Fragkoudi,GeAv-GeFr,34.6801324337124,33.0146388858776,4820
4821,10462,Georgiou Averof - Gorgiou,GeAv-Go,34.6799159879109,33.0147698441872,4821
4822,10463,Parmenidou 2,Parmenidou,34.679879593888,33.0172260191408,4822
4823,10464,Parmenidou 1,Parmenidou,34.6797172867622,33.017116822125,4823
4824,10465,Rinou - Vasileos Evagorou,Ri-VaEv,34.6811691910703,33.0169752059852,4824
4825,10466,Rinou - Agrippa,Rin-Agr,34.6810068472216,33.0171280039917,4825
4826,10467,Charilaou Trikoupi 1,ChariTriko,34.6831169050568,33.0180563653661,4826
4827,10468,Charilaou Trikoupi 2,ChariTriko,34.683116879057,33.0182310339471,4827
4828,10469,Apostolou Varnava - Romis,ApVa-Ro,34.6823589017188,33.0211565399656,4828
4829,10470,Apostolou Varnava - Londinou,ApVa-Lo,34.6823228696422,33.0209272804706,4829
4830,10471,Apostolou Varnava - Agias Varvaras 2,ApVa-AgVa,34.6813303510548,33.0239072494818,4830
4831,10472,Apostolou Varnava - Agias Varvaras 1,ApVa-AgVa,34.6812311582779,33.0238853878944,4831
4832,10473,Apostolou Varnava - Romanou Melodou,ApVa-RoMe,34.6807169628824,33.0247585579683,4832
4833,10474,Apostolou Varnava - Aigaiou,ApVa-Ai,34.6806989535893,33.024627554978,4833
4834,10475,Debenhams Apollon 1,DebenApoll,34.6858735027688,33.0320745822666,4834
4835,10476,Debenhams Apollon 2,DebenApoll,34.6859546466751,33.0321401165136,4835
4836,10477,Petrou Tsirou - Kallikrati,PeTs-Ka,34.6887142597414,33.0316280595684,4836
4837,10478,Petrou Tsirou - Polydefki,PeTs-Po,34.6885609468903,33.0316607537606,4837
4838,10479,Petrou Tsirou - Gkropious,PeTs-Gk,34.6905448254297,33.0318907821075,4838
4839,10480,Petrou Tsirou - Alkamenous,PeTs-Al,34.6905177459796,33.0319890315422,4839
4840,10481,Gkropious - Kallikrati,Gkr-Kal,34.6911314009924,33.0302751669921,4840
4841,10482,Gkropious - Petrou Tsirou,Gk-PeTs,34.6912576244105,33.0303843915006,4841
4842,10483,Gkropious - Theofilou,Gkr-The,34.689347032252,33.025099572916,4842
4843,10484,Gkropious - Leister Stanchop,Gk-LeSt,34.6893651016713,33.0249358142695,4843
4844,10485,Vasileos Konstantinou - Achaias,VaKo-Ac,34.6895907053487,33.0241607297417,4844
4845,10486,Vasileos Konstantinou - Gkropious,VaKo-Gk,34.6896988919534,33.0243026906326,4845
4846,10487,Panagia Tricheroussa Church 1,PanTriChu,34.6967678124266,33.0293491403256,4846
4847,10488,Panagia Tricheroussa Church 2,PanTriChu,34.6969842233747,33.0294256469773,4847
4848,10489,Vasileos Georgiou B´ - Sina,VaGeB-Si,34.6978321587039,33.0283559127123,4848
4849,10490,Vasileos Georgiou B´ - Elikonos,VaGeB-El,34.6970389592339,33.026696012775,4849
4850,10491,Vasileos Georgiou B´ - Vasili Logothetidi,VaGeB-VaLo,34.69589398059,33.0253199186364,4850
4851,10492,Vasileos Georgiou B´ - Lavyrinthou,VaGeB-La,34.6957228364625,33.0243590436558,4851
4852,10493,Ivykou - Tempon,Ivy-Tem,34.6950377417104,33.022994048973,4852
4853,10494,Ivykou - Vasileos Georgiou B´,Iv-VaGeB,34.6952902282917,33.0230705474989,4853
4854,10495,Vasileos Konstantinou - Solomou Solomou 1,VaKo-SoSo,34.6968055771746,33.0211820530209,4854
4855,10496,Vasileos Konstantinou - Solomou Solomou 2,VaKo-SoSo,34.6969408188801,33.021334947903,4855
4856,10497,Vasileos Konstantinou - Steliou Kyriakidi 2,VaKo-StKy,34.698933831306,33.0209969746482,4856
4857,10498,Vasileos Konstantinou - Steliou Kyriakidi1,VaKo-StKy,34.698978896208,33.0211389313324,4857
4858,10499,Renou Fragkoudi - Konstantinou Symeonidi 1,ReFr-KoSy,34.6981944259683,33.0206364685961,4858
4859,10500,Renou Fragkoudi - Konstantinou Symeonidi 2,ReFr-KoSy,34.6981313118181,33.0205709403801,4859
4860,10501,Titanon - Chatsatourian 1,Tit-Cha,34.6960661925835,33.020701451213,4860
4861,10502,Titanon - Chatsatourian 2,Tit-Cha,34.6959579908303,33.0206249949618,4861
4862,10503,Christofi Ergatoudi - Georgiou Anastasiou,ChEr-GeAn,34.6947499938119,33.0181025647604,4862
4863,10504,Christofi Ergatoudi - Kosta Loizou,ChEr-KoLo,34.6948131255535,33.0180589052176,4863
4864,10505,Agios Georgios Chavouzas Church 1,AgGeChCh,34.6935960503076,33.0155911361463,4864
4865,10506,Agios Georgios Chavouzas Church 2,AgGeChCh,34.6936681976649,33.0155583951598,4865
4866,10507,Giannou Kranidioti - Amaryllidos,GiKr-Am,34.6961485015986,33.0121959620334,4866
4867,10508,Giannou Kranidioti - Anoixeos,GiKr-An,34.6974110978269,33.0112462235336,4867
4868,10509,Kamelias - Edelweiss,Kam-Ede,34.7010722075047,33.0127972373821,4868
4869,10510,Kamelias - Yakinthou,Kam-Yak,34.7009730027127,33.0128736560283,4869
4870,10511,Kamelias - Aimiliou Zola,Ka-AiZo,34.7020728375402,33.0158220308663,4870
4871,10512,Kamelias - Kypridos,Kam-Kyp,34.7019556485275,33.0154835114837,4871
4872,10513,Kamelias - Marias Iordanidou 1,Ka-MaIo,34.7021266027254,33.018267960471,4872
4873,10514,Kamelias - Marias Iordanidou 2,Ka-MaIo,34.7020543984206,33.0186719577165,4873
4874,10515,Gkogia - Mane 1,Gko-Man,34.7035511965067,33.0197533215147,4874
4875,10516,Gkogia - Mane 2,Gko-Man,34.7035602019739,33.0198297599534,4875
4876,10517,Domnitsas Lanitou Kavounidou - Evagora Laniti 1,DoLaKa-EvL,34.7052823682833,33.0213043300211,4876
4877,10518,Domnitsas Lanitou Kavounidou - Evagora Laniti 2,DoLaKa-EvL,34.7059586900202,33.0214137012625,4877
4878,10519,Axiou - Gianni Papadopoulou 1,Ax-GiPa,34.70766329734,33.0200709792466,4878
4879,10520,Axiou - Gianni Papadopoulou 2,Ax-GiPa,34.707744492217,33.019863518459,4879
4880,10521,Axiou - Mimozas 1,Axi-Mim,34.707510243979,33.0184875436978,4880
4881,10522,Axiou - Mimozas 2,Axi-Mim,34.7074742184826,33.0181817760888,4881
4882,10523,Lykavittou - Xenofanous,Lyk-Xen,34.7075379257231,33.0137373525005,4882
4883,10524,Lykavittou - Methanon,Lyk-Met,34.7075018822758,33.0134861867898,4883
4884,10525,Lykavittou - Kreontos 1,Lyk-Kre,34.70670845365,33.012110152519,4884
4885,10526,Lykavittou - Kreontos 2,Lyk-Kre,34.7066363416928,33.0117934656204,4885
4886,10527,Kilikias - Diodorou,Kil-Dio,34.7067176081651,33.0106468891018,4886
4887,10528,Kilikias - Lykavittou,Kil-Lyk,34.7066995599244,33.0107888452794,4887
4888,10529,Agia Fyla High School 1,AgFyHiSc,34.707349021622,33.0085940157899,4888
4889,10530,Agia Fyla High School 2,AgFyHiSc,34.7074482379544,33.0083101065123,4889
4890,10531,Department of Road Transport 1,DeofRoTr,34.7092429394214,33.0058204762649,4890
4891,10532,Department of Road Transport 2,DeofRoTr,34.7093511475732,33.0059515266327,4891
4892,10533,Ileias - Chytron,Ile-Chy,34.7179983696637,33.0160544124001,4892
4893,10534,Melathron EOKA 1,MelatEOKA,34.7416259910787,33.0067185535582,4893
4894,10535,Melathron EOKA 2,MelatEOKA,34.7412021283761,33.0071554961063,4894
4895,10536,Palodeia Elementary School,PalEleSch,34.7467933046674,33.0045120900888,4895
4896,10537,Palodeia Community Board 2,PalComBoa,34.7455127280096,33.0056263693333,4896
4897,10538,1 Apriliou - Aimiliou Zola 2,1Ap-AiZo,34.7208929471456,33.017190833824,4897
4898,10539,1 Apriliou - Aimiliou Zola 1,1Ap-AiZo,34.7204961537537,33.0172453601849,4898
4899,10540,1 Apriliou - Ileias,1Ap-Il,34.7186563131967,33.0185883172073,4899
4900,10541,Ileias - Kalopsidas,Ile-Kal,34.7176197891241,33.0147110169806,4900
4901,10542,Ileias - Aristagorou,Ile-Ari,34.7171779594776,33.0143286945985,4901
4902,10543,Ileias - Kanakarias,Ile-Kan,34.7160598525736,33.0133783648172,4902
4903,10544,Kanakarias - Koutsoventi 2,Kan-Kou,34.7158433029263,33.0144376752455,4903
4904,10545,Kanakarias - Koutsoventi 1,Kan-Kou,34.7157530876709,33.0147434496307,4904
4905,10546,19 Elementary School - Agia Fylaxi 1,1ElSc-AFy,34.7158429302663,33.0172989995831,4905
4906,10547,19 Elementary School - Agia Fylaxi 2,1ElSc-AFy,34.715698646,33.0172880484713,4906
4907,10548,Kanakarias - Feretimis,Kan-Fer,34.7166181104558,33.0196472162909,4907
4908,10549,1 Apriliou - Kanakarias 2,1Ap-Ka,34.7173753660433,33.0211108478352,4908
4909,10550,1 Apriliou - Kanakarias 2,1Ap-Ka,34.7173212702138,33.021045306409,4909
4910,10551,E.N.A.F. Theatre 2,E.N.ATheat,34.7139662613464,33.0230538908087,4910
4911,10552,E.N.A.F. Theatre 1,E.N.ATheat,34.7135965556134,33.0229118179483,4911
4912,10553,1 Apriliou - Kallinikou,1Ap-Ka,34.7128660484234,33.0232283166197,4912
4913,10554,Agias Fylaxeos - Meleagrou 2,AgFy-Me,34.7109901835705,33.0239922235087,4913
4914,10555,Agias Fylaxeos - Meleagrou 1,AgFy-Me,34.7101334404671,33.0242213031562,4914
4915,10556,Agias Fylaxeos - Evagora Laniti,AgFy-EvLa,34.7073287341629,33.0249521233695,4915
4916,10557,Agias Fylaxeos - Mesogeiou,AgFy-Me,34.7068957858924,33.0253887897436,4916
4917,10558,Agias Fylaxeos - Zinonos Rossidi,AgFy-ZiRo,34.7028642096905,33.0280518867633,4917
4918,10559,Agias Fylaxeos - Steliou Kyriakidi,AgFy-StKy,34.7027921192044,33.027822555661,4918
4919,10560,Akanthous - Patroklou Kokkinou,Ak-PaKo,34.702484979571,33.0300609154264,4919
4920,10561,Akanthous - Aiakou,Aka-Aia,34.7024849444712,33.0302028666987,4920
4921,10562,Rizokarpasou 2,Rizokarpas,34.7039546199545,33.0311533992528,4921
4922,10563,Rizokarpasou 1,Rizokarpas,34.7038463830279,33.0312407147485,4922
4923,10564,Agia Marina Church 1,AgiMarChu,34.7029803351524,33.0325070389913,4923
4924,10565,Agia Marina Church 2,AgiMarChu,34.7024030999458,33.0328453121097,4924
4925,10566,Ierou Lochou - Sofias Vempo 2,IeLo-SoVe,34.7002747668203,33.0332593945698,4925
4926,10567,Ierou Lochou - Sofias Vempo 1,IeLo-SoVe,34.7001846562481,33.0330082208857,4926
4927,10568,Agias Fylaxeos - Spyrou Kyprianou Ave.,AFy-SpKy,34.6984353473746,33.0324069923897,4927
4928,10569,Agias Fylaxeos - Spyridonos Trikoupi,AgFy-SpTr,34.6980836381028,33.0324505302835,4928
4929,10570,Agias Fylaxeos - Kissamou,AgFy-Ki,34.6955130830329,33.0341200441886,4929
4930,10571,Agias Fylaxeos - Chlois,AgFy-Ch,34.6952335497364,33.0340435008274,4930
4931,10572,Agias Fylaxeos - Aigyptou,AgFy-Ai,34.6935650421537,33.0347415797288,4931
4932,10573,Agias Fylaxeos - Faidonos,AgFy-Fa,34.693492923859,33.0346542044069,4932
4933,10574,Dodeka Apostolon Church,DodApoChu,34.689145712354,33.0366503093537,4933
4934,10575,Apostolon Petrou kai Pavlou Lyceum,ApPekaPaLy,34.6893171179456,33.0364320328997,4934
4935,10576,Laniteio Lyceum 1,LanitLyceu,34.6877117004736,33.0371955468095,4935
4936,10577,Laniteio Lyceum 1,LanitLyceu,34.6877929048353,33.037053656932,4936
4937,10578,Nikou & Despoinas Pattichi - Sp. Kyprianou Ave. 2,N&DePa-SKy,34.6904936695478,33.0172500531958,4937
4938,10579,Nikou & Despoinas Pattichi - Sp. Kyprianou Ave. 1,N&DePa-SKy,34.6917652918361,33.0165406520715,4938
4940,10581,A´ Kato Polemidia Elementary School,AKaPoElSc,34.6957072275498,33.0013538865434,4940
4942,10583,Patriarchou Fotiou - Yperionos,PaFo-Yp,34.695238302639,32.9993121421682,4942
4945,10586,Nikaias Avenue - 22 Street 2,NiAv-22St,34.6921085896216,32.988907345257,4945
4946,10587,Nikaias Avenue - 22 Street 1,NiAv-22St,34.6921085695519,32.9886889859154,4946
4947,10588,Pera Kampou 1,PeraKampo,34.6952013936854,32.9856969308525,4947
4948,10589,Pera Kampou 2,PeraKampo,34.6951923538661,32.9855113200816,4948
4949,10590,Steliou Kazantzidi - Konstantinou Avgeraki 1,StKa-KoAv,34.6960485114834,32.9815040870511,4949
4950,10591,Steliou Kazantzidi - Konstantinou Avgeraki 2,StKa-KoAv,34.6961116664009,32.9817006058704,4950
4951,10592,Steliou Kazantzidi - Mimi Fotopoulou,StKa-MiFo,34.6965982556326,32.9793420905224,4951
4952,10593,Patriarchou Ierosolymon - 25 Martiou 1,PaIe-25Ma,34.700346936684,32.9668388479906,4952
4953,10594,Patriarchou Ierosolymon - 25 Martiou 2,PaIe-25Ma,34.7001757178597,32.9672865963698,4953
4954,10595,25 Martiou - Iasonos,25Ma-Ia,34.7005900652448,32.9655612185706,4954
4955,10596,25 Martiou - Patriarchou Ierosolymon,25Ma-PaIe,34.7007073069992,32.9655939272823,4955
4956,10597,25 Martiou - Georgiou Sachtouri 1,25Ma-GeSa,34.6994079435283,32.9629084095172,4956
4957,10598,25 Martiou - Georgiou Sachtouri 2,25Ma-GeSa,34.6995161648078,32.9629301991055,4957
4958,10599,25 Martiou - 1 Apriliou 1,25Ma-1Ap,34.6998578292913,32.9597307843809,4958
4959,10600,25 Martiou - 1 Apriliou 2,25Ma-1Ap,34.6999750292863,32.9596324566076,4959
4960,10601,Asklipiou - Sokratous,Ask-Sok,34.7000100575146,32.9565969564867,4960
4961,10602,Asklipiou - Galinou,Ask-Gal,34.6987115208153,32.9567068228392,4961
4962,10603,Kolokotroni - Georgiou Karaiskaki 1,Ko-GeKa,34.6959494002764,32.9498077880024,4962
4963,10604,Kolokotroni - Georgiou Karaiskaki 2,Ko-GeKa,34.6960215208988,32.9497531520617,4963
4964,10605,Kolokotroni - Pindou,Kol-Pin,34.6958481843696,32.9451238311655,4964
4965,10606,Kolokotroni - Ermou,Kol-Erm,34.6957760117386,32.9450583681225,4965
4966,10607,C´ Ypsonas Elementary School 1,CYpElSc,34.696857041486,32.9426337269245,4966
4967,10608,C´ Ypsonas Elementary School 2,CYpElSc,34.6969831631125,32.9423606747554,4967
4969,10610,Dionysiou Solomou - Konstantinou Kavafi,DiSo-KoKa,34.7013654279094,32.9414622631435,4969
4970,10611,Ypsonas Elementary School 2,YpsElemSch,34.6971086862703,32.9408428992775,4970
4972,10613,Tasou Isaak - Lofou 2,TaIs-Lo,34.6944133165535,32.9428974515717,4972
4974,10615,Parthenonos - Mpelapais 2,Par-Mpe,34.6920365660146,32.9521247568781,4974
4976,10617,Archiep. Makariou C´ - Akropoleos 1,ArMaC-Ak,34.6905769770166,32.9555865287436,4976
4979,10620,Akrotiri Community Board,AkrComBoa,34.6010741941879,32.957084732052,4979
4980,10621,Fasouri 2,Fasouri,34.6372501718102,32.9463189964896,4980
4981,10622,Fasouri 1,Fasouri,34.6369256205016,32.9465374201823,4981
4982,10623,Genniseos Avenue - Ermou,GeAv-Er,34.6379036805836,32.9569457509576,4982
4983,10624,Genniseos Avenue - Michalaki Neokleous,GeAv-MiNe,34.6377864314697,32.9569021681759,4983
4984,10625,Asomatos Community Board 2,AsoComBoa,34.6384456192483,32.9594549846082,4984
4985,10626,Asomatos Community Board 1,AsoComBoa,34.6383464432541,32.9595204983696,4985
4986,10627,Griva Digeni - Ethnikis Antistaseos,GrDi-EtAn,34.6552391214127,32.9661802095772,4986
4987,10628,Griva Digeni - Athanasiou Diakou,GrDi-AtDi,34.6552029675233,32.9658855698878,4987
4988,10629,Agios Mamas Church 1,AgiMamChu,34.6573748276193,32.9609954724969,4988
4989,10630,Agios Mamas Church 2,AgiMamChu,34.657501096339,32.9610499804706,4989
4990,10631,Agiou Mamantos - Agiou Rafail 1,AgMa-AgRa,34.6570762157702,32.9579289553592,4990
4991,10632,Agiou Mamantos - Agiou Rafail 2,AgMa-AgRa,34.6571392431758,32.9576451756715,4991
4992,10633,Archiep. Makariou C´ - Agiou Panteleimonos 1,ArMaC-APa,34.6588702231377,32.9563237487928,4992
4993,10634,Archiep. Makariou C´ - Agiou Panteleimonos 2,ArMaC-APa,34.6588973316099,32.9564765250939,4993
4994,10635,Archiep. Makariou C´ - Ammochostou,ArMaC-Am,34.6604033244489,32.9564648239228,4994
4995,10636,Ammochostou - Apostolou Varnava,Am-ApVa,34.6607020164389,32.95966242444,4995
4996,10637,Ammochostou - Timiou Stavrou,Am-TiSt,34.6608376347452,32.9607319173335,4996
4997,10638,A´ Trachoni Elementary School,ATrElSc,34.6592688897235,32.9619222460089,4997
4998,10639,Lefkonoikou 2,Lefkonoiko,34.6591340553567,32.9633410808987,4998
4999,10640,Lefkonoikou 1,Lefkonoiko,34.6591971776969,32.9633301394544,4999
5000,10641,Dimokratias - Lefkonoikou 1,Dim-Lef,34.659810951216,32.9652179442021,5000
5001,10642,Dimokratias - Lefkonoikou 2,Dim-Lef,34.6598470571844,32.9653379801874,5001
5002,10643,Pentadaktylou 1,Pentadakty,34.6586033656268,32.9682196806861,5002
5003,10644,Pentadaktylou 2,Pentadakty,34.65852217846,32.9681214896371,5003
5004,10645,B´ Trachoni Elementary School,BTrElSc,34.6574583740088,32.9693442000963,5004
5005,10646,Konstantinou kai Evripidou Ave. - Griva Digeni 2,KokEv-GDi,34.6546897858073,32.9690396538454,5005
5006,10647,Konstantinou kai Evripidou Ave. - Griva Digeni 1,KokEv-GDi,34.6543471560476,32.9692471284919,5006
5007,10648,Epimitheos 2,Epimitheos,34.6658667540483,32.9930583629114,5007
5008,10649,Epimitheos 1,Epimitheos,34.6658306945301,32.9932766562984,5008
5009,10650,Acharnon - Limassol Industrial Area 2,Ac-LiInAr,34.6690050481238,32.9940513602555,5009
5010,10651,Acharnon - Limassol Industrial Area 1,Ac-LiInAr,34.6689689821901,32.9941714270698,5010
5011,10652,Dilou - Limassol Industrial Area 1,Di-LiInAr,34.670529181261,32.9967800351079,5011
5012,10653,Dilou - Limassol Industrial Area 2,Di-LiInAr,34.6705472144888,32.9966817981718,5012
5013,10654,Agoras 1,Agoras,34.6714216048375,32.9901981034601,5013
5014,10655,Agoras 2,Agoras,34.6714577066738,32.9905801332015,5014
5015,10656,Andrea Araouzou - Georgiou Varnakioti,AnAr-GeVa,34.6752093903789,32.9942037371787,5015
5016,10657,Andrea Araouzou - Androgeo,AnAr-An,34.6749839484319,32.9943347415196,5016
5017,10658,Andrea Araouzou - Vasilissis Olgas 1,AnAr-VaOl,34.6772835578775,32.9952515307178,5017
5018,10659,Andrea Araouzou - Vasilissis Olgas 2,AnAr-VaOl,34.6769048056097,32.9952624683075,5018
5019,10660,23 Elementary School - Agios Spyridonas 2,2ElSc-ASp,34.6675352619475,32.9986029129538,5019
5020,10661,23 Elementary School - Agios Spyridonas 1,2ElSc-ASp,34.667923030024,32.9983518661959,5020
5021,10662,Pigasou - Parou,Pig-Par,34.6667146350959,32.9991923170155,5021
5022,10663,Pigasou - Aidonion 2,Pig-Aid,34.6671925600187,33.0026304421223,5022
5023,10664,Pigasou - Aidonion 1,Pig-Aid,34.66711139999,33.0025649514354,5023
5024,10665,Miltonos - Parnassou,Mil-Par,34.6680492198297,33.0042022018314,5024
5025,10666,Miltonos - Erikou Ipsen,Mi-ErIp,34.668914932584,33.0044532887858,5025
5026,10667,Miltonos - Tefkrou Anthia 2,Mi-TeAn,34.6703577805953,33.004999121636,5026
5027,10668,Miltonos - Tefkrou Anthia 1,Mi-TeAn,34.6706553603509,33.0052829334591,5027
5028,10669,Mytilinis - Chiou 2,Myt-Chi,34.6705110464897,33.0058723414701,5028
5029,10670,Mytilinis - Chiou 1,Myt-Chi,34.6705651572125,33.0058068544491,5029
5030,10671,Mytilinis - Antipaxou 2,Myt-Ant,34.6659299877357,33.0046714197054,5030
5031,10672,Mytilinis - Antipaxou 1,Myt-Ant,34.6659299910501,33.0045841034494,5031
5032,10673,Sarantaporou - Zyrichis,Sar-Zyr,34.6656862833522,33.0086879420416,5032
5033,10674,Sarantaporou - Tsechof,Sar-Tse,34.6655690446877,33.0087643311961,5033
5034,10675,Sarantaporou - Markou Charalampous 2,Sa-MaCh,34.6665517291078,33.0119515018197,5034
5035,10676,Sarantaporou - Markou Charalampous 1,Sa-MaCh,34.6666058041893,33.012278948202,5035
5036,10677,Asias - Ilioupoleos 2,Asi-Ili,34.6654151944615,33.0144834943597,5036
5037,10678,Asias - Ilioupoleos 1,Asi-Ili,34.6652348330977,33.0145052918553,5037
5040,10681,Kritis - Vasileiou Tou Megalou 1,Kr-VaToMe,34.6902183322163,33.038310275289,5040
5041,10682,Kritis - Vasileiou Tou Megalou 2,Kr-VaToMe,34.6900830568523,33.038332048366,5041
5042,10683,12 Elementary School - Laniteio,12ElSc-La,34.6909573313067,33.0397736030073,5042
5043,10684,Agiou Nektariou - Platonos,AgNe-Pl,34.6923096803426,33.0407896232251,5043
5044,10685,Agios Nektarios Church,AgiNekChu,34.6918767553682,33.0409859336905,5044
5045,10686,Kosti Palama - Michail Georgalla 1,KoPa-MiGe,34.6937164134308,33.0409650041971,5045
5046,10687,Kosti Palama - Michail Georgalla 2,KoPa-MiGe,34.6937344235062,33.0410414403294,5046
5047,10688,Kosti Palama - Str. Alexandrou Papagou 2,KPa-SAlPa,34.6951232633795,33.0407910035964,5047
5048,10689,Kosti Palama - Str. Alexandrou Papagou 1,KPa-SAlPa,34.69551108016,33.0406492545075,5048
5049,10690,Kosti Palama - Filopappou 1,KoPa-Fi,34.6989833904474,33.0393625258571,5049
5050,10691,Kosti Palama - Filopappou 2,KoPa-Fi,34.6995966348956,33.0392754646528,5050
5051,10692,Kosti Palama - Eresou 1,KoPa-Er,34.7019956290991,33.0385340882114,5051
5052,10693,Kosti Palama - Eresou 2,KoPa-Er,34.702031666051,33.0386432976159,5052
5057,10698,Kalogeropoulos High School 1,KalHigSch,34.7030140159618,33.0404891327379,5057
5058,10699,Kalogeropoulos High School 2,KalHigSch,34.7029419344527,33.0403034680062,5058
5059,10700,Markou Drakou - Feidonos 2,MaDr-Fe,34.7025802896409,33.0430222087096,5059
5060,10701,Markou Drakou - Feidonos 1,MaDr-Fe,34.7026885619271,33.0428584744171,5060
5061,10702,Markou Drakou - Avraam Linkoln,MaDr-AvLi,34.7018043653975,33.0441028118013,5061
5062,10703,Markou Drakou - Vasileiou Alexandrou,MaDr-VaAl,34.7013353602577,33.0443100273261,5062
5063,10704,Markou Drakou - Dimitriou Charalampous 2,MaDr-DiCh,34.7001989833944,33.0446479114348,5063
5064,10705,Markou Drakou - Dimitriou Charalampous 1,MaDr-DiCh,34.6998922830525,33.0448988834284,5064
5065,10706,Archiep. Makariou C´ Ave. - Grigori Afxentiou,ArMaC-GrAf,34.6957078579473,33.0452350950428,5065
5066,10707,Archiep. Makariou C´ Ave. - Sfakion,ArMaC-Sf,34.6956988684009,33.0451586610886,5066
5067,10708,Archiep. Makariou C´ Ave. - Sfaktirias,ArMaC-Sf,34.6939133136011,33.0451904458436,5067
5068,10709,Agias Zonis - Anakreontos,AgZo-An,34.6916138431624,33.0449380843418,5068
5069,10710,Agias Zonis - Glafkou Alithersi,AgZo-GlAl,34.6892602879173,33.0446202022534,5069
5070,10711,Agias Zonis - Tyrtaiou,AgZo-Ty,34.6898014018444,33.044511315979,5070
5071,10712,Archiep. Makariou C´ Ave. - Michail Karaoli,ArMaC-MiKa,34.6927050085986,33.0449386740836,5071
5072,10713,Archiep. Makariou C´ Ave. - Dimitriou Charalampous,ArMaC-DiCh,34.6998288697662,33.0456740967569,5072
5073,10714,Archiep. Makariou C´ Ave. - Grigori Afxentiou,ArMaC-GrAf,34.6996484669944,33.0457941061496,5073
5074,10715,14 Elementary School - Mesa Geitonia,1ElSc-MGe,34.701911384342,33.0472912906282,5074
5075,10716,Apostolos Andreas Church,ApoAndChu,34.7022720529154,33.047411608151,5075
5076,10717,Renatou Kartesiou - Mersinakiou 1,ReKa-Me,34.7072224724339,33.0484190678841,5076
5077,10718,Renatou Kartesiou - Mersinakiou 2,ReKa-Me,34.7071953710241,33.0485391715176,5077
5078,10719,Charalampou Fteroudi - Agiou Mina,ChFt-AgMi,34.7086008749551,33.0516631503391,5078
5079,10720,Anoikodomiseos - Aretis 1,Ano-Are,34.7092839641148,33.0567633186222,5079
5080,10721,Anoikodomiseos - Machiton Eldyk,An-MaEl,34.7088879002557,33.0551905436369,5080
5083,10724,Anoikodomiseos - Aretis 2,Ano-Are,34.7093918355048,33.0574950481095,5083
5084,10725,Anoikodomiseos - Agiou Athanasiou,An-AgAt,34.7104822400675,33.0590792575736,5084
5085,10726,Anoikodomiseos - Monemvasias,Ano-Mon,34.7104280480221,33.0592539449908,5085
5086,10727,Charalampou Evagorou - Salaminos,ChEv-Sa,34.7112299720839,33.0606086560464,5086
5087,10728,Charalampou Evagorou - Agiou Athanasiou,ChEv-AgAt,34.7111488058603,33.0606195173059,5087
5088,10729,Charalampou Evagorou - Kosta Monti,ChEv-KoMo,34.7130315894139,33.0644212994148,5088
5089,10730,Charalampou Evagorou - Inomenon Ethnon,ChEv-InEt,34.7127701924395,33.0641917624653,5089
5090,10731,Agios Athanasios Cemetery 1,AgiAthCem,34.7145907132947,33.0662244599531,5090
5091,10732,Kokkinogias - Adamantiou Diamanti 1,Ko-AdDi,34.7142474602711,33.0672725901692,5091
5092,10733,Kokkinogias - Agiou Epiktitou 1,Ko-AgEp,34.7139317808572,33.0673706220355,5092
5093,10734,Kokkinogias - Agiou Epiktitou 1,Ko-AgEp,34.7122634764516,33.0673692692294,5093
5094,10735,Kokkinogias - Agiou Epiktitou 2,Ko-AgEp,34.7123356434991,33.0673256452586,5094
5095,10736,Agiou Epiktitou - Manou Katraki 2,AgEp-MaKa,34.7098374528631,33.0677604327667,5095
5096,10737,Agiou Epiktitou - Manou Katraki 1,AgEp-MaKa,34.709666052622,33.0678694957029,5096
5097,10738,Michail Zavou - Dimitri Lagiou 1,MiZa-DiLa,34.7094375014622,33.0732311472436,5097
5098,10739,Michail Zavou - Dimitri Lagiou 2,MiZa-DiLa,34.7093473162386,33.073241987991,5098
5099,10740,Agiou Epiktitou - Kokkinogias,AgEp-Ko,34.7116505384566,33.0668664277662,5099
5100,10741,Christoforou Savva - Nyremvergis,ChSa-Ny,34.7124786321695,33.0514908312188,5100
5101,10742,Christoforou Savva - Agiou Sergiou,ChSa-AgSe,34.7124425283797,33.0515672533033,5101
5102,10743,Nyremvergis - Sfalangiotissis 2,Nyr-Sfa,34.713957955171,33.050552556133,5102
5103,10744,Nyremvergis - Sfalangiotissis 1,Nyr-Sfa,34.7140030082063,33.0506399502854,5103
5104,10745,Sfalangiotissis - Armenias,Sfa-Arm,34.7128039699566,33.0498201680944,5104
5105,10746,Sfalangiotissis - Pafsaniou,Sfa-Paf,34.7103423452446,33.0491962314952,5105
5106,10747,Agios Athanasios Municipality 2,AgiAthMun,34.7089986517801,33.0492718772386,5106
5107,10748,Agios Athanasios Municipality 1,AgiAthMun,34.7088994772687,33.0492172175742,5107
5108,10749,Mersinakiou 1,Mersinakio,34.7080610563358,33.048616117609,5108
5109,10750,Mersinakiou 2,Mersinakio,34.7082684586751,33.0486380791276,5109
5110,10751,Grammar School 2,GrammSchoo,34.7088563212755,33.0441720753009,5110
5111,10752,Katinas Paxinou - Georgiou Kalogeropoulou,KaPa-GeKa,34.7091464161811,33.039749546724,5111
5112,10753,Katinas Paxinou - Panikou Charaki,KaPa-PaCh,34.709236544927,33.0399024728679,5112
5113,10754,Georgiou Kalogeropoulou - Kato Zodeias 2,GeKa-KaZo,34.7067565580654,33.0401196798359,5113
5114,10755,Georgiou Kalogeropoulou - Kato Zodeias 1,GeKa-KaZo,34.7065040179502,33.0402396763455,5114
5115,10756,Georgiou Kalogeropoulou - Androkleous 2,GeKa-An,34.7064761167079,33.0427293894405,5115
5116,10757,Georgiou Kalogeropoulou - Androkleous 1,GeKa-An,34.7062867260011,33.0427729713749,5116
5117,10758,Agiou Athanasiou - Gianni Ritsou,AgAt-GiRi,34.7094444778525,33.0605199917269,5117
5118,10759,Agiou Athanasiou - Anoikodomiseos,AgAt-An,34.7099406228661,33.0601927438627,5118
5119,10760,Agios Athanasios Industrial Zone 2,AgAtInZo,34.7047983908233,33.0641965241074,5119
5120,10761,Agios Athanasios Industrial Zone 1,AgAtInZo,34.7046630708902,33.0642946961047,5120
5121,10762,Andrea Kariolou - Ermi,AnKa-Er,34.7029398463296,33.0658111578776,5121
5122,10763,Andrea Kariolou - Agiou Athanasiou Ave. 2,AnKa-AAt,34.7015261653881,33.0617480954643,5122
5123,10764,Andrea Kariolou - Agiou Athanasiou Ave. 1,AnKa-AAt,34.7016433978245,33.0617481825563,5123
5124,10765,Stavrou Stylianidi - Falirou,StSt-Fa,34.699564956976,33.0516684526371,5124
5125,10766,Stavrou Stylianidi - Iridos,StSt-Ir,34.6995378523401,33.0517885441449,5125
5126,10767,Stavrou Stylianidi - Vouliagmenis 1,StSt-Vo,34.701855761466,33.0510474796262,5126
5127,10768,Stavrou Stylianidi - Vouliagmenis 2,StSt-Vo,34.7020451461099,33.0510257573987,5127
5128,10769,Pavlou Liasidi - Avraam Antoniou 1,PaLi-AvAn,34.7031631426158,33.0515505758152,5128
5129,10770,Pavlou Liasidi - Avraam Antoniou 2,PaLi-AvAn,34.7030641070216,33.0511683352247,5129
5130,10771,Elpinikis - Troias 1,Elp-Tro,34.7033428866654,33.052981134106,5130
5131,10772,Elpinikis - Troias 2,Elp-Tro,34.7033516994966,33.0534506757451,5131
5132,10773,Elpinikis - Nikola Sofokleous,El-NiSo,34.7041263540244,33.0554276114204,5132
5133,10774,1 Oktovriou - Sysklipou,1Ok-Sy,34.7034672110157,33.0572398017474,5133
5134,10775,1 Oktovriou - Solomou Solomou,1Ok-SoSo,34.7025380444791,33.0579270799525,5134
5135,10776,27 Elementary School - Timios Prodromos,2ElSc-TiPr,34.7008163666116,33.0563535283743,5135
5136,10777,Georgiou Konstantinou - Solomou Solomou,GeKo-SoSo,34.7008441813606,33.0546829229765,5136
5137,10778,Milias - Ardanon,Mil-Ard,34.702791935513,33.0549244305383,5137
5138,10779,Eptanisou - Grigori Afxentiou,Ep-GrAf,34.6977081610453,33.0495272331094,5138
5139,10780,10 Elementary School - Chalkoutsa 1,10ElSc-Ch,34.6960215028843,33.050290521846,5139
5140,10781,10 Elementary School - Chalkoutsa 2,10ElSc-Ch,34.6955433737069,33.0507269692899,5140
5141,10782,Omirou - Konstantinou Davaki,Om-KoDa,34.6940731829728,33.0513811656866,5141
5142,10783,Omirou - Machatma Gkanti,Om-MaGk,34.6918991548381,33.0530502667495,5142
5143,10784,Omirou - Pamplo Pikasso,Om-PaPi,34.691574510593,33.0530500596202,5143
5144,10785,Nikodimou Mylona - Riga Feraiou 2,NiMy-RiFe,34.6907092628438,33.0519577293993,5144
5145,10786,Nikodimou Mylona - Riga Feraiou 1,NiMy-RiFe,34.6908354808014,33.0520342328574,5145
5146,10787,Riga Feraiou - Dimitriou Glinou 1,RiFe-DiGl,34.6891942139691,33.0520550409935,5146
5147,10788,Riga Feraiou - Dimitriou Glinou 2,RiFe-DiGl,34.6893204365674,33.0521206256056,5147
5148,10789,Riga Feraiou - Vasili Vryonidi 2,RiFe-VaVr,34.6876967379524,33.0532222639656,5148
5149,10790,Riga Feraiou - Vasili Vryonidi 1,RiFe-VaVr,34.6875434479194,33.0531894137628,5149
5154,10795,Germasogeia Roundabout 1,GermaRound,34.7095545412781,33.087220097413,5154
5155,10796,Germasogeia Roundabout 2,GermaRound,34.7091486748794,33.0873070330012,5155
5162,10803,Patron,Patron,34.7214605081321,33.0838140687955,5162
5164,10805,Foinikaria Community Board,FoiComBoa,34.7528041804965,33.0989016742735,5164
5165,10806,Christaki Kranou - Spyrou Kyprianou Ave. 2,ChKr-SpKy,34.7056593137975,33.0865280653047,5165
5166,10807,Christaki Kranou - Spyrou Kyprianou Ave. 1,ChKr-SpKy,34.7053798605822,33.0863858181633,5166
5167,10808,Christaki Kranou - Irakleidon 2,ChKr-Ir,34.7004188349348,33.0880512772641,5167
5168,10809,Christaki Kranou - Irakleidon 1,ChKr-Ir,34.700446054026,33.0878220058852,5168
5169,10810,Christaki Kranou - Vasileos Georgiou A´ 2,ChKr-VaGeA,34.6977762407042,33.0885398199301,5169
5170,10811,Christaki Kranou - Vasileos Georgiou A´ 1,ChKr-VaGeA,34.697334507205,33.0883428137703,5170
5171,10812,Panagioti Tsagkari - Kalliopis 2,PaTs-Ka,34.6943545328333,33.0812318612539,5171
5172,10813,Panagioti Tsagkari - Kalliopis 1,PaTs-Ka,34.695373786317,33.0808834685888,5172
5173,10814,Panagioti Tsagkari - Zagreos 2,PaTs-Za,34.6988271695298,33.0815856347836,5173
5174,10815,Panagioti Tsagkari - Zagreos 1,PaTs-Za,34.6988631093133,33.0817822093651,5174
5175,10816,Panagioti Tsagkari - Dafnis 2,PaTs-Da,34.7006753205055,33.082351784959,5175
5176,10817,Panagioti Tsagkari - Dafnis 1,PaTs-Da,34.7006572256895,33.0824391197198,5176
5177,10818,Methanon - Elefsinion 2,Met-Ele,34.7032266886274,33.0833698192841,5177
5178,10819,Methanon - Elefsinion 1,Met-Ele,34.7033078718908,33.0833371424164,5178
5182,10823,Michail Karaoli - Griva Digeni,MiKa-GrDi,34.7284980008883,33.102706597378,5182
5183,10824,Archiep. Makariou C´ - Ammochostou 2,ArMaC-Am,34.7258572819847,33.1009011358195,5183
5184,10825,Archiep. Makariou C´ - Ammochostou 1,ArMaC-Am,34.7257942475564,33.1007918353469,5184
5185,10826,Agiou Eleftheriou - Ammochostou 2,AgEl-Am,34.7233676413576,33.1017609543959,5185
5186,10827,Agiou Eleftheriou - Ammochostou 1,AgEl-Am,34.7232864534377,33.1017936210914,5186
5187,10828,Agiou Eleftheriou - Archiep. Makariou C´ 2,AEl-ArMaC,34.7225376253086,33.1022077377494,5187
5188,10829,Agiou Eleftheriou - Archiep. Makariou C´ 1,AEl-ArMaC,34.7226639208633,33.1021532832925,5188
5189,10830,Agias Paraskevis - Salaminos,AgPa-Sa,34.7192589449543,33.0975511318895,5189
5190,10831,Agiou Georgiou - Evagora Pallikaridi 2,AgGe-EvPa,34.7197018617178,33.0962410615721,5190
5191,10832,Agiou Georgiou - Evagora Pallikaridi 1,AgGe-EvPa,34.7196476164814,33.0964157440061,5191
5192,10833,Mouttagiaka Elementary School 2,MouEleSch,34.7222064391052,33.0992147250942,5192
5193,10834,Mouttagiaka Elementary School 1,MouEleSch,34.722251153873,33.099673499251,5193
5194,10835,Mouttagiaka Square,MouttSquar,34.7202124396557,33.1005010984064,5194
5195,10836,Grigori Afxentiou - Keryneias,GrAf-Ke,34.7163422655774,33.1023202472491,5195
5197,10838,Petraki Giallourou - Keryneias,PeGi-Ke,34.7168727079103,33.1042211919753,5197
5198,10839,Eleftherias - Rigainis 2,Ele-Rig,34.7149676716731,33.1068398333605,5198
5199,10840,Anthypol. Kleanthi Kleanthous,AntKleKle,34.7138930709075,33.1085093372485,5199
5200,10841,Riga Feraiou - Iakovou Patatsou,RiFe-IaPa,34.7134974262861,33.1072201695897,5200
5201,10842,Dimokratias - Eleftherias,Dim-Ele,34.7136344174711,33.1052436836346,5201
5202,10843,Armenochori,Armenochor,34.7440826076798,33.1292294290511,5202
5203,10844,Agios Tychonas Community Board 2,AgTyCoBo,34.725819033529,33.1396428026819,5203
5204,10845,Agios Tychonas Community Board 1,AgTyCoBo,34.7258013605544,33.1393260238364,5204
5205,10846,Agios Tychonas Elementary School 2,AgTyElSc,34.7251089125897,33.1376319067058,5205
5206,10847,Agios Tychonas Elementary School 1,AgTyElSc,34.7251361880152,33.137435350573,5206
5207,10848,Georgiou Griva Digeni - Poseidonos,GeGrDi-Po,34.7191887209019,33.1335592929629,5207
5208,10849,Georgiou Griva Digeni - Vyzantiou,GeGrDi-Vy,34.7187019970832,33.1333400813326,5208
5209,10850,Georgiou Griva Digeni - Kirkis,GeGrDi-Ki,34.7159017120614,33.129382154326,5209
5210,10851,Georgiou Griva Digeni - Ionias,GeGrDi-Io,34.7160099957147,33.1293167963865,5210
5211,10852,Agia Anna Church 2,AgiAnnChu,34.713964558648,33.1277846964168,5211
5212,10853,Agia Anna Church 1,AgiAnnChu,34.7140638465295,33.1276974823956,5212
5213,10854,Mesolongiou - Georgiou Griva Digeni 2,Me-GeGrDi,34.711097180969,33.1274963546279,5213
5214,10855,Mesolongiou - Georgiou Griva Digeni 1,Me-GeGrDi,34.7111873137378,33.1275401747911,5214
5215,10856,Onisilou 2,Onisilou,34.7097020164433,33.1249825519696,5215
5216,10857,Onisilou 1,Onisilou,34.7097653204963,33.1248079227465,5216
5217,10858,Prophitis Ilias Church 2,ProIliChu,34.7019012613643,33.0953905826669,5217
5218,10859,Prophitis Ilias Church 1,ProIliChu,34.7020184936988,33.0953907172116,5218
5221,10862,Voltairou - Ampelakion 2,Vol-Amp,34.7002627756416,33.09178542139,5221
5222,10863,Voltairou - Ampelakion 1,Vol-Amp,34.7003259583129,33.0917090578674,5222
5223,10864,Daidalidon - Xanthippis 2,Dai-Xan,34.6996776907407,33.0903434730766,5223
5224,10865,Daidalidon - Xanthippis 1,Dai-Xan,34.699758875909,33.090310804412,5224
5228,10869,Petrompei Mavromichali - Chatzigeorgaki Kornesiou,PeMa-ChKo,34.7009001348757,33.0688341389062,5228
5229,10870,Elpidos - Igoumenitsas,Elp-Igo,34.7021277026591,33.0667932500718,5229
5231,10872,Karpasias - Kythreas,Kar-Kyt,34.70050590403,33.0641495324538,5231
5233,10874,Karpasias - Dimitriou Kitrou,Ka-DiKi,34.6986839858238,33.0647268243356,5233
5237,10878,Kefallinias - Lefkados 1,Kef-Lef,34.6890805754686,33.0634965808448,5237
5238,10879,Kefallinias - Lefkados 2,Kef-Lef,34.688927367751,33.0633108655562,5238
5241,10882,Dimokritou - Kykladon,Dim-Kyk,34.6914267123815,33.0605832996572,5241
5242,10883,Dimokritou - Eptanisou,Dim-Ept,34.6914897887624,33.0606816065701,5242
5243,10884,Agios Nikolaos Lyceum 1,AgiNikLyc,34.6937540473529,33.0591219591865,5243
5244,10885,Agios Nikolaos Lyceum 2,AgiNikLyc,34.6941869696309,33.0589912481815,5244
5245,10886,Anti Filita - Meletiou Metaxaki 2,AnFi-MeMe,34.6952063483668,33.0582495221858,5245
5246,10887,Anti Filita - Meletiou Metaxaki 1,AnFi-MeMe,34.6952153087935,33.0583696305696,5246
5247,10888,Meletiou Metaxaki - Archangelou Michail 2,MeMe-ArMi,34.6955945473886,33.0573435650597,5247
5248,10889,Meletiou Metaxaki - Archangelou Michail 1,MeMe-ArMi,34.6956667007757,33.0573217779627,5248
5249,10890,Aisopou - Xenokleous,Ais-Xen,34.6938368930189,33.0555408510232,5249
5250,10891,Aisopou - Stefanou Granitsa,Ai-StGr,34.6938820470812,33.0553989446087,5250
5251,10892,Agios Nikolaos Cemetery 2,AgiNikCem,34.6921139170709,33.0567515943188,5251
5252,10893,Agios Nikolaos Cemetery 1,AgiNikCem,34.6916178462822,33.0569368600484,5252
5253,10894,Melinas Merkouri - Pafou 1,MeMe-Pa,34.6792044042366,32.9960810578524,5253
5254,10895,Melinas Merkouri - Pafou 2,MeMe-Pa,34.6792224462316,32.996277549966,5254
5255,10896,22 Street - Kyparissona,22St-Ky,34.691486641801,32.9927177702952,5255
5256,10897,22 Street - 1 Street,22St-1St,34.6915948520081,32.9926413355194,5256
5257,10898,Agios Ermogenis,AgiosErmog,34.6623103971613,32.8911650429356,5257
5258,10900,Archiep. Leontiou A´ - Old Hospital,ArLeA-OHo,34.6791086542181,33.0370607045984,5258
5259,10901,Enaerios 1,Enaerios,34.6858906569177,33.0586687655374,5259
5260,10903,Old Port,OldPort,34.671198762756,33.0407356112366,5260
5261,10904,Dimitri Liperti - Griva Digeni 2,DiLi-GrDi,34.6829489711092,32.9376106934239,5261
5263,10906,Kalopsidas - Riginou 2,Kalopsidas,34.7189726746886,33.0128873665776,5263
5264,10907,Arsous - Romain Rollan,Arsous,34.719793408316,33.0118171766317,5264
5265,10908,Ptolemaidos - Nikou Gkatsou,Ptolemaido,34.7214255727906,33.0124945616647,5265
5266,10909,Edessis - Naousis,Edessis,34.7213352736716,33.0136194942729,5266
5267,10910,Romain Rollan - Sergiou Prokofief,RomaiRolla,34.7194416509947,33.012428733875,5267
5268,10261,Spyrou Kyprianou Ave. - Kalavryton,SpKyAv-Ka,34.6785731003138,33.0052397714628,5268
5269,11008,Pissouri Police Station 2,PisPolSta,34.6760011056743,32.698952180794,5269
5270,11009,Apostolou Andreou - 2nd Pissouri 1,ApAn-2nPi,34.6716080072399,32.7020570838771,5270
5271,11010,Apostolou Andreou - 3rd Pissouri 2,ApAn-3rPi,34.6697739161451,32.7006447029015,5271
5272,11011,Pissouri Community Stadium 2,PisComSta,34.6667109588667,32.6982545127373,5272
5273,11012,Theodorou Kolokotroni - 5th Pissouri 2,ThKo-5tPi,34.6597831663962,32.6974283597295,5273
5274,11013,Theodorou Kolokotroni - 6th Pissouri,ThKo-6tPi,34.6504012608917,32.6961093087689,5274
5275,11014,Gialousas Ave. - 3rd Avdimou,GiAv-3rAv,34.6905694043771,32.762145810263,5275
5276,11015,Gialousas Ave. - 2nd Avdimou 1,GiAv-2nAv,34.6931412911943,32.7630664888418,5276
5277,11016,Gialousas Ave. - 2nd Avdimou 2,GiAv-2nAv,34.6929161851667,32.7632418189656,5277
5278,11017,Avdimou Health Centre ,AvdHeaCen,34.6953142244578,32.762874684271,5278
5279,11018,Paramali 2,Paramali,34.6764398872969,32.7925978588581,5279
5280,11019,Kantou Community Board,KanComBoa,34.6894228593077,32.907669747071,5280
5281,11025,Troodous - Souni - Zanakia 2,Tr-So-Za,34.7373584946621,32.8828301094716,5281
5282,11026,Troodous - Souni - Zanakia 1,Tr-So-Za,34.7375836242928,32.8825020735664,5282
5283,11031,Agiou Panteleimonos Ave. - 3rd Pano Kyvides 1,APa-3PKy,34.7558372460214,32.8585366149548,5283
5284,11032,Agiou Panteleimonos Ave. - 2nd Pano Kyvides 1,APa-2PKy,34.7586079475665,32.8528172245803,5284
5285,11033,Agelikis Sotiriou - 1st Pano Kyvides 1,AgSo-1PKy,34.7609158197729,32.8450003208322,5285
5286,11034,Pano Kyvides - Agios Amvrosios Road,PKy-AAmR,34.7770141743223,32.8326093819059,5286
5287,11037,Agios Amvrosios Community Board 1,AgAmCoBo,34.7805690218496,32.8274762235454,5287
5288,11038,Agios Efraim Church 1,AgiEfrChu,34.7833825209765,32.8274485060662,5288
5289,11039,Agios Efraim Church 2,AgiEfrChu,34.7834457999143,32.8275576740004,5289
5290,11041,Apost. Petrou And Pavlou Church,ApPeAnPaCh,34.7784291303084,32.7965398145446,5290
5291,11042,Pano Pachna,PanoPachn,34.7763646980416,32.7915831030831,5291
5292,11043,Distrato Malias,DistrMalia,34.811367881021,32.789472285737,5292
5293,11044,Malia Square 1,MaliaSquar,34.8166411284838,32.7831388220528,5293
5294,11053,Omodos High School,OmoHigSch,34.8501294274644,32.8079914025801,5294
5295,11054,Omodos Elementary School 2,OmoEleSch,34.8479535810258,32.8063556834143,5295
5296,11055,Omodos Elementary School 1,OmoEleSch,34.8478991442726,32.8061479797943,5296
5297,11059,The Heritage 1,TheHerit,34.7398849078704,32.985798477432,5297
5298,11060,The Heritage 2,TheHerit,34.7395422506546,32.9859733233093,5298
5299,11061,Agia Zoni Church - Apesia,AgZoCh-Ap,34.7881830111553,32.9778217869514,5299
5300,11062,Panagia Chrisokorfitissa Church 1,PanChrChu,34.7942491757024,32.9658065402518,5300
5301,11063,Korfi 1,Korfi,34.7945641433443,32.963554530698,5301
5302,11064,Korfi 2,Korfi,34.7946092582247,32.9636419625266,5302
5303,11065,Agias Zonis - Apesia 1,AgZo-Ap,34.7836096718763,32.9714180257692,5303
5304,11066,Agias Zonis - Apesia 2,AgZo-Ap,34.7834744182614,32.9714727223776,5304
5305,11068,Agias Eirinis - Apesia 2,AgEi-Ap,34.7871797053661,32.9674380995945,5305
5306,11070,Archiep. Makariou C´ - 2nd Limnatis 2,ArMaC-2Li,34.8109451715569,32.9515312755067,5306
5307,11071,Archiep. Makariou C´ - 3rd Limnatis 2,ArMaC-3Li,34.8115667928106,32.9500439285696,5307
5308,11074,Timios Prodromos Church 2,TimProChu,34.8116386042739,32.9492457245731,5308
5309,11076,Grigori Afxentiou- 5th Limnatis 2,GrAf5tLi,34.8124228933925,32.948643884062,5309
5310,11077,Limantis Central Station,LimCenSta,34.8138835500372,32.9481400135937,5310
5311,11078,Archiep. Makariou C´ - 1st Limnatis 2,ArMaC-1Li,34.8096928238151,32.9544184397811,5311
5312,11079,Archiep. Makariou C´ - 1st Limnatis 1,ArMaC-1Li,34.8096296874724,32.9543856742174,5312
5313,11080,Kapileio 1,Kapileio,34.8321301579337,32.9579713501456,5313
5314,11081,Kapileio 2,Kapileio,34.8321392133555,32.9580807097177,5314
5315,11082,4th Agios Mamas 1,4thAgiMam,34.8477814011304,32.9489610201922,5315
5316,11084,Fountain - 3rd Agios Mamas 2,Fo-3rAgMa,34.8502339653261,32.9483906876949,5316
5317,11086,Agios Mamas Community Board 2,AgMaCoBo,34.8510547526727,32.9488167930455,5317
5318,11089,1st Agios Mamas 2,1stAgiMam,34.8528663999333,32.9467153526685,5318
5319,11090,Distrato Pelendriou 2,DistrPelen,34.8602780564943,32.9137807561998,5319
5320,11091,Distrato Pelendriou 1,DistrPelen,34.8602057367276,32.9135292087299,5320
5321,11092,Panagias Eleousis Ave. - 1st Trimiklini 2,PaEl-1Tr,34.8538658489568,32.9128576066831,5321
5322,11093,Panagias Eleousis Ave. - 1st Trimiklini 1,PaEl-1Tr,34.8538476881258,32.9126825972594,5322
5323,11094,Trimiklini Elementary School 1,TriEleSch,34.8504019481679,32.911307944914,5323
5324,11095,Trimiklini Elementary School 2,TriEleSch,34.8496715899568,32.9114071771834,5324
5325,11096,Panagias Eleousas Church 2,PanEleChu,34.8460826500211,32.9115313442624,5325
5326,11097,Panagias Eleousas Church 1,PanEleChu,34.8459473851233,32.9115314890146,5326
5327,11098,Panagias Eleousis Ave. - 4th Trimiklini 2,PaEl-4Tr,34.8442266452343,32.9138084369825,5327
5328,11099,Panagias Eleousis Ave. - 4th Trimiklini 1,PaEl-4Tr,34.8442986235579,32.9135786634762,5328
5329,11100,Panagias Eleousis Ave. - 5th Trimiklini 2,PaEl-5Tr,34.8393369016692,32.9108057584725,5329
5330,11101,Panagias Eleousis Ave. - 5th Trimiklini 1,PaEl-5Tr,34.8394360639473,32.9107619019963,5330
5331,11102,Lemesos - Troodos Road - Laneia 2,Le-TrR-La,34.8230338483546,32.9120808858004,5331
5332,11106,Distrato Lanias - Doros 2,DiLa-Do,34.8162825678357,32.9163087052419,5332
5333,11107,Distrato Lanias - Doros 1,DiLa-Do,34.8162553716525,32.9161009807602,5333
5334,11124,Distrato Pera Pedi - Kouka 2,DiPePe-Ko,34.8577557160122,32.8843225024286,5334
5335,11125,Distrato Pera Pedi - Kouka 1,DiPePe-Ko,34.8576474939881,32.8843117141404,5335
5336,11126,Panagias Faneromenis Ave. - 2nd Pera Pedi 1,PaFa-2PP,34.859874541482,32.8748891875375,5336
5337,11128,Eleftherias - 1st Pera Pedi 1,El-1sPePe,34.8612879924208,32.8726552330241,5337
5338,11138,Mandria - Koilani Road 2,Ma-KoRo,34.8645005697706,32.8508783090817,5338
5339,11139,Mandria 1,Mandria,34.8714392658631,32.8332388562231,5339
5340,11140,Mandria 2,Mandria,34.8714575260293,32.8334029434432,5340
5341,11141,Kato Platres Elementary School 1,KaPlElSc,34.8778044833438,32.8390254993209,5341
5342,11142,Kato Platres Elementary School 2,KaPlElSc,34.8777686446654,32.8392006482811,5342
5343,11143,Kato Platres Community Board 1,KaPlCoBo,34.8797290767608,32.8419543916389,5343
5344,11144,Kato Platres Community Board 2,KaPlCoBo,34.8797383786404,32.8421732279311,5344
5345,11145,Steliou Perikleous Ave. - 5th Foini 1,StPe-5F,34.8923314806033,32.8387563924895,5345
5346,11147,Foini Village Center 1,FoiVilCen,34.8923832360037,32.8369942461092,5346
5347,11149,Foini Youth Center 1,FoiYouCen,34.8938977754316,32.83668480624,5347
5348,11152,Dimou Irodotou - 2nd Foini 2,DiIr-2nFo,34.8937218962159,32.8333361197208,5348
5349,11154,Steliou Perikleous Ave. - 1st Foini 2,StPe-1F,34.8948448815412,32.8302912234571,5349
5350,11173,Platres Forest Station - Kalidonia 1,PlFoSt-Ka,34.8957037772191,32.8684759441505,5350
5351,11177,Pano Platres Village Center 1,PaPlViCe,34.8882239275258,32.8645918592398,5351
5352,11178,Platres Hospital 2,PlatrHospi,34.8823679254265,32.8614170351251,5352
5353,11180,Moniatis Square,MoniaSquar,34.8700829344403,32.8943494759596,5353
5354,11181,Archangelos Michael Church,ArcMicChu,34.8683438641784,32.8958944100121,5354
5355,11182,Lemesos - Troodos Road - Moniatis 2,Le-TrR-Mo,34.8661484516898,32.901772447064,5355
5356,11183,Lemesos - Troodos Road - Moniatis 1,Le-TrR-Mo,34.8660853017798,32.9017396994394,5356
5357,11184,Moniatis 1,Moniatis,34.8623058029403,32.9120719368992,5357
5358,11186,Fylagra 1,Fylagra,34.8854477357899,32.9301368541693,5358
5359,11187,Fylagra 2,Fylagra,34.8852943924522,32.9300603797764,5359
5360,11189,Ap. Andreas Church - Amiantos 2,ApAnCh-Am,34.9173196798609,32.9370835451353,5360
5361,11190,2nd Amiantos 1,2ndAmianto,34.9183558726407,32.9355062654569,5361
5362,11191,2nd Amiantos 2,2ndAmianto,34.9183830065589,32.9356595140413,5362
5363,11207,Nikou Karasamani - 1st Pelendri 2,NiKa-1sPe,34.8944819102979,32.9708105546225,5363
5364,11208,Nikou Karasamani - 1st Pelendri 1,NiKa-1sPe,34.8946262233217,32.9709418398885,5364
5365,11209,Nikou Karasamani - 2nd Pelendri 2,NiKa-2nPe,34.8978361823942,32.9696929659581,5365
5366,11210,Nikou Karasamani - 2nd Pelendri 1,NiKa-2nPe,34.8984314032608,32.9699335416673,5366
5367,11211,Grigori Afxentiou - 3rd Pelendri 1,GrAf-3rPe,34.9001164498133,32.9652701783038,5367
5368,11212,Grigori Afxentiou - 4th Pelendri,GrAf-4tPe,34.8976906741242,32.9651179679856,5368
5369,11213,Sotiri Tsangari - 4th Pelendri,SoTs-4tPe,34.8976726828155,32.9652712069442,5369
5370,11214,Sotiri Tsangari - 5th Pelendri 2,SoTs-5tPe,34.8981690365632,32.9666500885006,5370
5371,11215,Sotiri Tsangari - 5th Pelendri 1,SoTs-5tPe,34.8980878812407,32.9666610664549,5371
5372,11216,Archagelos Michail Church - Pelendri,ArMiCh-Pe,34.896302788335,32.9681174614023,5372
5373,11217,Pelendri Elementary School 2,PelEleSch,34.8945082522448,32.9679868186267,5373
5374,11218,Pelendri Elementary School 1,PelEleSch,34.8944450828209,32.9678117284348,5374
5375,11219,Pelendri Village Center 2,PelVilCen,34.8956530767956,32.9664650432856,5375
5376,11220,Pelendri Village Center 1,PelVilCen,34.8957432648181,32.9665087859962,5376
5377,11221,Agios Ioannis Church,AgiIoaChu,34.8954719816097,32.9638711981665,5377
5378,11222,Trimiklini - Pelendri Road 2,Tr-PeRo,34.8899238979665,32.9569350873797,5378
5379,11223,Lemesos - Troodos Road - 1st  Alassa 2,Le-TrR-1Al,34.7619761176405,32.9279900394783,5379
5380,11229,Lemesos - Troodos Road - 1st  Alassa 1,Le-TrR-1Al,34.7618048055015,32.9280338967586,5380
5381,11231,Polemidia - Alassa Road 1,Po-AlRo,34.7446276670548,32.9812419940673,5381
5382,11233,Archiep. Makariou C´ - 2nd Sanida,ArMaC-2Sa,34.8072815832098,33.1893508210942,5382
5383,11234,Archiep. Makariou C´ - 3rd Sanida 2,ArMaC-3Sa,34.8066028661115,33.1908798920106,5383
5384,11236,1st Vasa Kellakiou 2,1stVasKel,34.8020202822833,33.2135431565915,5384
5385,11237,2nd Vasa Kellakiou 1,2ndVasKel,34.8017915459539,33.2154120040148,5385
5386,11238,1st Agata,1stAgata 1,34.7856275248234,33.2461932609197,5386
5387,11239,Asgata Stadium 1,AsgatStadi,34.7837704751513,33.2503192811987,5387
5388,11241,Georgiou Katsari - 3rd Asgata 1,GeKa-3rAs,34.7809660869683,33.2546061519598,5388
5389,11242,Ap. Petrou and Pavlou Church - Asgata 1,APeaPaCh-A,34.7795575431687,33.2554543206779,5389
5390,11246,Asgata - Monagroulli Road 2,As-MoRo,34.7705127521712,33.242214197718,5390
5391,11247,Eirinis - 1st Monagroulli 2,Ei-1sMo,34.7499541931068,33.2172767024498,5391
5392,11248,Agios Theodoros Church - Monagroulli 2,AgThCh-Mo,34.748346969257,33.2133393729982,5392
5393,11249,Monagroulli Community Board 2,MonComBoa,34.7462564733078,33.2124053680275,5393
5394,11250,Agioi Anargyroi Elementary School 2,AgAnElSc,34.7416235100228,33.2111481227257,5394
5395,11251,3rd Moni - Monagroulli Road 2,3rMo-MoRo,34.7382544079711,33.209085838441,5395
5396,11252,3rd Moni - Monagroulli Road 1,3rMo-MoRo,34.7384437061295,33.2091300114171,5396
5397,11253,Pentakomo,Pentakomo,34.7379614244489,33.2407755234414,5397
5398,11254,Pentakomo Community Board 2,PenComBoa,34.7349162224063,33.2393466278455,5398
5399,11255,Agnooumenon - 1st Pentakomo 1,Ag-1sPe,34.7313432008642,33.2357317069354,5399
5400,11256,Moni Station 2,MoniStati,34.726943338363,33.205387387032,5400
5401,11257,Moni Police Station 2,MonPolSta,34.7252794746201,33.2027400747233,5401
5402,11258,Agios Epiktitos Church 1,AgiEpiChu,34.7278487807726,33.2032050986294,5402
5403,11259,1st Moni - Monagroulli Road,1sMo-MoRo,34.7323276186021,33.2050074700432,5403
5404,11260,2nd Moni - Monagroulli Road,2nMo-MoRo,34.7343287743073,33.2054821219485,5404
5405,11261,Moni Health Center 2,MonHeaCen,34.7375434972988,33.202868340026,5405
5406,11262,Kostaki Panagiotou - 2nd Moni 1,KoPa-2nMo,34.7389165740699,33.2014406393193,5406
5407,11263,Andrea Nikolaou - 3rd Moni 2,AnNi-3rMo,34.74013977582,33.1979041483913,5407
5408,11264,Andrea Nikolaou - 4th Moni 2,AnNi-4tMo,34.7405891714288,33.1932186873898,5408
5409,11265,Andrea Nikolaou - 1st Pyrgos 2,AnNi-1sPy,34.7419361426383,33.1852797139147,5409
5410,11266,Andrea Nikolaou - 2nd Pyrgos 1,AnNi-2nPy,34.7427766676068,33.1840471096373,5410
5411,11268,Panagia Pyrgiotissa Church 2,PanPyrChu,34.7411356959217,33.1838686802865,5411
5412,11269,Panagia Chrysopyrgotissis - 4th Pyrgos 2,PaCh-4tPy,34.7395593759164,33.182674451967,5412
5413,11270,Pyrgos Community Board 2,PyrComBoa,34.740597761066,33.1817809429791,5413
5414,11271,Grigori Afxentiou - 6th Pyrgos 2,GrAf-6tPy,34.7375914191732,33.1779837561158,5414
5415,11273,Grigori Afxentiou - 7th Pyrgos 2,GrAf-7tPy,34.7346978551811,33.177191056682,5415
5416,11274,Grigori Afxentiou - 8th Pyrgos 1,GrAf-8tPy,34.7328730083014,33.1731783079964,5416
5417,11275,Grigori Afxentiou - 8th Pyrgos 2,GrAf-8tPy,34.7327916927819,33.1732873713449,5417
5418,11276,Parekklisia Community Stadium,ParComSta,34.7365051729616,33.1615192809083,5418
5419,11277,Parekklisia Fountain 2,ParekFount,34.7386696611024,33.1613596317137,5419
5420,11278,Parekklisia Elementary School 1,ParEleSch,34.7419889597285,33.1607980105792,5420
5421,11279,Parekklisia Village Center,ParVilCen,34.7434958371081,33.1601126736584,5421
5422,11280,Michail Giorgalla - 1st Parekklisia 2,MiGi-1sPa,34.7471405106831,33.1589834866073,5422
5423,11284,Parekklisia - Kellaki Road 2,Pa-KeRo,34.8076359468375,33.1484397329948,5423
5424,11291,Kellaki 1,Kellaki,34.8165971946072,33.1574875775381,5424
5425,11293,Eptagoneia Fire Station,EptFirSta,34.8456594581338,33.1588117507734,5425
5426,11294,Eptagoneia Community Board 1,EptComBoa,34.8463821077931,33.1578615079895,5426
5427,11295,Christaki Xeniou - 1st Eptagoneia 1,ChXe-1sEp,34.8460875831803,33.1554873455579,5427
5428,11303,Arakapas Community Board,AraComBoa,34.8440058882175,33.1134487840202,5428
5429,11304,1st Arakapas 1,1stAraka,34.84311930486,33.1164664176204,5429
5430,11305,Eptagoneia - Arakapa - Road 2,Ep-Ar-Ro,34.8427768010231,33.1253693179593,5430
5431,11306,Agros - Lemesos Road - 3rd Kato Mylos,A-LeR-3KM,34.8932046965343,33.0072999846326,5431
5432,11307,Kato Mylos Community Board 1,KaMyCoBo,34.8947016703318,33.0063698172835,5432
5433,11308,1st Kato Mylos,1stKatMyl,34.8952698535106,33.0047390891335,5433
5434,11309,Panagia Potamitissa Church 2,PanPotChu,34.9076417662006,32.9913085424955,5434
5435,11329,Panagia Eleousa Church 1,PanEleChu,34.9171543244659,33.0177133506811,5435
5436,11330,Rodon Hotel 1,RodonHotel,34.9098868712428,33.0118990824602,5436
5437,11331,Agros Post Office 2,AgrPosOff,34.9165137812369,33.0196399902421,5437
5438,11332,C.A.P.O. Agros Office 2,CAPOAgros,34.9170543599704,33.0223879839957,5438
5439,11333,Christoforou Pissaridi Ave. - Agros,ChrPisAve,34.915620699974,33.0216541136424,5439
5440,11334,Petrou Iliadi Ave. 2,PetIliAve,34.9136544924256,33.0236788326143,5440
5441,11335,Agios Ioannis Elementary School,AgIoElSc,34.8962695017884,33.0184312303408,5441
5442,11339,Anastasi Pitta - 2nd Agios Ioannis 1,AnP-2AIo,34.8961431420494,33.0191645100296,5442
5443,11346,Papoutsa,Papoutsa,34.905853904049,33.0533516921806,5443
5444,11347,Kalo Chorio Police Station,KaChPoSt,34.8500895513304,33.0224026475192,5444
5445,11385,Spyrou Kyprianou Ave. - Kalo Chorio,SpKy-KCh,34.8496843131652,33.0191427934814,5445
5446,11386,Gerasa - Kalo Chorio Road 2,Ge-KaChRo,34.8400450723797,33.0144265148184,5446
5447,11392,Gerasa 2,Gerasa,34.8007287125206,32.9988521118121,5447
5448,11394,Georgiou Griva Digeni - 5th Paramytha 2,GeGDi-5Pa,34.7566495415254,32.9912588355026,5448
5450,11410,Mathikoloni Community Board,MatComBoa,34.7754694852358,33.0481310317789,5450
5454,11415,Giannou Kranidioti - Agias Anastasias,GiKr-AgAn,34.7033182641507,33.0040838704207,5454
5455,11416,Giannou Kranidioti - Evagora Laniti,GiKr-EvLa,34.7019024011066,33.0054923845672,5455
5456,11417,Lemesos - Troodos Road - Agias Anastasias,Le-TrR-AAn,34.7054194547858,33.0032759147104,5456
5457,11418,Lemesos - Troodos Road - Argyri Gavala 1,Le-TrR-ArG,34.7087921846141,33.0001747225424,5457
5458,11419,Lemesos - Troodos Road - Argyri Gavala 2,Le-TrR-ArG,34.7089274521079,33.0004258868905,5458
5459,11421,Apeitios School - Glafkos Clerides Sport Centre 1,ApSc-GlClS,34.9160906532826,33.0147025482821,5459
5460,11171,Prodromos Vilalge Center 1,ProVilCen,34.9497919905832,32.8326094109962,5460
5991,20048,Archiep. Makariou C´ Ave. - 5th Stop,ArMaC-5S,34.7687765334266,33.2972972273874,5991
5999,20083,Kalavasos Square 1,KalavSquar,34.7707447814821,33.2963207420607,5999
6006,20120,Archiep. Makariou C´ Ave. - 6th Stop,ArMaC-6S,34.7669590298752,33.2993123463111,6006
6007,20121,Archiep. Makariou C´ Ave. - 3rd Stop,ArMaC-3S,34.7655142398489,33.3001048436041,6007
6011,20129,Archiep. Makariou C´ Ave. - 4th Stop,ArMaC-4S,34.7655952102849,33.3001816297289,6011
6016,20137,Archiep. Makariou C´ Ave. - 1st Stop,ArMaC-1S,34.7563069739877,33.3109432514255,6016
6019,20141,Archiep. Makariou C´ Ave. - 2nd Stop,ArMaC-2S,34.7563787525731,33.3110855632231,6019
6029,20158,1st Stop Melini,1stStoMel,34.8663135211731,33.155984924904,6029
6767,21847,Zygi - Kalavasos Road - 1st Stop,Z-KaR-1S,34.7542612821691,33.3174147503713,6767
6969,20157,2nd Stop Melini,2ndStoMel,34.8665638411767,33.1576703053531,6969
7072,11500,Pissouri Beach,PissoBeach,34.6512318217818,32.7229948138307,7072
7183,31580,1st Agios Nikolaos Pafou 1,1stAgNiPa,34.8633496510177,32.7532143203581,7183
7189,2,Dionysios Solomos Square D,SqrSolD,35.1713757611785,33.3582426177153,7189
7203,10912,Gernan Oncology Hospital 1,GerOncHosp,34.7298514201105,33.0614523881566,7203
7449,11508,Grammar School 1,GrammSchoo,34.7089464801841,33.0442267241183,7449
7450,11509,Michali Zavou - Georgiou Averof,MiZa-GeAv,34.7088709923451,33.0704896862591,7450
7451,11510,Michail Zavou - Acheritou,MiZa-Ac,34.7087267001485,33.0705004840034,7451
7452,11511,Alois - Ilianthemou,Alo-Ili,34.6990072572451,33.0113228715892,7452
7453,11512,Alois - Ntalias,Alo-Nta,34.6990343017407,33.011421145164,7453
7454,11513,Alois - Anoixeos 2,Alo-Ano,34.6972486043774,33.0129713470218,7454
7455,11514,Alois - Anoixeos 1,Alo-Ano,34.69725761294,33.0130586975745,7455
7456,11515,Pavlou Liasidi - Skandinavias,PaLi-Sk,34.7043536689511,33.0204742042225,7456
7458,11516,Pavlou Liasidi - Gkogia,PaLi-Gk,34.704254553837,33.019982799497,7458
7459,11517,Grigori Afxentiou - Dimokratias,GrAf-Di,34.7054548504404,32.986754379252,7459
7460,11518,Grigori Afxentiou - Keryneias,GrAf-Ke,34.7053556490149,32.9867107162341,7460
7462,11519,55 Street - 63 Street,55St-63St,34.6965997291504,32.9917783265259,7462
7463,11520,55 Street - 56 Street,55St-56St,34.6964824950746,32.9917565010367,7463
7464,11521,1 Street - 8 Street,1St-8St,34.6921901081204,32.9940060300846,7464
7465,11522,1 Street - 10 Street,1St-10St,34.6919015019679,32.9933618924253,7465
7466,11523,Sarantaporou - Ious,Sar-Iou,34.665415856517,33.0069525139468,7466
7467,11524,Miltonos - Tefkrou Anthia,Mi-TeAn,34.6690321692655,33.0043550606097,7467
7468,11525,Thespion - Filathlon,The-Fil,34.7050833889211,33.0244273049867,7468
7469,11526,Thespion - Domnitsas L. Kavounidou,Th-DomKav,34.7047141354087,33.0219047636076,7469
7470,11527,Evagora Laniti - Agias Fylaxeos,EvLa-AgFy,34.7072751553562,33.0222221174773,7470
7471,11528,Evagora Laniti - Domnitsas L. Kavounidou,EvLa-DoLKa,34.7070767300957,33.0223967833467,7471
7472,11529,Palodeia Community Board 1,PalComBoa,34.7460087265488,33.0052112509009,7472
7474,11531,Agias Fylaxeos - Alkyonis,AgFy-Al,34.6913193305466,33.0356249882946,7474
7475,11532,Agias Fylaxeos - Athinaidos Z. Lanitou,AFy-AtZLa,34.6816421272211,33.0388630711062,7475
7476,11533,Linopetra Elementary School,LinEleSch,34.6979520508084,33.0674668561848,7476
7477,11534,Spyrou Kyprianou Ave. - Filikis Etaireias,SpKy-FiEt,34.6984281503874,33.0529561639197,7477
7478,11535,Ariadnis - Profiti Ilia,Ar-PrIl,34.7054900862721,33.1066201729169,7478
7479,11536,Ariadnis - Alkaiou,Ari-Alk,34.7046877539718,33.1063243140363,7479
7480,11537,Limassol Municipal Open Air Theatre,LiMuOpAiTh,34.6833939701524,33.0559596327084,7480
7481,11538,Gernan Oncology Hospital 2,GerOncHosp,34.72880575589,33.0606433279323,7481
7482,11539,Agios Athanasios Cemetery 2,AgiAthCem,34.7143923263145,33.0662133809185,7482
7483,11540,Tilemachou Alavera - Kyrillou Loukareos,TiAl-KyLo,34.6914145595001,33.0061795179024,7483
7484,11541,Tilemachou Alavera - Lamprou Konstantara,TiAl-LaKo,34.6917751890945,33.0076971360683,7484
7486,11543,Kremastis Rodou - Spyrou Petousi,KrRo-SpPe,34.6745721038743,32.8985170758957,7486
7487,11544,Kremastis Rodou - Aikaterinis Kornaro,KrRo-AiKo,34.6757133709623,32.8938109701708,7487
7488,11545,1 Street - 1 Street Side-Street,1St-1StSi,34.6695166879727,32.902987474944,7488
7489,11546,1 Street - Mouseiou,1St-Mo,34.669516609762,32.9028892400636,7489
7490,11547,Kourion Beach - 1st Stop 1,KoBe-1sSt,34.6632484652551,32.8817012286141,7490
7491,11548,Kourion Beach - 1st Stop 2,KoBe-1sSt,34.6633026680588,32.8817993791923,7491
7492,11549,Agios Charalampos Church 2,AgiChaChu,34.678673757881,32.9208356992803,7492
7493,11550,Agios Charalampos Church 1,AgiChaChu,34.6783941742903,32.9207923006828,7493
7494,11551,Archiepiskopou Makariou C 2,ArcMakC,34.667825107563,32.9360503054112,7494
7495,11552,Archiepiskopou Makariou C 1,ArcMakC,34.6677981052626,32.9361485591316,7495
7496,11553,Georgiou Griva Digeni - Agias Sofias,GeGDi-ASo,34.6811358135487,32.9365313174707,7496
7497,11554,Petraki Giallourou - Andrea Papandreou,PeGi-AnPa,34.6837555749214,32.9732318334124,7497
7498,11555,Petraki Giallourou - Trion Ierarchon,PeGi-TrIe,34.6867225025818,32.9733946373712,7498
7499,11556,Petraki Giallourou - Sotiri Tsangari,PeGi-SoTs,34.68674056692,32.9735256387373,7499
7500,11557,14 Street - 29 Street,14St-29St,34.6654325355672,32.9042146553241,7500
7501,11558,Apostolos Loukas Lyceum,ApoLouLyc,34.6956004438588,32.9363674188332,7501
7502,11559,Giannou Kranidioti - Ignatiou Georgiou,GiKr-IgGe,34.6966818700782,32.935001770407,7502
7503,11560,Solomou Solomou - Vasili Michailidi,SoSo-VaMi,34.7006881214526,32.9394863844888,7503
7504,11561,Solomou Solomou - Tasou Isaak,SoSo-TaIs,34.7005979046608,32.939410016608,7504
7505,11562,Charalampou Mouskou - Stylianou Lena,ChMo-StLe,34.7609781606285,33.0815265305371,7505
7506,11563,Grigori Afxentiou - Agiou Georgiou,GrAf-AgGe,34.7655414295676,33.0811266948483,7506
7508,11565,Agias Paraskevis - Andrea Zakou,AgPa-AnZa,34.7356641151061,33.0830746725946,7508
7509,11566,Konstantinou kai Evripidi Ave. - Flamoudiou,KokEv-Fl,34.6534731986507,32.9725322337056,7509
7510,11567,Konstantinou kai Evripidi Ave. - Griva Digeni,KokEv-GDi,34.6533468954378,32.9723031048487,7510
7511,11568,Port Parallel Road - 1st Stop,PoPaRo1s,34.6575512788196,33.0165884188009,7511
7512,11569,Port Parallel Road - 2nd Stop,PoPaRo2n,34.6540259002952,33.0109020583973,7512
7513,11570,Port Parallel Road - 3rd Stop,PoPaRo3r,34.6468480192576,33.0041793077992,7513
7514,11571,Port Parallel Road - 4th Stop,PoPaRo4t,34.6481014565212,33.0056634292202,7514
7515,11572,Port Parallel Road - 5th Stop,PoPaRo5t,34.6534849138796,33.0098325233245,7515
7516,11573,Port Parallel Road - 6th Stop,PoPaRo6t,34.6578218232407,33.0165448188319,7516
7517,11574,Aristagorou - Sopatrou,Ari-Sop,34.7176921592159,33.012690583995,7517
7526,11501,Governors Beach,GoverBeach,34.7168579913482,33.2716212797208,7526
7527,11502,Kalymnos Beach,KalymBeach,34.71993749411,33.2736736853588,7527
7535,11625,1st Agata 2,1stAgata,34.7856635292077,33.246226158635,7535
7536,11613,1st Arakapas 2,1stAraka,34.8433711269536,33.1171667976916,7536
7537,31851,3rd Agios Nikolaos Pafou 2,3rdAgNiPa,34.860750300599,32.7565588360131,7537
7538,11645,1st Vasa Kellakiou 1,1stVasKel,34.8019751171807,33.2135867697431,7538
7539,11624,2nd Vasa Kellakiou 2,2ndVasKel,34.8015746377593,33.2156847485785,7539
7541,11759,Afroditis - Kalymnou,Afr-Kal,34.7184277249646,33.2672578595675,7541
7542,11758,Sofroniou Beach,SofBeach,34.7133102281194,33.2692508069668,7542
7543,11576,Agelikis Sotiriou - 1st Pano Kyvides 2,AgSo-1PKy,34.760816860682,32.8451862646227,7543
7544,11602,Agias Eirinis - Apesia 1,AgEi-Ap,34.7870083621397,32.96741630602,7544
7545,11641,Agioi Anargyroi Elementary School 1,AgAnElSc,34.7413082100783,33.2109616055969,7545
7546,11575,Agios Amvrosios Community Board 2,AgAmCoBo,34.7805422782579,32.8276948709687,7546
7548,11604,Agios Mamas Community Board 1,AgMaCoBo,34.8511359070042,32.9488058038615,7548
7549,11577,Agiou Panteleimonos Ave. - 2nd Pano Kyvides 2,APa-2PKy,34.7585362670414,32.8531997859837,7549
7550,11578,Agiou Panteleimonos Ave. - 3rd Pano Kyvides 2,APa-3PKy,34.7560533550348,32.858263087262,7550
7551,11579,Agiou Panteleimonos Ave. - 4th Pano Kyvides 2,APa-4PKy,34.7544968639421,32.8613797025455,7551
7552,11580,Agiou Panteleimonos Ave. - 4th Pano Kyvides 2,APa-4PKy,34.754289691128,32.8615876452801,7552
7553,11647,Agnooumenon - 1st Pentakomo 2,Ag-1sPe,34.7311807965452,33.2357749381036,7553
7555,11589,Agros Post Office 1,AgrPosOff,34.9164416442504,33.0196180778835,7555
7556,11643,Agios Theodoros Church - Monagroulli 1,AgThCh-Mo,34.748365119575,33.2132738676398,7556
7557,11637,Andrea Nikolaou - 1st Pyrgos 1,AnNi-1sPy,34.7420983961552,33.1853237742245,7557
7558,11631,Andrea Nikolaou - 2nd Pyrgos 2,AnNi-2nPy,34.7427136256947,33.1839923468254,7558
7559,11639,Andrea Nikolaou - 3rd Moni 1,AnNi-3rMo,34.7403131659398,33.1966373451641,7559
7560,11638,Andrea Nikolaou - 4th Moni 1,AnNi-4tMo,34.7406612443061,33.1932625524924,7560
7561,11628,Ap. Petrou and Pavlou Church - Asgata 2,APeaPaCh-A,34.7795845273997,33.255487192175,7561
7562,11582,Apeitios School - Glafkos Clerides Sport Centre 1,ApSc-GlClS,34.916811975906,33.0153704827747,7562
7563,11607,Apostolou Andreou - 2nd Pissouri 2,ApAn-2nPi,34.6716616604386,32.7018713328347,7563
7564,11610,Apostolou Andreou - 3rd Pissouri 1,ApAn-3rPi,34.6692501324013,32.7003409695005,7564
7565,11646,Archiep. Makariou C - 3rd Sanida 1,ArMaC-3Sa,34.806693402802,33.1906505070184,7565
7566,11656,Arsos Lemesou 1,ArsosLem,34.8403583453852,32.7688469820492,7566
7567,11655,Arsos Lemesou 2,ArsosLem,34.8404575598277,32.7688576421809,7567
7568,11629,Asgata - Monagroulli Road 1,As-MoRo,34.7708459721186,33.2424337371161,7568
7569,11626,Asgata Stadium 2,AsgatStadi,34.7839151399218,33.2501339079987,7569
7570,11588,C.A.P.O. Agros Office 1,CAPOAgros,34.9172888786885,33.0220486689629,7570
7571,11614,Christaki Xeniou - 1st Eptagoneia 2,ChXe-1sEp,34.8461328530567,33.1553452333854,7571
7572,11650,Dierona,Dierona,34.8276768108287,33.1113485802517,7572
7573,11658,Dora,Dora,34.7804989146327,32.7377227322347,7573
7574,11644,Eirinis - 1st Monagroulli 1,Ei-1sMo,34.7497475443424,33.2168500660371,7574
7575,11595,Eleftherias - 1st Pera Pedi 2,El-1sPePe,34.8613331492677,32.8727208050555,7575
7576,11623,Eptagoneia - Arakapa - Road 1,Ep-Ar-Ro,34.8427135195254,33.1255223513124,7576
7577,11615,Eptagoneia Community Board 2,EptComBoa,34.8463725357591,33.1582880828806,7577
7578,11603,Fountain - 3rd Agios Mamas 1,Fo-3rAgMa,34.8502700313267,32.9483797263609,7578
7579,11584,Georgiou Griva Digeni - 5th Paramytha 1,GeGDi-5Pa,34.7566495344269,32.9911604974031,7579
7580,11627,Georgiou Katsari - 3rd Asgata 2,GeKa-3rAs,34.7805417300868,33.2548562282455,7580
7581,11586,Gerasa - Kalo Chorio Road 1,Ge-KaChRo,34.8397565298269,33.0142295908165,7581
7582,11585,Gerasa 1,Gerasa,34.800990229921,32.9992347387913,7582
7583,11692,Gerasa Village Center - Ag. Georgios Church,GerVilAgGe,34.8023248474287,32.9984475879565,7583
7585,11590,Grigori Afxentiou - 3rd Pelendri 2,GrAf-3rPe,34.8999451468519,32.9653797043942,7585
7586,11633,Grigori Afxentiou - 6th Pyrgos 1,GrAf-6tPy,34.7377898583874,33.1779514097577,7586
7588,11581,Kantou Community Board 1,KanComBoa,34.6901261803086,32.9075707068184,7588
7589,11616,Kellaki 2,Kellaki,34.8169758239126,33.1575757732444,7589
7590,11630,Kostaki Panagiotou - 2nd Moni 2,KoPa-2nMo,34.7388173785583,33.2014403985767,7590
7591,11592,Lemesos - Troodos Road - Laneia 1,Le-TrR-La,34.8228625437631,32.9121248085747,7591
7592,11657,Malia Square 2,MaliaSquar,34.8166048824595,32.7830405079907,7592
7593,11597,Mandria - Koilani Road 1,Ma-KoRo,34.864230389875,32.8511632537201,7593
7594,11621,Michail Giorgalla - 1st Parekklisia 1,MiGi-1sPa,34.7471226176858,33.1588742004629,7594
7595,11725,Millomeris Waterfall,MillWatef,34.8872312847203,32.8639587529345,7595
7596,11642,Monagroulli Community Board 1,MonComBoa,34.7464999146209,33.2124278413682,7596
7597,11640,Moni Health Center 1,MonHeaCen,34.7375067705796,33.2032615110576,7597
7598,11651,Moni Police Station 1,MonPolSta,34.72515328004,33.2027069997799,7598
7599,11648,Moni Station 1,MoniStati,34.7271416560546,33.2054315677398,7599
7600,11601,Panagia Chrisokorfitissa Church 2,PanChrChu,34.7942492063628,32.9659158543643,7600
7601,11635,Panagia Chrysopyrgotissis - 4th Pyrgos 1,PaCh-4tPy,34.7395768538658,33.1830459128247,7601
7602,11583,Panagia Eleousa Church 2,PanEleChu,34.9175960626536,33.018534526178,7602
7603,11605,Panagia Potamitissa Church 1,PanPotChu,34.9075063749346,32.9896775428609,7603
7604,11636,Panagia Pyrgiotissa Church 1,PanPyrChu,34.7416229691767,33.1836621951358,7604
7605,11596,Panagias Faneromenis Ave. - 2nd Pera Pedi 2,PaFa-2PP,34.8598839299814,32.8752501959692,7605
7606,11594,Pano Platres Village Center 2,PaPlViCe,34.8880888830377,32.864789069464,7606
7607,11608,Paramali 1,Paramali,34.6763314128343,32.7924453070854,7607
7608,11622,Parekklisia - Kellaki Road 1,Pa-KeRo,34.8076553770985,33.147291784957,7608
7609,11619,Parekklisia Community Stadium 1,ParComSta,34.7365774601438,33.16141018359,7609
7610,11618,Parekklisia Elementary School 2,ParEleSch,34.7423043947714,33.1609406409121,7610
7611,11620,Parekklisia Fountain 1,ParekFount,34.7391116487425,33.161273097916,7611
7612,11617,Parekklisia Village Center 2,ParVilCen,34.743739489637,33.1599820468699,7612
7613,11653,Pentakomo Avenue,PentakAve,34.7318566423112,33.2360280900575,7613
7614,11654,Pentakomo Community Board 1,PenComBoa,34.7356464888996,33.2394361226567,7614
7615,11587,Petrou Iliadi Ave. 1,PetIliAve,34.9136275158649,33.0232847251552,7615
7616,11611,Pissouri Community Stadium 1,PisComSta,34.6663215162676,32.6975792238834,7616
7617,11609,Pissouri Police Station 1,PisPolSta,34.6758484767347,32.69922562757,7617
7618,11599,Platres Forest Station - Kalidonia 2,PlFoSt-Ka,34.8954328349468,32.8680933083483,7618
7619,11598,Platres Hospital 1,PlatrHospi,34.8824305237939,32.8609573213165,7619
7620,11591,Polemidia - Alassa Road 2,Po-AlRo,34.744726858029,32.9812091969898,7620
7621,11659,Potamiou,Potamiou,34.8238666792148,32.8059090506269,7621
7622,11649,Prastio Avdimou,PrastAvd,34.7299350321912,32.7779259261721,7622
7623,11634,Pyrgos Community Board 1,PyrComBoa,34.7405890040244,33.1816061346565,7623
7624,11606,Rodon Hotel 2,RodonHotel,34.9100221241073,33.0120085693331,7624
7625,11612,Theodorou Kolokotroni - 5th Pissouri 1,ThKo-5tPi,34.6593232575178,32.6974300313084,7625
7626,11593,Trimiklini - Pelendri Road 1,Tr-PeRo,34.88999599997,32.9568256089772,7626
7627,11660,Vasa Koilaniou,VasaKoil,34.8346584118287,32.793481478594,7627
7629,11740,1st Alektora,1stAlektor,34.6975864930289,32.6731388247315,7629
7630,11741,2nd Alektora 2,2ndAlektor,34.7105624147703,32.683101730459,7630
7631,11742,2nd Alektora 1,2ndAlektor,34.7105085355499,32.6831892985545,7631
7632,11743,Platanisteia - Hambis Printmaking Museum 2,Plat-HamPM,34.7120816472555,32.7101570264331,7632
7633,11744,Platanisteia - Hambis Printmaking Museum 1,Plat-HamPM,34.7120277225525,32.7102336582937,7633
7634,11745,Agios Thomas 2,AgThomas,34.7162653259675,32.7254756462892,7634
7635,11738,Prodromos Vilalge Center 2,ProVilCen,34.9499184163025,32.832740578261,7635
7636,11720,Moniatis 2,Moniatis,34.8622066405792,32.9121158040017,7636
7637,11714,1st Amiantos 1,1stAmianto,34.9201138104039,32.9345962001787,7637
7638,11715,1st Amiantos 2,1stAmianto,34.9200958282866,32.9346947470828,7638
7639,11681,Archiep. Makariou C Ave. - 10th Kyperounta 2,ArMaC-10K,34.9480145958923,32.9557328926518,7639
7640,11679,Kato Mylos Community Board 2,KaMyCoBo,34.8944942527131,33.0066105841384,7640
7641,11716,Stylianou Lena - Cyta 1,StLe-Cy,34.9444769520817,32.9789515763945,7641
7642,11717,Stylianou Lena - 2nd Kyperounta 1,StLe-2nKy,34.9428176275019,32.9783825436118,7642
7643,11718,Stylianou Lena - 3rd Kyperounta 2,StLe-3rKy,34.9417258281193,32.9748566251907,7643
7644,11719,Georgiou Charalampous - 4th Kyperounta 1,GeCh-4tKy,34.9403820646433,32.9741342846221,7644
7645,11683,Georgiou Griva Digeni Ave. - 3rd Chandria 2,GeGDi-3Ch,34.9445324710273,32.9900233470627,7645
7646,11684,Georgiou Griva Digeni Ave. - 2nd Chandria 2,GeGDi-2Ch,34.9435047263898,32.9938344835054,7646
7647,11685,Chandria Square 1,ChandSquar,34.9418455112818,32.9940317250329,7647
7648,11680,Agridia,Agridia,34.9279675684177,32.99512764207,7648
7649,11673,Anastasi Pitta - 2nd Agios Ioannis 2,AnP-2AIo,34.895971790425,33.0192739189478,7649
7650,11682,Kyperounda Winery 2,KyperWiner,34.9444954894286,32.9820836478446,7650
7651,11661,Lofou,Lofou,34.8157008041301,32.8786955095416,7651
7652,11662,Agios Therapon 2,AgTherap,34.797395115222,32.8399362417252,7652
7653,11663,Agios Therapon 1,AgTherap,34.7973859824699,32.8398488048783,7653
7654,11664,Antoniou Volou - Souni - Zanakia 1,AnV-S-Za,34.7280075923996,32.8932853860623,7654
7655,11665,Archangelos Michail Church 1,ArchMichCh,34.7378228311489,32.8875267606934,7655
7656,11666,Andrea Vlami - Souni - Zanakia 1,AnVlamSoZa,34.7318428143899,32.8769612226281,7656
7657,11667,Sotira Lemesou,SotiraLem,34.7125174933281,32.8601720655874,7657
7658,11668,1st Vouni,1stVouni,34.8247310851315,32.8356404304067,7658
7659,11669,2nd Vouni,2ndVouni,34.8202820714615,32.8332217342894,7659
7661,11671,Agios Theodoros 1,AgiosTheod,34.8975919346646,33.0332621175535,7661
7662,11672,Agios Theodoros 2,AgiosTheod,34.897591850418,33.0335685799261,7662
7663,11686,Zoopigi 2,Zoopigi,34.861786499411,33.0157103299448,7663
7664,11687,Zoopigi 1,Zoopigi,34.8617324048048,33.0156227969874,7664
7665,11688,Kalo Chorio Cemetery,KalChCemet,34.8509792723656,33.0351904745565,7665
7667,11698,1st Louvaras 2,1stLouvara,34.8384701274995,33.0404459699447,7667
7668,11697,1st Louvaras 1,1stLouvara,34.8384701674416,33.0403256601633,7668
7669,11696,2nd Louvaras,2ndLouvara,34.8321401739483,33.0390320765399,7669
7670,11694,Agios Pavlos 2,AgPavlos,34.8638705968181,33.0468148992423,7670
7671,11695,Agios Pavlos 1,AgPavlos,34.8639427126577,33.0468805838606,7671
7672,11693,Agios Konstantinos,AgiosKonst,34.8671522424785,33.0676266358997,7672
7673,11689,Apsiou Community Amphitheatre,ApsComAmp,34.7955857775437,33.0262358147016,7673
7674,11690,Apsiou Community Board 2,ApsComBoa,34.7976434313998,33.0172286131305,7674
7675,11691,Apsiou Community Board 1,ApsComBoa,34.7975352538258,33.016977158152,7675
7676,11674,2nd Kato Mylos,2ndKatMyl,34.8950174020697,33.0035242079279,7676
7677,11675,1st Dymes - 2,1stDymes,34.9211669900153,32.9812894995674,7677
7678,11676,1st Dymes - 1,1stDymes,34.9210948427964,32.9812457231186,7678
7679,11677,2nd Dymes 2,2ndDymes,34.9163069303609,32.9841479182865,7679
7680,11678,2nd Dymes 1,2ndDymes,34.9166045114535,32.9841588086845,7680
7686,11704,Kouka,Kouka,34.8521133963884,32.8872292489542,7686
7687,11705,Silikou 1,Silikou,34.8320248120355,32.8902750898176,7687
7689,11707,Agios Georgios Lemesou 2,AgGeorgLem,34.8162688579727,32.8983108353766,7689
7691,11709,Monagri 2,Monagri,34.8095791805901,32.9117453078653,7691
7692,11710,Monagri 1,Monagri,34.8095971287364,32.9116250209466,7692
7693,11711,1st Koilani,1stKoilani,34.8546034381833,32.8543748917233,7693
7694,11712,2nd Koilani 2,2ndKoilani,34.8454762903456,32.8609866877688,7694
7695,11713,2nd Koilani 1,2ndKoilani,34.845421871647,32.8607133251769,7695
7696,11721,Dimou Irodotou - 2nd Foini 1,DiIr-2nFo,34.8942159181452,32.8319232656711,7696
7697,11722,Foini Youth Center 2,FoiYouCen,34.8940968811258,32.8372206979718,7697
7698,11723,Foini Village Center 2,FoiVilCen,34.8924013591696,32.8370598766092,7698
7699,11724,Steliou Perikleous Ave. - 5th Foini 2,StPe-5F,34.8923497478796,32.8389314668183,7699
7700,11726,Distrato Foini 1,DistrFoini,34.8879044049231,32.8391809051581,7700
7701,11727,1st Kaminaria,1stKaminar,34.9270532590514,32.7834290089084,7701
7702,11728,2nd Kaminaria 2,2ndKaminar,34.929462038067,32.7840467886769,7702
7703,11729,2nd Kaminaria 1,2ndKaminar,34.9294801703213,32.784101487628,7703
7704,11730,Treis Elies 2,TreisElies,34.9326084803011,32.7940465778963,7704
7705,11731,Treis Elies 1,TreisElies,34.9325632629345,32.7939700429747,7705
7706,11732,Agios Dimitrios 2,AgDimitr,34.9254829148225,32.8095787855244,7706
7707,11733,Agios Dimitrios 1,AgDimitr,34.9252934786264,32.8095354281927,7707
7708,11737,2nd Lemithou,2ndLemitho,34.9508001163131,32.812816852484,7708
7709,11736,1st Lemithou 1,1stLemitho,34.9509819805598,32.8138021333057,7709
7710,11735,1st Lemithou 2,1stLemitho,34.9510902069485,32.8138128407625,7710
7711,11734,Agios Georgios Kapourallis Church,AgGeorKapC,34.917608059341,32.813757109257,7711
7712,11739,Anogyra,Anogyra,34.7398205447092,32.7339186318922,7712
7713,11746,Agios Thomas 1,AgThomas,34.7162381496407,32.7254211306323,7713
7714,11747,Profitis Ilias Church,ProfIliasC,34.8890734866667,33.1062767439976,7714
7715,11748,Sykopetra 2,Sykopetra,34.8788159032445,33.1113737291339,7715
7716,11749,Sykopetra 1,Sykopetra,34.8786175359807,33.1113515764391,7716
7717,11750,Akapnou,Akapnou,34.8383518689139,33.1865345116415,7717
7718,11751,1st Prastio Kellakiou,1stPraKel,34.8108379125247,33.1402671483645,7718
7719,11752,2nd Prastio Kellakiou 2,2ndPraKel,34.8119174188007,33.1425213268748,7719
7720,11753,2nd Prastio Kellakiou 1,2ndPraKel,34.8117996629316,33.142969406583,7720
7721,11754,Panagia Glossa Monastery,?e????a?G?,34.808882468865,33.174091559905,7721
7722,11755,Vikla,Vikla,34.8271849995929,33.1942080916747,7722
7723,11756,Klonari 2,Klonari,34.8264202801112,33.1813678531404,7723
7724,11757,Klonari 1,Klonari,34.8264835177815,33.1812914422147,7724
7725,11760,Distrato Foini 2,DistrFoini,34.8879135238114,32.8392574939076,7725
7846,11504,Ypsonas High School 1,YpsHigSch,34.6985926874614,32.9331986716579,7846
7848,11859,Kolossi Regional Lyceum,KolRegLyce,34.695781417207,32.9375573910671,7848
7849,11860,Ilia Venezi - Giannou Kranidioti,IlVe-GKran,34.6976536912351,32.931157630671,7849
7850,11861,Christodoulou Sozou - Neas Peramou,ChSoz-NPer,34.7000627873365,32.9335359795222,7850
7851,11862,Vasili Michailidi - Dimitri Liperti,VMich-DLip,34.7019415362453,32.939343521609,7851
7852,11863,Dimitri Liperti - Dionysiou Solomou,DiLip-DSol,34.7028619358446,32.9405112233052,7852
7853,11864,Dionysiou Solomou - Andrea Vlami,DiSol-AVla,34.6999407177614,32.9417034843552,7853
7854,11865,Askipiou - 25 Martiou,Askli-25Ma,34.7000010279587,32.9565642041933,7854
7855,11866,25 Martiou - Santorinis,25Ma-Santo,34.7004435815547,32.9585075657762,7855
7856,11867,Katinas Paxinou - Ioanni Stavrianou,KaPax-IoSt,34.6970274512947,32.9636737745456,7856
7857,11868,Ioanni Stavrianou - Eirinis,IoStav-Eir,34.6979202418413,32.9637388967914,7857
7858,11869,Alexandrou Ypsilanti - Christou Samara,AlYps-ChSa,34.698814165191,32.9678439934163,7858
7859,11870,Agiou Sila - Eleftherias,AgSila-Ele,34.6909311444083,32.9629776980961,7859
7860,11871,Ellados - Athinas,Ellad-Athi,34.6907050806408,32.9610016801796,7860
7861,11872,Ellados - Vosporou,Ellad-Vosp,34.6937619362467,32.9603451553861,7861
7862,11873,Foti Pitta - Dimokratias,FoPit-Dimo,34.6917953274054,32.9582280158371,7862
7863,11874,Archiep. Makariou C - Arsinois,ArMaC-Ar,34.6899282548727,32.95716993882,7863
7864,11875,Archiep. Makariou C - Foti Pitta,ArMaC-FP,34.6890812029673,32.9590045266535,7864
7865,11876,Trion Ierarchon - Ammochostou,TrIe-Amm,34.6868287420145,32.9655123318911,7865
7866,11877,Michail Karaoli - Karpasias,MiKar-Karp,34.6888402016393,32.9672037160137,7866
7867,11878,Michail Karaoli - Evrota,MiKar-Evro,34.6902297613408,32.9703365536135,7867
7868,11879,Xenofontos - Ierousalim,Xeno-Iero,34.6892927044936,32.9738523541532,7868
7869,11880,Sotiri Tsangari - Adamantiou Korai,SoTsa-AdKo,34.6872096800058,32.9743770406464,7869
7870,11881,Zinonos Kitieos - Seychellon,ZinKit-Sey,34.6850444875092,32.9704257394529,7870
7871,11882,Viennis - Roumelis,Vien-Roum,34.6836556869691,32.9702515635695,7871
7872,11883,Kassianou - Georgiou Griva Digeni,Kas-GeGrDi,34.6860514600433,32.9598248080113,7872
7873,11884,Georgiou Griva Digeni - Apollonos,GeGrDi-Apo,34.6857531450773,32.9576851942679,7873
7874,11885,Ilia Venezi - Megalou Alexandrou,IlVe-MegAl,34.6862395206473,32.9560146158668,7874
7875,11886,Archiep. Makariou C - Parthenonos,ArMaC-Part,34.692262424822,32.9531836714887,7875
7876,11887,Parthenonos - Ifigeneias,Parth-Ifi?,34.6916569818648,32.9500505731864,7876
7877,11762,Doros,Doros,34.816088806264,32.9101528944442,7877
7878,11763,Laneia,Laneia,34.8228674914984,32.919265481458,7878
7879,11764,Andrea Vlami - Souni - Zanakia 2,AnVlamSoZa,34.7317433533031,32.8766992139979,7879
7880,11765,Dimokratias - Kolonakiou,Dim-Kol,34.6925707233832,32.9214120433947,7880
7881,11766,Dimokratias - Ethnikis Antistaseos,Di-EtAn,34.6924713855958,32.9211937770616,7881
7882,11767,Kyprou - Ammochostou 2,Kyp-Amm,34.6927471746892,32.9155707213527,7882
7883,11768,Kyprou - Ammochostou 1,Kyp-Amm,34.6927019944157,32.9154397507389,7883
7884,11769,Kyprou - Keryneias 2,Kyp-Ker,34.690754357032,32.9157692649862,7884
7885,11770,Kyprou - Keryneias 1,Kyp-Ker,34.6907362608556,32.9156819410541,7885
7886,11771,Kyprou - Dimokratias 2,Kyp-Dim,34.685749906133,32.9164730299914,7886
7887,11772,Kyprou - Dimokratias 1,Kyp-Dim,34.6857588117017,32.9163092641047,7887
7888,11773,Kyprou - Salaminos 2,Kyp-Sal,34.6832247141171,32.9162135628357,7888
7889,11774,Kyprou - Salaminos 1,Kyp-Sal,34.6832066032221,32.916104413135,7889
7890,11775,Ellados - Nikou Georgiou,El-NiGe,34.6813047052603,32.9173944837274,7890
7891,11776,Archiep. Makariou C - Pafou,ArMaC-Pa,34.6741751549812,32.9229248612639,7891
7892,11777,Archiep. Makariou C - 25 Martiou,ArMaC-2Ma,34.6742472154321,32.922793807077,7892
7893,11778,14 Street - 15 Street 1,14St-15St,34.6709575828936,32.9122855339159,7893
7894,11779,14 Street - 15 Street 2,14St-15St,34.6732216822085,32.913123639462,7894
7895,11780,Kremastis Rodou - Aisopou,KrRo-Ai,34.6760197417929,32.8935376829133,7895
7896,11781,Kremastis Rodou - Aristotelous,KrRo-Ar,34.6749844946738,32.8956348245429,7896
7897,11782,Kremastis Rodou - Konstantinou Kavafi,KrRo-KoKa,34.6747057302831,32.8965630067408,7897
7898,11784,Nikou Georgiou - Agiou Ermogenous,NiGe-AgEr,34.6735200499597,32.9022405519762,7898
7899,11785,Nikou Georgiou - Agiou Mamantos,NiGe-AgMa,34.6735742011949,32.9022950659976,7899
7900,11786,Alphamega Stadium 2,AlphaStadi,34.692985641057,32.9371118495247,7900
7901,11787,Alphamega Stadium 1,AlphaStadi,34.6928323931751,32.9372211460369,7901
7902,11788,Archangelos Michail Church 2,ArchMichCh,34.7378319296284,32.8876141401291,7902
7903,11789,Antoniou Volou - Souni - Zanakia 2,AnV-S-Za,34.7280257332521,32.8934055122395,7903
7904,11790,Papagiannopoulou Neokleous - Neas Peramou,PaNe-NePe,34.6993061268372,32.9350979886633,7904
7905,11791,Papacharalambous Ignatiou ?a? Neas Peramou,PaIg?aNePe,34.6994767795345,32.933820340325,7905
7906,11792,Giannou Kranidioti - Christodoulou Sozou,GiKr-ChSo,34.6986566994177,32.9348364439203,7906
7907,11793,Lofou - Ermou,Lof-Erm,34.6956129505257,32.9434425488877,7907
7908,11794,Theodorou Kolokotroni - Omirou 2,ThKo-Om,34.6956501470885,32.9459210073207,7908
7909,11796,Georgiou Sachtouri - Tefkrou,GeSa-Te,34.6985870161748,32.9619370010853,7909
7910,11797,Evagora Pallikaridi - Rizokarpasou 2,EvPa-Ri,34.7021324539076,32.9667507813649,7910
7911,11798,Evagora Pallikaridi - Karava,EvPa-Ka,34.7003025513139,32.9695358692827,7911
7918,11805,Agiou Georgiou Ave. - Agiou Nikolaou,AGe-ANi,34.6839776260843,32.960699161685,7918
7922,11809,Ilia Venezi - Kykladon 1,IlVe-Ky,34.6949507140144,32.9355272040965,7922
7923,11810,Ilia Venezi - Evagora Pallikaridi,IlVe-EvPa,34.6955533414894,32.9326224378125,7923
7924,11811,Garrison,Garrison,34.6752867495066,32.841426835953,7924
7925,11812,Kensington 1,Kensington,34.6734218132989,32.8359508096135,7925
7926,11813,Happy Valley,HappyValle,34.6719906924468,32.8187729343177,7926
7927,11814,Radio Sonde,RadioSonde,34.6726658030215,32.8120039188162,7927
7928,11815,Kensington 2,Kensington,34.6741465682036,32.8384381360929,7928
7929,11816,Apollon Hylates Sanctuary 2,ApoHylSan,34.6698845385619,32.8633763567973,7929
7930,11817,Apollon Hylates Sanctuary 1,ApoHylSan,34.6700594925535,32.8666396733466,7930
7944,11831,Fasouri Waterpark 1,FasouWater,34.6505873080823,32.9719002594414,7944
7945,11832,Fasouri Waterpark 2,FasouWater,34.6506684596507,32.9718565819348,7945
7950,11837,Giannou Kranidioti - Petraki Giallourou,GiKr-PeGi,34.6965736263113,32.9349472622824,7950
7951,11838,Agiou Sila - Lysiou,AgSi-Ly,34.6926811093731,32.96463646124,7951
7952,11839,Agiou Sila - Spartis 2,AgSi-Sp,34.6896592498249,32.9617773234468,7952
7953,11840,Ellados - Mytilinis 2,Ell-Myt,34.6922650858044,32.9607170808432,7953
7954,11841,Ellados - Kassandras 2,Ell-Kas,34.6960793161258,32.9596780222849,7954
7955,11842,Ypsonas Cemetery,YpsonCemet,34.6943560112994,32.957080311875,7955
7957,11844,Keryneias - Mpoumpoulinas,Ker-Mpo,34.6856031502259,32.9686351343185,7957
7958,11845,Trion Ierarchon - Evropis,TrIe-Ev,34.6871450217539,32.9679030927048,7958
7959,11846,Trion Ierarchon - Samou,TrIe-Sa,34.6872454328801,32.9729031902993,7959
7965,11852,1 Apriliou - Telamonos 2,1Ap-Te,34.6986854715778,32.9596330828465,7965
7969,11857,Aigyptou - Ilia Kannaourou,Aig-IliaKa,34.683096258086,32.9689744999743,7969
7970,11834,Ypsonas High School 2,YpsHigSch,34.6985927412885,32.9332969409607,7970
