stop_id,stop_code,stop_name,stop_desc,stop_lat,stop_lon,zone_id
5602,40100,Kryou Nerou Ave. - Marina Hotel 2,KN-MaH,34.9851780174399,34.0162183024577,5602
5603,40101,Kryou Nerou Ave. - Marina Hotel 1,KN-MaH,34.9852241979448,34.0160873994527,5603
5604,40102,Kryou Nerou Ave. - 2ndStop 1,KrNeAv-2n,34.9861748090721,34.0091419130705,5604
5605,40103,Kryou Nerou Ave. - 1st Stop,KN-1S,34.9868522646021,34.0068274771151,5605
5606,40104,Kryou Nerou Ave. - Melission,KrNeAv-Me,34.9876497856868,34.0041638620647,5606
5607,40191,Pinias - Perneras Ave. 2,PeAv-Pi,35.0329272508308,34.0317071028224,5607
5608,40192,Pinias - Perneras Ave. 1,PeAv-Pi,35.0327644981196,34.0317598696142,5608
5611,40195,Perneras - Ifaistou,Per-Ifa,35.0303215322415,34.0390847585814,5611
5612,40196,Perneras - Potami Beach,Pe-PoBe,35.0293124779146,34.0421413455937,5612
5613,40197,Afroditis - Athinas,Afr-Ath,35.0279662838955,34.0424531121357,5613
5614,40198,Perneras Ave. - 3rd Stop,PeAv-3rSt,35.0271555393389,34.0392091150548,5614
5617,40201,Protara - Kavo Gkreko Ave. - 8th Stop,Pr-KGk-8S,35.0234537511705,34.0387238168104,5617
5618,40202,Protara - Kavo Gkreko Ave. - 7th Stop,Pr-KGk-7S,35.0228784275872,34.0395715080463,5618
5619,40203,Protara - Kavo Gkreko Ave. - 10th Stop,Pr-KGk-1S,35.0211153390735,34.0411823632523,5619
5620,40204,Protara - Kavo Gkreko Ave. - Dionysou,Pr-KGk-Di,35.0187424764951,34.0444952580868,5620
5621,40205,Protara - Kavo Gkreko Ave. - Profiti Ilia,Pr-KGk-PrI,35.0185892060078,34.0444933088719,5621
5622,40206,Protara - Vrisi Beach,Pr-VrBe,35.0176241558379,34.0476595600232,5622
5623,40207,Protara - Sunrise Beach,Pr-SuBe,35.0152820487031,34.0526055766132,5623
5624,40208,Protara - Fig Tree Bay,Pr-FiTrBa,35.0114130577117,34.0568412003122,5624
5625,40209,Protara - Kavo Gkreko Ave. - 14th Stop,Pr-KGk-1S,35.0105343106267,34.055240773071,5625
5627,40211,Protara - Kavo Gkreko Ave. - 11th Stop,Pr-KGk-1S,35.0139016696138,34.0495739090244,5627
5629,40213,Protara - Kavo Gkreko Ave. - Dafnis,Pr-KGk-Da,35.0075474212569,34.0586106813672,5629
5630,40214,Protara - Kavo Gkreko Ave. - Amorgou,Pr-KGk-Am,35.0065769542827,34.0582255742268,5630
5631,40215,Protara - Kavo Gkreko Ave. - Symis,Pr-KGk-S,35.0022869766562,34.0600551685562,5631
5632,40216,Protara - Kavo Gkreko Ave. - Vyzakias,Pr-KGk-Vy,35.001010579138,34.0616605171154,5632
5633,40217,Protara - Kavo Gkreko Ave. - 16th Stop,Pr-KGk-1S,34.9968767879216,34.0641821670893,5633
5634,40218,Protara - Kavo Gkreko Ave. - 15th Stop,Pr-KGk-1S,34.9961666305734,34.0649619160243,5634
5635,40219,Konnou - Iras 1,Kon-Ira,34.9937441528371,34.0676917511042,5635
5636,40220,Konnou - Kirkis 1,Kon-Kir,34.9908826387201,34.070097962071,5636
5637,40221,Konnou - Kirkis 2,Kon-Kir,34.9907938318521,34.0699434107199,5637
5638,40222,Konnou - Grecian Park Hotel 1,Ko-GrPaHo,34.9865315927135,34.068606066817,5638
5639,40223,Konnou - Grecian Park Hotel 2,Ko-GrPaHo,34.9866236799533,34.068388138255,5639
5640,40224,Konnos Beach 2,KonnoBeach,34.9841597211068,34.0666031761156,5640
5647,40309,Konnos Beach 1,KonnoBeach,34.9836719963986,34.066695453237,5647
5648,40310,Kavo Gkreko 1,KavoGkrek,34.9705345394966,34.0697456150521,5648
5649,40311,Kavo Gkreko 2,KavoGkrek,34.9705899857423,34.0695929781718,5649
5650,40312,Protara - Kavo Gkreko Ave. - 22th Stop,Pr-KGk-2S,34.9759988698181,34.0553124407359,5650
5651,40313,Protara - Kavo Gkreko Ave. - 20th Stop,Pr-KGk-2S,34.9838880975436,34.0595221375093,5651
5652,40314,Protara - Kavo Gkreko Ave. - 19th Stop,Pr-KGk-1S,34.9832500701867,34.0592728892512,5652
5653,40315,Protara - Kavo Gkreko Ave. - 21th Stop,Pr-KGk-2S,34.9754971180786,34.0549444955894,5653
5654,40316,Protara - Kavo Gkreko Ave. - 24th Stop,Pr-KGk-2S,34.9748981073246,34.0470603677521,5654
5655,40317,Protara - Kavo Gkreko Ave. - 23th Stop,Pr-KGk-2S,34.9747703266991,34.0461933191429,5655
5656,40318,Protara - Kavo Gkreko Ave. - 25th Stop,Pr-KGk-2S,34.9751913616881,34.0423206848316,5656
5657,40319,Protara - Kavo Gkreko Ave. - 26th Stop,Pr-KGk-2S,34.9754110356941,34.0419400501325,5657
5658,40320,Kavo Gkreko - 1st Stop,KGkSt-1S,34.9862412921789,34.0173818513805,5658
5662,40324,Kryou Nerou Ave. - 6th Stop,KN-6S,34.9767808300189,34.0367647360049,5662
5663,40325,Ammos Tou Kampouri Beach 2,AmToKaBe,34.9791072501221,34.0261455000505,5663
5664,40326,Kryou Nerou Ave. - 4th Stop,KN-4S,34.9820574981272,34.0184475765102,5664
5665,40347,Dionysiou Solomou - Kryou Nerou Ave.,DiSo-KN,34.988509611231,34.0026842659282,5665
5666,40361,Kokkines - Ioanninon,Kok-Ioa,34.9980483380804,34.0028334879182,5666
5668,40363,Kokkines - Melinas Merkouri,Ko-MeMe,35.0023953435603,34.004913842598,5668
5670,40365,Spyrou Kyprianou - Kokkines 1,SpKy-Ko,35.0056418047562,34.0070466888316,5670
5672,40367,Spyrou Kyprianou - Kosti Palama,SpKy-KoPa,35.0021841437073,34.0129656918188,5672
5674,40369,Stadiou - 1st Stop,St-1sSt,34.9928820178759,34.0103966552571,5674
5676,40371,Kavo Gkreko - 3rd Stop,KGkSt-ANPo,34.9922592107173,34.0028614801648,5676
5677,40372,Kavo Gkreko - 2nd Stop,KGkSt-2S,34.9874815474433,34.0124777537331,5677
5678,40373,Stadiou - 3rd Stop,St-3rSt,34.9887969877301,34.014761971969,5678
5679,40374,Paralimni - Agia Napa Road - 1st Stop,Pa-ANR-1S,34.9971779850825,34.0001272623057,5679
5680,40077,Griva Digeni Ave. - Thessalonikis,GrDiAv-Th,35.0496928169388,33.9768638464953,5680
5682,40079,Griva Digeni Ave. - Konstantinoupoleos 1,GrDiAv-Ko,35.0424229594287,33.9793757203186,5682
5683,40080,Paralimni Square Bus Station,ParSquBus,35.0394760084475,33.983638211908,5683
5684,40174,Agia Varvara Church 2,AgiVarChu,35.0456960731696,34.0025603014262,5684
5685,40175,Agia Varvara Church 1,AgiVarChu,35.0451536141066,34.0016436482031,5685
5686,40176,Protara Ave. - 4th Stop,PrAv-4tSt,35.0474471006079,34.0067043351779,5686
5687,40177,Ave. Protara - Antaiou,AvPr-An,35.047679423153,34.0069593691173,5687
5688,40178,Protara Ave. - 6th Stop,PrAv-6tSt,35.0484551551314,34.0090960209171,5688
5689,40179,Protara Ave. - 5th Stop,PrAv-5tSt,35.0487307058956,34.0106563870134,5689
5690,40180,Protara Ave. - 6th Stop,PrAv-6tSt,35.0484251890754,34.0126920356441,5690
5691,40181,Agia Triada Beach 1,AgiTriBea,35.0487842831874,34.0171919651821,5691
5692,40182,Agia Triada Beach 2,AgiTriBea,35.0486137156564,34.0171021335341,5692
5693,40183,Vrysoudion - 1st Stop,Vr-1sSt,35.0474199146587,34.0250255859767,5693
5694,40184,Vrysoudion - 2nd Stop,Vr-2nSt,35.0471302007719,34.0251645035037,5694
5695,40185,Louma Beach 1,LoumaBeach,35.0437744623301,34.029595864433,5695
5696,40186,Louma Beach 2,LoumaBeach,35.0434305548747,34.029745043708,5696
5697,40187,Vrysoudion - 3rd Stop,Vr-3rSt,35.0420019263709,34.0312729978072,5697
5698,40188,Vrysoudion - 4th Stop,Vr-4tSt,35.0418758899428,34.0312494864957,5698
5699,40189,Paralimni Port 1,ParalPort,35.0365762414445,34.0352172685473,5699
5700,40190,Paralimni Port 2,ParalPort,35.0366222562559,34.0351082191561,5700
5701,40225,Protara Ave. - Psychari,PrAv-Ps,35.0441186403956,33.9981225274155,5701
5702,40226,Protara Ave. - 3rd Stop,PrAv-3rSt,35.043264871686,33.9944830878536,5702
5703,40227,Protara Ave. - 2nd Stop,PrAv-2nSt,35.043076613677,33.9943492396182,5703
5704,40228,Protara Ave. - 1st Stop,PrAv-1sSt,35.0422200103053,33.9921461048547,5704
5705,40229,B´ Paralimni Elementary School 2,BPaElSc,35.0414428746177,33.9912486515845,5705
5706,40230,B´ Paralimni Elementary School 1,BPaElSc,35.0407676818496,33.9900125745783,5706
5707,40283,Meg. Alexandrou - Mpoumpoulinas,MeAl-Mp,35.0465233890033,33.997362348412,5707
5708,40284,Meg. Alexandrou - Psaron,MeAl-Ps,35.0466218439286,33.9974512601048,5708
5709,40285,Meg. Alexandrou - Angelou Sikelianou,MeAl-AnSi,35.0489293528329,33.9942557022451,5709
5710,40286,Meg. Alexandrou - Ifigeneias,MeAl-If,35.048864623192,33.9944522816659,5710
5711,40287,Giorki Papadopoulou - Apollonos,GiPa-Ap,35.0528894716369,33.9951480211783,5711
5712,40288,Giorki Papadopoulou - Meg. Alexandrou,GiPa-MeAl,35.0528877624669,33.9953563392032,5712
5713,40289,Giorki Papadopoulou - Parnithos 2,GiPa-Pa,35.0557476108424,34.0006545216086,5713
5714,40290,Giorki Papadopoulou - Parnithos 1,GiPa-Pa,35.0569030275706,34.0026863124554,5714
5715,40291,Kappari Ave. - 1st Stop,KaAv-1sSt,35.0562959507893,34.0063085184796,5715
5716,40292,Kappari Ave. - 2nd Stop,KaAv-2nSt,35.0562627063173,34.0059681758428,5716
5717,40293,Kappari Ave. - 4th Stop,KaAv-4tSt,35.0526824062406,34.0114616689817,5717
5718,40294,Kappari Ave. - 3rd Stop,KaAv-3rSt,35.0538386700199,34.0101271942747,5718
5719,40295,Kappari Ave. - 5th Stop,KaAv-5tSt,35.0510726216514,34.0141940185032,5719
5720,40296,Kappari Ave. - 6th Stop,KaAv-6tSt,35.0497845621377,34.0151100988854,5720
5728,40328,Famagusta Police Headquarters 2,FamPolHead,35.0519977430046,33.9873081333618,5728
5729,40329,Paralimni Lyceum,ParalLyceu,35.0521392278799,33.9809829675599,5729
5731,40331,1 Apriliou Ave. - Marias Sygklitikis,1Ap-MaSy,35.0361203821115,33.9782261391108,5731
5732,40332,1 Apriliou Ave. - Agiou Nektariou,1Ap-ANe,35.0327728504195,33.9796223370255,5732
5733,40333,C´ Paralimni Elementary School,CPaElSc,35.0336524783339,33.9823515700069,5733
5735,40335,Dimitras - Thermopylon,Dim-The,35.0387505159662,33.9885849365531,5735
5739,40340,1 Apriliou Ave.  - 1st Stop,1Ap-1S,35.0264177759562,33.9827363571279,5739
5740,40341,Paralimni - Agia Napa Road - 10th Stop,Pa-ANR-1S,35.0196789605158,33.9864591030316,5740
5741,40342,Paralimni - Agia Napa Road - 8th Stop,Pa-ANR-8S,35.0133850234095,33.9908990077119,5741
5742,40343,Paralimni - Agia Napa Road - 6th Stop,Pa-ANR-6S,35.0101128922506,33.9940816303758,5742
5743,40376,Paralimni - Agia Napa Road - 5th Stop,Pa-ANR-5S,35.0100875492294,33.9938730935711,5743
5744,40377,Paralimni - Agia Napa Road - 7th Stop,Pa-ANR-7S,35.0140634788195,33.9895262295049,5744
5745,40378,Paralimni - Agia Napa Road - 9th Stop,Pa-ANR-9S,35.0201249341536,33.985949300711,5745
5746,40379,1 Apriliou Ave.  - 2nd Stop,1Ap-2S,35.0275486010699,33.9822785336421,5746
5750,40420,1 Apriliou Ave. - Cheimaras,1ApAv-Ch,35.0461075260558,33.9775557668991,5750
5751,40421,1 Apriliou Ave. - Alikarnassou,1ApAv-Al,35.0382325281524,33.9779553054319,5751
5753,40423,Paralimni Lyceum,ParalLyceu,35.0522566137068,33.9809624411131,5753
5754,40424,Giorki Papadopoulou - Christou Tsiarta,GiPa-ChTs,35.0521485262805,33.9920359086308,5754
5757,40436,Griva Digeni Ave. - Daidalou,GrDiAv-Da,35.0500492091422,33.9762759889819,5757
5758,40028,Apostolou Varnava - Ydragogeiou,ApVa-Yd,35.0420312889528,33.9152108890602,5758
5759,40029,Apostolou Varnava - Rigainis,ApVa-Ri,35.0416354846576,33.9150858731906,5759
5762,40032,Michalaki Karaoli - Pampou Tragkoula,MiKa-PaTr,35.0416938880546,33.9216647959954,5762
5763,40033,Michalaki Karaoli - Nikou Kazantzaki,MiKa-NiKa,35.0417293698886,33.9217419410126,5763
5764,40034,Archiep. Makariou C´ - 2nd Stop,ArMaC-2S,35.0462301276684,33.9286671696292,5764
5765,40035,Archiep. Makariou C´ - 1st Stop,ArMaC-1S,35.0459340201236,33.9284774243344,5765
5766,40036,Archiep. Makariou C´ - Alakatis,ArMaC-Al,35.0606665900818,33.9541847085198,5766
5767,40037,Archiep. Makariou C´ - Anagenniseos,ArMaC-An,35.0606652960502,33.9543491877211,5767
5768,40038,Archiep. Makariou C´ - Promitheos,ArMaC-Pr,35.0623908345308,33.9596441623166,5768
5769,40039,Archiep. Makariou C´ - Stadiou,ArMaC-St,35.062309950079,33.9596103162169,5769
5770,40040,Eleftherias - Ammochostou Ave.,El-AmAv,35.0627926359819,33.9612828824197,5770
5771,40041,Famagusta General Hospital,FamGenHos,35.0616307747604,33.9713035177178,5771
5772,40070,Agias Triados - 1 Apriliou,AgTr-1Ap,35.0376591622414,33.9150634637312,5772
5773,40071,Foti Pitta - Petrou Peskesi,FoPi-PePe,35.0375544957556,33.9181758554259,5773
5774,40072,Foti Pitta - Akropoleos,FoPi-Ak,35.0385029940405,33.919140278821,5774
5777,40076,Eleftherias - Nikodimou Mylona,El-NiMy,35.0541375220769,33.9724538651353,5777
5778,40083,Foti Pitta Ave. - Panou Ioannou,FP-PIo,35.0411111940593,33.9235878635063,5778
5779,40084,Archiep. Makariou C´ - Arch. Michail,ArMaC-AMi,35.0419016984575,33.9239804936817,5779
5780,40085,Strovilia Crossing Point 2,StrCroPoi,35.0954487285788,33.8994057982673,5780
5781,40086,Strovilia Crossing Point 1,StrCroPoi,35.0954765908797,33.8992963942237,5781
5782,40087,Strovilia 2,Strovilia,35.0845894913013,33.8801337331476,5782
5783,40088,Strovilia 1,Strovilia,35.0847243369424,33.8801900296086,5783
5784,40089,Vrysoulles - Strovilia 1,Vry-Str,35.0811129849965,33.8733394241728,5784
5785,40090,Vrysoulles -  2,Vryso-,35.0812750408728,33.8733740587421,5785
5786,40091,Acheritou - Vasou Sergiou,Ac-VaSe,35.075521385989,33.8809686527143,5786
5787,40092,Acheritou - Sotiri Sotiriou,Ac-SoSo,35.075440876991,33.880880040634,5787
5788,40093,Acheritou Community Board 2,AchComBoa,35.0735517786031,33.8827462486094,5788
5789,40094,Acheritou Community Board 1,AchComBoa,35.0731464434631,33.881447655786,5789
5790,40095,Kosta Ilia - Andrea Mantoles 2,KoIl-AnMa,35.0704918005876,33.8794668640115,5790
5791,40096,Kosta Ilia - Andrea Mantoles 1,KoIl-AnMa,35.0708261183207,33.8793717412675,5791
5792,40097,Giasoumi Kile - Dionysiou Solomou 2,GiKi-DiSo,35.0444912977107,33.9201941271829,5792
5793,40098,Giasoumi Kile - Dionysiou Solomou 1,GiKi-DiSo,35.0449024301976,33.9194860640343,5793
5794,40153,Agias Theklas - Konstantinou Palaiologou,AgTh-KoPa,35.0236072401285,33.948393792784,5794
5795,40154,Agias Theklas - Apostolou Andrea,AgTh-ApAn,35.0234269167761,33.9483917101869,5795
5796,40155,1 Apriliou - Dimokratias,1Ap-Di,35.0280493934788,33.951108850971,5796
5797,40156,Eleftheria Square,EleftSquar,35.0277749558078,33.9516099188182,5797
5798,40157,Ammochostou 1,Ammochosto,35.0362902529368,33.9546357621689,5798
5799,40158,Ammochostou 2,Ammochosto,35.0370190931687,33.9548306123992,5799
5800,40159,Apostolos Varnavas Church 2,ApoVarChu,35.0492652936546,33.9569687075452,5800
5801,40160,Apostolos Varnavas Church 1,ApoVarChu,35.0498224757317,33.9572054685385,5801
5802,40161,Anagennisis Stadium,AnageStadi,35.051905109179,33.9572407350655,5802
5803,40162,C´ Deryneia Elementary School 1,CDeElSc,35.0578854780643,33.9581110436136,5803
5804,40163,C´ Deryneia Elementary School 2,CDeElSc,35.0584349398956,33.9581832587025,5804
5805,40166,Stadiou - Vasili Michailidi,St-VaMi,35.0273628300326,33.9408625374903,5805
5806,40167,Stadiou - Louki Akrita,St-LoAk,35.0272544658782,33.9408832193972,5806
5807,40168,Stadiou - Apostolou Petrou,St-ApPe,35.028191446269,33.946780526591,5807
5808,40169,Stadiou - Theod. Kolokotroni,St-ThKo,35.0280811994521,33.9470423417539,5808
5809,40170,Paralimniou - Grigori Afxentiou 2,Pa-GrAf,35.0265959257223,33.9582061769515,5809
5810,40171,Paralimniou - Grigori Afxentiou 1,Pa-GrAf,35.0263790190988,33.9582694158249,5810
5811,40172,Paralimniou 1,Paralimnio,35.0245947119121,33.9660969938699,5811
5812,40173,Paralimniou 2,Paralimnio,35.0247501671493,33.9658247860866,5812
5813,40383,Apost. Andrea - Ag. Theodorou 2,ApAn-AgTh,35.0227660968111,33.9510257333584,5813
5814,40384,Kyriakou Matsi - Tzon Kennenty,KyMa-TzKe,35.024366810477,33.9538723220818,5814
5815,40385,Kyriakou Matsi - Archiep. Makariou C´,KyM-ArMaC,35.0258222131273,33.9556978975199,5815
5816,40386,Kyriakou Matsi - Agiou Antoniou,KyMa-AgAn,35.0257136740845,33.9557404806582,5816
5817,40387,Kyriakou Matsi - Konstantinoupoleos,KyMa-Ko,35.0241963650892,33.953760728033,5817
5818,40388,Apost. Andrea - Ag. Theodorou 1,ApAn-AgTh,35.0226165146183,33.9505526693345,5818
5819,40389,Archiep. Makariou C´  - Christ. Karona,ArMaC-ChKa,35.0576789867598,33.949971944832,5819
5830,40400,Agias Triados - Mesaorias,AgTr-Me,35.0373051311327,33.9153774494961,5830
5837,40413,Deryneia (Green Line) 1,DerGrLin,35.0692567433799,33.9602729004632,5837
5838,40415,Ammochostou Ave. - Eleftheriou Iakovou,AmAv-ElIa,35.0639150603851,33.9607367391095,5838
5839,40416,Ammochostou Ave. - Dim. Christodoulou 2,AmAv-DiCh,35.0663764483538,33.960765581437,5839
5840,40417,Ammochostou Ave. - Dim. Christodoulou 1,AmAv-DiCh,35.0666729361939,33.9609006608574,5840
5841,40430,Eleftherias - Agiou Stylianou,El-AgSt,35.0589530333582,33.9667537938205,5841
5842,40431,Eleftherias - Ippokratous,Ele-Ipp,35.0588054546306,33.9671687629106,5842
5843,40432,Eleftherias - Afroditis,Ele-Afr,35.061678409114,33.9630683116465,5843
5844,40433,Eleftherias - Daidalou,Ele-Dai,35.0611933274601,33.9639728211771,5844
5845,40434,Eleftherias - Grigori Afxentiou,El-GrAf,35.0570790045973,33.9699556448853,5845
5846,40435,Eleftherias - Kyriakou Matsi,El-KyMa,35.0558775661069,33.9713560020056,5846
5847,40105,Agia Napa Monastery 1,AgiNapSqu,34.9883845142944,34.0003599456526,5847
5848,40106,Agia Napa Monastery 2,AgiNapSqu,34.9883223044173,34.0002496230693,5848
5849,40107,Nisi Ave. - Katalymmata,NiAv-Ka,34.9873425670791,33.9954826080579,5849
5850,40108,Nisi Ave.  - Giouri Gkagkarin,NiAv-GiGk,34.9873223873429,33.9935430728798,5850
5851,40109,Ave. Nisi Ave. - Agias Mavris 1,N-AMa,34.9880344627944,33.9880514914729,5851
5852,40110,Ave. Nisi Ave. - Agias Mavris 2,N-AMa,34.988266371929,33.9872544479127,5852
5853,40111,Nisi Ave. - Isaak kai Solomou,N-IkSo,34.9887921376311,33.9835793257224,5853
5854,40112,Nisi Ave. - Vatheias Gonias,NiAv-VaGo,34.9887406438684,33.9821433888594,5854
5855,40113,Nisi Ave. - Neofytou Poullou,NiAv-NePo,34.9893875070241,33.9768480544883,5855
5856,40114,Nisi Ave. - Asprovounou,NiAv-As,34.9901012084762,33.9744350728441,5856
5857,40115,Nisi Ave. - Sotou Chatziprokopiou,NiAv-SoCh,34.9901185293082,33.9711482252412,5857
5858,40116,Nissi Bay Beach 1,NisBayBea,34.9895128732205,33.9690811996641,5858
5859,40117,Nissi Bay Beach 2,NisBayBea,34.9889263480932,33.9668719922403,5859
5860,40118,Landa Beach 1,LandaBeach,34.9888564571742,33.9609107339364,5860
5861,40119,Landa Beach 2,LandaBeach,34.9889841529387,33.9595864648807,5861
5862,40120,Makronissos Beach 2,MakroBeach,34.9885022885725,33.9555159262288,5862
5863,40121,Makronissos Beach 1,MakroBeach,34.9877771925902,33.9513987930417,5863
5864,40122,Agias Theklas - 2nd Stop,AgTh-2nSt,34.9868988007468,33.9484194348787,5864
5865,40123,Agias Theklas - 1st Stop,AgTh-1sSt,34.9849658620396,33.9453732347674,5865
5866,40124,Agias Theklas - 4th Stop,AgTh-4tSt,34.9851284101408,33.9453422347931,5866
5867,40125,Agias Theklas - Waterpark 1,AgiNapWat,34.9838938954213,33.9429177138032,5867
5868,40141,Agia Thekla Tourist Area - 7th Stop,AThToA-7S,34.9755422964996,33.9040304833861,5868
5869,40142,Agia Thekla Tourist Area - 10th Stop,AThToA-1S,34.9755503720545,33.9053670791322,5869
5870,40143,Agia Thekla Tourist Area - 5th Stop,AThToA-5S,34.9760794253625,33.9093824474811,5870
5871,40144,Agia Thekla Tourist Area - 8th Stop,AThToA-8S,34.9765149879508,33.9102198499703,5871
5872,40145,Agia Thekla Tourist Area - 6th Stop,AThToA-6S,34.9776457629352,33.9157318956597,5872
5873,40146,Agia Thekla Tourist Area - 3rd Stop,AThToA-3S,34.9789935906198,33.9211260117565,5873
5874,40147,Agia Thekla Tourist Area - 4th Stop,AThToA-4S,34.9795685884292,33.922589531504,5874
5875,40148,Agia Thekla Tourist Area - 1st Stop,AThToA-1S,34.9810145328111,33.9280835914121,5875
5876,40149,Agia Thekla Tourist Area - 2nd Stop,AThToA-2S,34.9813556090416,33.9294678612868,5876
5877,40150,Agia Thekla Beach 1,AgiTheBea,34.9808155572513,33.9340412192035,5877
5878,40151,Agia Thekla Beach 2,AgiTheBea,34.9811115683032,33.9354140413884,5878
5879,40152,Agias Theklas - 6th Stop,AgTh-6tSt,34.9835452322294,33.9413689201032,5879
5880,40344,Paralimni - Agia Napa Road - 4th Stop,Pa-ANR-4S,35.002389368232,33.9990838762707,5880
5881,40345,Paralimni - Agia Napa Road - 2nd Stop,Pa-ANR-2S,34.9971214509638,34.0004224335575,5881
5882,40346,Dimokratias,Dimokratia,34.9925571520971,34.0006298590567,5882
5883,40348,Evagora Pallikaridi - Kassandrou,EvPa-Ka,34.9839745546796,33.9971509723006,5883
5884,40349,Sotou Chatziprokopiou - Highway Exit,SoChHiEx,34.9909892316351,33.9648582554229,5884
5885,40350,Tefkrou Anthia - 6th Stop,TeAn-6tSt,34.9966888433849,33.9647498293212,5885
5887,40352,Tefkrou Anthia - 4th Stop,TeAn-4tSt,34.9945349526905,33.9747615616195,5887
5889,40354,Tefkrou Anthia - 2nd Stop,TeAn-2nSt,34.9946672692293,33.9807239800139,5889
5890,40355,Tefkrou Anthia - Isaak kai Solomou 2,TeAn-IkSo,34.9932657261751,33.9856599372589,5890
5892,40357,Tefkrou Anthia - Kataspilion 2,TeAn-Ka,34.9933483453494,33.9899123433909,5892
5895,40360,Ag. Napa Public Kindergarden,AgNaPuKi,34.9932894483739,33.9993019896785,5895
5896,40375,Paralimni - Agia Napa Road - 3rd Stop,Pa-ANR-3S,35.0024100154508,33.9987663321649,5896
5899,40405,Agia Napa Harbour 1,AgiNapHar,34.9850286357056,34.0005491993082,5899
5900,40406,Agia Napa Harbour 2,AgiNapHar,34.9840255928921,34.0008108955165,5900
5901,40427,Agias Theklas - Waterpark 2,AgiNapWat,34.9839579449415,33.9427979315675,5901
5902,40014,Technical and Agriculture School of Famagusta 2,TeaAgScoFa,35.0459327411789,33.8277475273236,5902
5903,40015,Technical and Agriculture School of Famagusta 1,TeaAgScoFa,35.045922602569,33.8279118916693,5903
5904,40016,B´ Avgorou Elementary School 2,BAvElSc,35.042942871871,33.8324647969131,5904
5905,40017,B´ Avgorou Elementary School 1,BAvElSc,35.04175434381,33.8335272003165,5905
5906,40018,Agios Georgios Church 2,AgiGeoChu,35.0375050492655,33.8403909284225,5906
5907,40019,Agios Georgios Church 1,AgiGeoChu,35.0374876997809,33.8402920810549,5907
5908,40020,A´ Avgorou Elementary School 2,AAvElSc,35.0331620208623,33.8399298807102,5908
5909,40021,A´ Avgorou Elementary School 1,AAvElSc,35.0332075582365,33.839864570256,5909
5910,40022,1st Stop Avgorou Settlement,1sStAvSe,35.0265419991143,33.8388427052488,5910
5911,40023,2nd Stop Avgorou Settlement,2nStAvSe,35.0255798052345,33.8371557332918,5911
5912,40024,Xanthou Samara - Salaminos,XaSa-Sa,35.0334175454486,33.8420921585988,5912
5913,40025,Xanthou Samara - Christou Tsiarta,XaSa-ChTs,35.0332738153199,33.8420139450077,5913
5914,40026,Ammochostou - Dimitriou Chamatsou,Am-DiCh,35.0366321781291,33.8453263879954,5914
5915,40027,Ammochostou - Charalampou Mouskou,Am-ChMo,35.0366492943559,33.8454581225036,5915
5916,40063,Sokratous - Georgiou Karyou,So-GeKa,35.0079859617547,33.8905785745103,5916
5917,40064,Sokratous - Christou Samara,So-ChSa,35.0083565963918,33.8904510794218,5917
5918,40065,Achyronos - Konstantinou Kanari,Ac-KoKa,35.0059737842835,33.8932198137256,5918
5919,40066,28 Oktovriou - 9 Iouliou,28Ok-9Io,35.005078034824,33.8924100755898,5919
5920,40067,Achyronas Liopetriou 2,AchyrLiope,35.0078923272399,33.8935036927081,5920
5921,40068,Modestou Panteli - Dionysiou Solomou 1,MoPa-DiSo,35.0123587750073,33.894319460456,5921
5922,40069,Modestou Panteli - Dionysiou Solomou 2,MoPa-DiSo,35.0118637655145,33.8941935136899,5922
5923,40082,Achyronas Liopetriou 1,AchyrLiope,35.008534341854,33.8932586084875,5923
5924,40136,Christou Samara 2,ChrisSamar,35.0106963989755,33.8849198812667,5924
5925,40137,Christou Samara 1,ChrisSamar,35.0106534742113,33.8846235076786,5925
5926,40138,Liopetri Square 1,LiopeSquar,35.0096770901103,33.8923613908029,5926
5927,40139,Michail Koutsofta - Mpoumpoulinas,MiKo-Mp,35.0043678283111,33.8933448222245,5927
5928,40140,Liopetri Community Stadium,LioComSta,35.0003162791439,33.8925117854317,5928
5929,40164,1 Apriliou - Thessalonikis,1Ap-Th,35.0114412157301,33.8964685467186,5929
5930,40165,1 Apriliou - Andrea Karyou,1Ap-AnKa,35.0112885049205,33.8963901621194,5930
5931,40407,Michail Karaoli - Petraki Giallourou 2,MiKa-PeGi,35.0399526712081,33.8372036469139,5931
5932,40408,Michail Karaoli - Petraki Giallourou 1,MiKa-PeGi,35.0398174249568,33.8372022672384,5932
5933,40001,Xylotymvou Public Kindergarden,XylPubKin,35.010274497604,33.7346140491871,5933
5934,40002,British Base (near highway exit),BrBa?hiex,35.0044219903979,33.7271863299191,5934
5935,40003,Xylotymvou City Hall 2,XylCitHal,35.0169418173936,33.7429051216765,5935
5936,40004,Archiep. Makariou C´ Ave. - Andrea Souroukli,ArMaC-AnSo,35.0194070834731,33.7452621075565,5936
5937,40005,Archiep. Makariou C´ Ave. - Kostaki Pantelidi,ArMaC-KoPa,35.022400837628,33.7481830769859,5937
5938,40006,Dasaki Achnas Stadium 1,DasAchSta,35.0331747438975,33.7629166017368,5938
5939,40007,Dasaki Achnas Stadium 2,DasAchSta,35.0329893090036,33.7637261235598,5939
5940,40008,Griva Digeni - Grigori Afxentiou,GrDi-GrAf,35.0319542625082,33.7662817504497,5940
5941,40009,Dasos Achnas Square 1,DasAchSqu,35.0295352483052,33.769514977553,5941
5942,40010,Dasos Achnas Square 2,DasAchSqu,35.0292431016362,33.7700822772254,5942
5943,40011,Arch. Michail and Agia Marina Church 2,AMiaAMaCh,35.0270480051101,33.7735366343891,5943
5944,40012,Arch. Michail and Agia Marina Church 1,AMiaAMaCh,35.0268866149819,33.7733926086318,5944
5945,40013,Charalampou Mouskou - Achna Roundabout,ChMo-AcRo,35.025882776957,33.7794888829559,5945
5946,40042,Griva Digeni - Achna Roundabout,GrDi-AcRo,35.0249768187168,33.7787458498129,5946
5947,40043,Archiep. Makariou C´ Ave. - Salaminos,ArMaC-Sa,35.0221488447801,33.7481040518644,5947
5948,40044,Archiep. Makariou C´ Ave. - Christou Samara,ArMaC-ChSa,35.0184371874233,33.7446175780191,5948
5949,40045,Xylotymvou City Hall 1,XylCitHal,35.0168054268885,33.7430902188198,5949
5950,40046,2nd Stop E.A.C. Dhekelia,2nStE.Dh,34.9836893020752,33.7424402786189,5950
5951,40047,1st Stop E.A.C. Dhekelia,1sStE.Dh,34.9836261851287,33.7424397088326,5951
5952,40048,4th Stop E.A.C. Dhekelia,4tStE.Dh,34.983641496446,33.7443571832207,5952
5953,40049,3rd Stop E.A.C. Dhekelia,3rStE.Dh,34.9836511175971,33.7442586644351,5953
5954,40050,Andrea Karkavitsa - Vattainas,AnKa-Va,34.999500986705,33.7620779128104,5954
5955,40051,Andrea Karkavitsa - Eirinis,AnKa-Ei,34.9995321623323,33.7614207033304,5955
5956,40052,Vattainas - Dim. Christodoulou 2,Va-DiCh,34.9956544355017,33.7700523950113,5956
5957,40053,Vattainas - Dim. Christodoulou 1,Va-DiCh,34.9955449151679,33.7702595667156,5957
5958,40054,Dimokratias - Metochiou,Dim-Met,34.9924086014531,33.7784810650063,5958
5959,40055,Dimokratias - Pallesi,Dim-Pal,34.9924982757911,33.7785586156136,5959
5960,40056,Anexartisias - Mpelogianni,Ane-Mpe,34.9906012237618,33.7860900935733,5960
5961,40057,Anexartisias - Theod. Kolokotroni,An-ThKo,34.9905843255142,33.7859146185038,5961
5962,40058,Anastasi Manoli - Ermou,AnMa-Er,34.9774780145623,33.8404235757601,5962
5963,40059,Anastasi Manoli - Grigori Afxentiou,AnMa-GrAf,34.9773969418629,33.8404117921819,5963
5964,40060,Eleftherias - Andrea Kazi,El-AnKa,34.97750483052,33.8495277007459,5964
5965,40061,Nikou Theofanous - Champi Michailidi,NiTh-ChMi,34.982793886725,33.8539537716101,5965
5966,40062,Nikou Theofanous - Ioanni Kapodistria,NiTh-IoKa,34.9857576473551,33.8569208585815,5966
5967,40081,Nikou Theofanous - Georgiou Karaiskaki,NiTh-GeKa,34.980536051116,33.8518925705356,5967
5968,40126,Zacharia Spyrou - Stavrou Neofytou,ZaSp-StNe,35.0137064593712,33.7470188233288,5968
5969,40127,Zacharia Spyrou - Kyriakou Savva,ZaSp-KySa,35.0136074785544,33.7469850426685,5969
5970,40128,Vattainas - Artemidos 2,Vat-Art,34.9968355500802,33.7672253520548,5970
5971,40129,Vattainas - Artemidos 1,Vat-Art,34.9968460207759,33.7669953329167,5971
5972,40130,Meg. Alexandrou Ave. - Agias Triados,MAl-ATr,34.9742231321976,33.8403793694813,5972
5973,40131,Meg. Alexandrou Ave. - Efth. Efthymiou,MAl-EEf,34.9743306479366,33.8404790616462,5973
5974,40132,Panagias - Giorgalli 2,Pan-Gio,34.9736326092317,33.8436159532585,5974
5975,40133,Panagias - Giorgalli 1,Pan-Gio,34.9735334277254,33.8436149362514,5975
5976,40134,Michali Vrachimi - Potamou 2,MiVr-Po,34.9751943122973,33.8549703761126,5976
5977,40135,Michali Vrachimi - Potamou 1,MiVr-Po,34.9751410618299,33.8548493180133,5977
6102,20272,Old Hospital,OldHospi,34.9170651225385,33.6298917314463,6102
6161,20354,Archiep. Makariou C´ Ave. - Golgon,ArMaC-Go,34.9281285866492,33.6369726300189,6161
6162,20355,Archiep. Makariou C´ Ave. - Salaminos 2,ArMaC-Sa,34.9259738126869,33.6369012336907,6162
6164,20359,New Hospital 2,NewHospi,34.9217524628238,33.6035755347927,6164
6168,20363,Georg. Griva Digeni Ave. - 1 Apriliou Ave.,GeGDi-1Ap,34.9179424535888,33.6206149027479,6168
6169,20364,Georg. Griva Digeni Ave. - Agias Lavras,GeGDi-ALa,34.9173935387577,33.622154366988,6169
6172,20369,Municipal Library 1,MunicLibra,34.9163428757828,33.6248175920962,6172
6288,20671,G.S.Z. Stadium 2,G.S.ZStadi,34.9254124078872,33.6019819468802,6288
6324,20724,G.S.Z. Stadium 1,G.S.ZStadi,34.9251981674185,33.6015424405138,6324
6325,20725,Archiepiskopou Paisiou,ArchiPaisi,34.9218408687037,33.6002917535577,6325
6326,20726,Agios Georgios Church 1,AgiGeoChu,34.9228559002927,33.6083351448841,6326
6327,20727,New Hospital 1,NewHospi,34.922015733272,33.6050335619743,6327
6330,21003,American Academy 2,AmeriAcade,34.9182814217503,33.6266057953971,6330
6345,21036,Pancyprian Lyceum,PancyLyceu,34.917629845022,33.6305419493315,6345
6367,21063,Georg. Griva Digeni Ave. - Ag. Georgios Church 1,GeGDi-AGeC,34.9232927989392,33.6111192329806,6367
6371,21067,Georg. Griva Digeni Ave. - Thessalonikis Ave.,GeGDi-Th,34.9180133596127,33.6208562831158,6371
6372,21068,Municipal Library 2,MunicLibra,34.916724235321,33.6243059543314,6372
6393,21115,Georg. Griva Digeni Ave. - Ag. Georgios Church 2,GeGDi-AGeC,34.9232552988576,33.6114036101475,6393
6394,21116,Georg. Griva Digeni Ave. - Kon. Palaiologou Ave. 1,GeGDi-KPa,34.9192814590881,33.617975628774,6394
6395,21117,Fire Station 2,FireStati,34.9212721837046,33.6148375251659,6395
6414,21143,Ammochostou Ave. - Athinon 1,AmAv-At,34.9587872927012,33.6556545787598,6414
6417,21146,Princess Beach Hotel 2,PriBeaHot,34.9697138693175,33.6693141525442,6417
6418,21148,Oroklini Fire Station 1,OroFirSta,34.9617170868278,33.6591391761901,6418
6420,21150,Ammochostou Ave. - Galaxia 2,AmAv-Ga,34.9670065564412,33.6664221709246,6420
6421,21153,Ammochostou Ave. - Kalliskala 1,AmAv-Ka,34.9641437428232,33.6622694541844,6421
6423,21155,Ammochostou Ave. - Kalliskala 2,AmAv-Ka,34.9639100800552,33.6621251765952,6423
6425,21158,Ammochostou Ave. - Galaxia 1,AmAv-Ga,34.9679861487431,33.6670216298259,6425
6427,21160,Oroklini Fire Station 2,OroFirSta,34.9617338126212,33.6593802839924,6427
6429,21162,Princess Beach Hotel 1,PriBeaHot,34.9697600402302,33.6691173485713,6429
6431,21164,Ammochostou Ave. - Athinon 2,AmAv-At,34.9586429038747,33.6556753346415,6431
6435,21168,Akropoleos Ave. - Kantaras,AkAv-Ka,34.9756647815467,33.6807559723753,6435
6447,21193,Akropoleos Ave. - Mesaorias Ave.,AkAv-MeAv,34.9724933979327,33.6738063131729,6447
6450,21196,Palm Beach Hotel,PalBeaHot,34.9712518273965,33.6716709505678,6450
6497,21273,Archiep. Makariou C´ Ave. - Filiou Tsigaridi 2,ArMaC-FiTs,34.9194730735577,33.6367524778022,6497
6537,21323,Municipal Park 1,MunicPark,34.9167370826448,33.62706479651,6537
6539,21326,Georg. Griva Digeni Ave. - Kon. Palaiologou Ave. 2,GeGDi-KPa,34.9194167146212,33.6179766426449,6539
6540,21327,Fire Station 1,FireStati,34.9211460005634,33.6148256360473,6540
6552,21347,Ammochostou Ave. - Thyras,AmAv-Th,34.9565364411918,33.6533365917294,6552
6553,21348,Larnaka Nautical Club,LarNauClu,34.9530069587741,33.6506691038844,6553
6554,21349,Oil and Gas Storages 2,OianGaSt,34.9502605428027,33.648259901138,6554
6555,21350,Ammochostou Ave. - Katinas Paxinou,AmAv-KaPa,34.9461118544692,33.6450075654844,6555
6556,21351,Ammochostou Ave. - Thetidos,AmAv-Th,34.9461674095319,33.6447342181427,6556
6557,21352,Oil and Gas Storages 1,OianGaSt,34.9503430392395,33.6480086580294,6557
6594,21414,Intercollege 2,Intercolle,34.9413730343365,33.6424956075423,6594
6595,21415,Tassou Papadopoulou - Aristoteli Valaoriti,TaPa-ArVa,34.9334211459855,33.6388092769418,6595
6596,21416,Archiep. Makariou C´ Ave. - Nigritis,ArMaC-Ni,34.9259656563968,33.636736941393,6596
6597,21417,Archiep. Makariou C´ Ave. - Filiou Tsigaridi 1,ArMaC-FiTs,34.9187528603531,33.6365279619346,6597
6599,21419,Archiep. Makariou C´ Ave. - Kleov. Papakyriakou,ArMaC-KlPa,34.9283904237115,33.6369089601145,6599
6601,21421,Tassou Papadopoulou,TassoPapad,34.9327117968735,33.638234402941,6601
6603,21423,Intercollege 1,Intercolle,34.9399431574488,33.6417617240314,6603
6650,21500,Akropoleos Ave. - Ithakis,AkAv-It,34.9738980258788,33.6758006653445,6650
6653,21505,Pyla Beach Park 1,PylBeaPar,34.9774279899023,33.6863030546131,6653
6656,21508,Akropoleos Ave. - Lordos - Sandy - Golden Bay,Ak-Lo-S-Go,34.978150542462,33.6908665793858,6656
6657,21509,Dasaki Pylas Beach 1,DasPylBea,34.9791648261302,33.6964186578063,6657
6658,21511,K.O.T. Beach 1,K.O.TBeach,34.9795098220434,33.6991495465459,6658
6661,21514,Dasaki Pylas Beach 2,DasPylBea,34.9790570014533,33.696352011111,6661
6663,21517,Akropoleos Ave. - Sandy - Golden Bay Hotels,Ak-S-GoBHo,34.978171417342,33.6919513512797,6663
6665,21520,Akropoleos Ave. - Lordos Beach Hotel,Ak-LoBH,34.9779217109195,33.6898786635676,6665
6667,21523,Pyla Beach Park 2,PylBeaPar,34.9773115760011,33.6861596630513,6667
6669,21526,Akropoleos Ave. - Kantaras 2,AkAv-Ka,34.9755389142608,33.6806891997664,6669
6671,21529,Akropoleos Ave. - Yanathes Beach,AkAv-YaBe,34.9744034414537,33.6773385212545,6671
6694,21553,Ammochostou Ave. - Dafnis,AmAv-Da,34.9555679119241,33.6523431769861,6694
6733,21811,Grigori Afxentiou Ave. - Foinikoudes 2,GrAfAv-Fo,34.9178223662695,33.6351304406883,6733
6734,21812,Grigori Afxentiou Ave. - Foinikoudes 1,GrAfAv-Fo,34.9176764344531,33.6354467945138,6734
6882,22037,Olympic Swimming Pool,OlySwiPoo,34.9238488050625,33.6008866395403,6882
6894,22084,Municipal Park 2,MunicPark,34.9168095577485,33.6269996632646,6894
6895,22085,Georg. Griva Digeni Ave. - Chr. Iakovidou,GeGDi-CIa,34.918561253722,33.6195138485714,6895
6904,22102,Archiep. Makariou C´ Ave. - Georgiou Georgiadi,ArMaC-GeGe,34.9238185788252,33.6369174251071,6904
6910,22115,K.O.T. Beach 2,K.O.TBeach,34.9793037601176,33.6989177261062,6910
6920,22131,Larnaka - Dekeleia Ave. - 4th Stop,La-De-4S,34.9826556679201,33.7163664163668,6920
6921,22132,Larnaka - Dekeleia Ave. - 2nd Stop,La-De-2S,34.9796717597997,33.7023390355508,6921
6922,22133,Larnaka - Dekeleia Ave. - 1st Stop,La-De-1S,34.9797626880691,33.7022083432584,6922
7071,21970,Xylotymvou - Dasaki Achnas Road,Xy-DaAcRo,35.0087626668366,33.7326168510379,7071
7255,22209,Mall Metropolis,Metropolis,34.924193545739,33.6077209580138,7255
7259,40505,Perneras Ave. - Afroditis,PeAv-Af,35.0272173364642,34.0393633612538,7259
7260,40506,Perneras Ave. - Odysseos,PeAv-Od,35.0283722100142,34.0382269848111,7260
7261,40507,Perneras Ave. - Lapithou,PeAv-La,35.0285344026896,34.038239997757,7261
7262,40508,Perneras Ave. - Perneras 2,PeAv-Pe,35.0301022179587,34.0373170841924,7262
7263,40509,Perneras Ave. - Perneras 1,PeAv-Pe,35.0300378883083,34.0374587785941,7263
7264,40511,Perneras Ave. - Ellinon,PeAv-El,35.0319180990877,34.0347967650397,7264
7265,40512,Perneras Ave. - Ymittou,PeAv-Ym,35.0319083831968,34.0338209935472,7265
7266,40513,Sea Caves 1,SeaCaves,34.9732884797617,34.0579943884983,7266
7267,40514,Sea Caves 2,SeaCaves,34.9734542972383,34.0575912035955,7267
7268,40515,Agia Napa Police Station,AgNaPoSt,34.9929986486873,34.0017638238106,7268
7275,40522,1 Apriliou Ave. - Stadiou,1ApAv-St,35.0324169745716,33.9801442891485,7275
7276,40523,1 Apriliou Ave. - Tasou Markou 1,1Ap-TMa,35.0407491591044,33.9778427683324,7276
7277,40524,1 Apriliou Ave. - Tasou Markou 2,1Ap-TMa,35.0408472754537,33.9779755007448,7277
7278,40525,Xenion Education 1,XenioEduca,35.0418675043459,33.9778122394597,7278
7279,40526,Xenion Education 2,XenioEduca,35.0416139942632,33.9779407832524,7279
7280,40527,1 Apriliou Ave. - Georgiou Griva Digeni Ave.,1Ap-GeGDi,35.0444999288386,33.9778765009908,7280
7281,40528,Deryneia Municipal Swimming Pool 1,DeMuSwPo,35.0501971114634,33.9346002303595,7281
7282,40529,Deryneia Municipal Swimming Pool 2,DeMuSwPo,35.0499471080408,33.9342794009099,7282
7283,40530,Karyon - Markou Drakou 1,Ka-MaDr,35.0416691874875,33.8406418834246,7283
7284,40531,Karyon - Markou Drakou 2,Ka-MaDr,35.0415888753492,33.8405204583704,7284
7285,40532,Avgorou Ethnographic Museum 1,AvgEthMus,35.0397508190604,33.8403152520364,7285
7286,40533,Avgorou Ethnographic Museum 2,AvgEthMus,35.0396794470174,33.8402048852976,7286
7287,40534,Karyon - Panagioti Pafiti,Ka-PaPa,35.0358039832481,33.8399349885632,7287
7288,40535,Karyon - Riga Feraiou,Ka-RiFe,35.0358767216452,33.8398480281902,7288
7289,40536,Karyon - Xanthou Samara,Ka-XaSa,35.0317127287166,33.8395752137723,7289
7290,40537,Agia Napa Marina 1,AgiNapMar,34.9795150541022,33.9413118372798,7290
7291,40538,Agia Napa Marina 2,AgiNapMar,34.9800828310617,33.9425124889476,7291
7424,40539,Griva Digeni - Nikolaou Michail,GrDi-NikMi,35.0338964880996,33.7614213928747,7424
7425,40540,Griva Digeni - Foti Pitta,GrDi-FotPi,35.0319791657708,33.7666218245848,7425
7426,40541,Achna Livestock Area 1,AchLivArea,35.0361062924448,33.7853745133991,7426
7427,40542,Achna Livestock Area 2,AchLivArea,35.0359980939851,33.785373478131,7427
7529,40414,Deryneia (Green Line) 2,DerGrLin,35.0693567883849,33.9601643979777,7529
7530,40902,Kryou Nerou Ave. - 2ndStop 2,KrNeAv-2n,34.98602599785,34.0096878996335,7530
7531,40903,Modestou Panteli - Agion Anargyron 1,MoPa-AgAna,35.0192471607126,33.901716281405,7531
7532,40904,Modestou Panteli - Agion Anargyron 2,MoPa-DiSo,35.0189873166979,33.9014942131868,7532
7533,40905,Liopetri Square 2,LiopeSquar,35.0097117855775,33.8925480798556,7533
7994,40930,New Famagusta Central Bus Station,NFaCeBuSt,35.0515638129473,33.9729387108404,7994
7995,40910,Famagusta Police Headquarters 1,FamPolHead,35.0520874570227,33.9873640386606,7995
7996,40906,Nisi Ave. - Makronisou,NisAv-Makr,34.9884970268497,33.956184220467,7996
7997,40907,Evangelou Floraki 1,EvangFlora,34.9846896218445,34.0012024397882,7997
7998,40908,Evangelou Floraki 2,EvangFlora,34.9847975438163,34.0012366220288,7998
7999,40909,Konnou - Iras 2,Kon-Ira,34.9935092581186,34.0677434862426,7999
8000,40911,Giorki Papadopoulou - Famagusta District Court,GiPa-FamDC,35.0521784908628,33.9927818982436,8000
8001,40912,Famagusta District Court 1,FamDisCour,35.0514135157465,33.9937046653313,8001
8002,40913,Famagusta District Court 2,FamDisCour,35.0513945855559,33.993814086016,8002
8003,40914,1st Stop Frenaros Industrial Zone 1,1stFrenInZ,35.0355271081199,33.9144038423511,8003
8004,40915,2nd Stop Frenaros Industrial Zone 1,2ndFrenInZ,35.0374485799667,33.9094917976082,8004
8005,40916,2nd Stop Frenaros Industrial Zone 2,2ndFrenInZ,35.0376021848448,33.9094496467439,8005
8006,40917,1st Stop Frenaros Industrial Zone 2,1stFrenInZ,35.0366556576701,33.9118181559969,8006
8007,40918,25 Martiou - Megalou Alexandrou,25Mar-MeAl,34.9765353745364,33.839822366065,8007
8008,40919,25 Martiou - Agiou Dimitriou,25Mar-AgDi,34.9759408236241,33.8358176868227,8008
8009,40920,Makario Sport Center - Xylofagou F.C.,MakSpC-Xyl,34.9758092645569,33.8378978150083,8009
8010,40921,Paralimni Municipality,ParalMuni,35.0405176522239,33.9830586648857,8010
8016,40923,Roundabout Paralimni - Deryneia 2,RounParDer,35.0523734114263,33.9731785815848,8016
8017,40922,Roundabout Paralimni - Deryneia 1,RounParDer,35.0523061192564,33.972574700244,8017
8021,40924,Agia Napa Athletic Centre,AgNapAthCe,34.9926971757643,34.0152593540454,8021
